~Version Information Block
 VERS.                2.00:     CWLS LOG ASCII STANDARD - VERSION 2.000000
 WRAP.                  NO:     One Line Per Depth Step
#
~Well Information Block
#MNEM.UNIT                     Data                         Information
#----------   ------------------------------------------   ----------------
 STRT.FT                                        0.0000:     START DEPTH
 STOP.FT                                     1150.0000:     STOP DEPTH
 STEP.FT                                        0.5000:     STEP
 NULL.                                       -999.2500:     NULL VALUE
 COMP.                                Aerkla Expl. Co.:     COMPANY
 WELL.                                 State #3 V #326:     WELL
 FLD .                                         Wildcat:     FIELD
 LOC .                                           NW NW:     LOCATION
 SEC .                                              36:     SECTION
 TWP .                                             17N:     TOWNSHIP
 RANG.                                             22E:     RANGE
 CNTY.                                          Navajo:     COUNTY
 STAT.                                         Arizona:     STATE
 CTRY.                                          U.S.A.:     COUNTRY
 SRVC.                           Jet Radioactivity Log:     SERVICE COMPANY
 DATE.                                                :     DATE
 API .                                    02-017-05143:     API NUMBER
 UWI .                                    02-017-05143:     UWI NUMBER
 TVD .                                              NO:     TVD flag
 WSTA.                                               S:     Well status
#
~Curve Information Block
#MNEM.UNIT       API CODE      Curve Description
#----------    -------------   -------------------
 DEPT.FT                   :   Depth in Feet
 GR  .GAPI     35 310 01 01:   Gamma Ray
 NEUT.NCPS     35 330 30 01:   Neutrons
#
~Parameter Information Block
#MNEM.UNIT            Value               Description
#----------    --------------------    -------------------
 DATE.                   10/2/1965:    Date As Month-Day-Year
 RUN .                         ONE:    Run Number
 EPD .FT                    0.0000:    Elevation Of Perm. Datum
 LMF .                          KB:    Log Measured From
 TD  .FT                 1150.0000:    Total Depth
 DF  .               Permian Supai:    
 PROJ.                       RMCCS:    
 BLI .FT                 1159.0000:    Bottom Log Interval
 TLI .FT                    0.0000:    Top Log Interval
 CSIZ.IN                         7:    Casing Size
 DFT .                      Diesel:    Drilling Fluid Type
 DFL .ML                  210.0000:    Drilling Fluid Loss
 ENGI.                      Baldry:    Engineer'S Name
 WITN.                      Spragg:    Witness' Name
 DGBY.                         J.L:    
 PDAT.                         UNK:    Permanent Datum
 WSTA.                           S:    
#
~Other Information Block
<DescLogPlotStart>   NEURALOG PLOT DEFINITION
PLOTDEFVERSION: 3
LASFILE: C:\nds\projects\AZGS Digitized OGPwelllogs\las\0326GRN.las
DEPTHSCALE: 240.000000
RESOLUTION: 200
DEPTHLABELFREQ: 100.000000
HEAVYGRIDFREQ: 100.000000
MEDIUMGRIDFREQ: 50.000000
LIGHTGRIDFREQ: 10.000000
#
#   TRACK 1
#
STARTTRACK: 
 LEFTX: 0.500000 inch
 RIGHTX: 3.000000 inch
 SCALETYPE: Linear
 NUMCHARTDIVISIONS: 10
CURVE: GR    0.000000   100.000000 (0,0,255)      Solid             2     N    
ENDTRACK: 
#
#   TRACK 2
#
STARTTRACK: 
 LEFTX: 3.500000 inch
 RIGHTX: 8.500000 inch
 SCALETYPE: Linear
 NUMCHARTDIVISIONS: 20
CURVE: NEUT  320.000000 1920.000000 (0,131,131)    Solid             2     N   
ENDTRACK: 
<DescLogPlotEnd>
<DescLog>Gamma Ray Neutron
<DescOSVS>
<DescOSVS>
<DescOSVS>
~A DEPTH     GR               NEUT            
# ...
    1026.000 17.78593799      710.84164762    
    1026.500 19.56552515      746.05638662    
    1027.000 20.80768753      751.99760280    
    1027.500 19.11321180      793.02429532    
    1028.000 14.85399283      922.41719422    
    1028.500 10.21435003      1092.05909326   
    1029.000 6.95477186       1262.06980821   
    1029.500 4.67731810       1435.34603811   
    1030.000 3.38537773       1535.24573721   
    1030.500 2.33233734       1613.48044132   
    1031.000 1.56851866       1619.20026178   
    1031.500 1.84727742       1604.36005326   
    1032.000 2.72755964       1564.02309578   
    1032.500 3.21334991       1526.89366147   
    1033.000 2.86784589       1569.70430895   
    1033.500 2.69152114       1600.35257912   
    1034.000 1.76882049       1592.51110279   
    1034.500 1.17916748       1631.89577157   
    1035.000 0.90786833       1621.66621166   
    1035.500 1.09085164       1610.37155075   
    1036.000 1.70360375       1537.14934882   
    1036.500 2.74611833       1388.37922927   
    1037.000 5.92635266       1149.22217087   
    1037.500 9.01013039       883.45467205    
    1038.000 10.09828730      755.10910136    
    1038.500 10.18688269      747.54568424    
    1039.000 9.56590150       797.18772377    
    1039.500 9.51179282       894.07795935    
    1040.000 8.65288942       982.45857560    
    1040.500 7.13863043       1082.97318787   
    1041.000 6.52258230       1178.40403571   
    1041.500 6.71641053       1229.67793232   
    1042.000 5.87271886       1298.36000820   
    1042.500 4.32238449       1379.01335168   
    1043.000 3.24784729       1443.67106891   
    1043.500 2.96877343       1500.95900965   
    1044.000 2.88598418       1500.34225243   
    1044.500 2.85808416       1510.62872380   
    1045.000 3.19193490       1512.96011073   
    1045.500 3.72602911       1485.63426338   
    1046.000 3.68566336       1468.33017000   
    1046.500 3.31550744       1465.48407845   
    1047.000 2.82630287       1480.30414993   
    1047.500 2.02692396       1515.79567922   
    1048.000 1.26950106       1563.65686129   
    1048.500 1.51766965       1560.66754318   
    1049.000 1.50473867       1529.50100539   
    1049.500 1.30331738       1452.64945013   
    1050.000 1.11407223       1407.24094730   
    1050.500 1.50255352       1398.70649027   
    1051.000 1.32758863       1429.04724932   
    1051.500 1.28635788       1499.62163147   
    1052.000 1.11146776       1555.80043077   
    1052.500 1.09366803       1612.74908989   
    1053.000 1.31103704       1652.58955182   
    1053.500 1.30616318       1656.53316156   
    1054.000 1.30616318       1647.41570398   
    1054.500 1.31111486       1649.18976753   
    1055.000 1.09012035       1644.84099484   
    1055.500 1.09880991       1632.24392094   
    1056.000 1.60134435       1584.79613731   
    1056.500 3.56412783       1494.91924796   
    1057.000 7.06001874       1325.41624875   
    1057.500 11.03651161      1059.01705115   
    1058.000 15.37215558      852.54162487    
    1058.500 15.80089227      733.23971916    
    1059.000 14.84481836      700.96036204    
    1059.500 16.62867807      730.66433592    
    1060.000 18.66301931      745.39812848    
    1060.500 18.11167986      769.48443717    
    1061.000 13.69292003      851.88020030    
    1061.500 9.04598941       1015.92126677   
    1062.000 7.68234473       1133.75262016   
    1062.500 6.94402677       1184.44165576   
    1063.000 5.82079707       1259.86526918   
    1063.500 4.23525912       1357.39725431   
    1064.000 3.35867877       1468.23034100   
    1064.500 3.11804129       1507.06909416   
    1065.000 3.13804268       1528.67963794   
    1065.500 3.22761971       1533.28029430   
    1066.000 2.83876918       1540.83092736   
    1066.500 2.21144367       1547.20782211   
    1067.000 2.20355068       1522.43089536   
    1067.500 2.54101556       1512.24518072   
    1068.000 2.01563305       1534.19845832   
    1068.500 1.48107271       1586.77809466   
    1069.000 0.92998426       1661.88350028   
    1069.500 0.68960533       1684.68779457   
    1070.000 0.70417479       1696.96378932   
    1070.500 0.69118979       1718.15751466   
    1071.000 0.91846816       1732.49234940   
    1071.500 0.90231367       1716.45256569   
    1072.000 0.91957342       1713.31147119   
    1072.500 0.68472066       1722.99892815   
    1073.000 0.55496914       1727.91495009   
    1073.500 0.49960818       1746.13199738   
    1074.000 0.50157071       1775.38956328   
    1074.500 0.50191285       1808.69750633   
    1075.000 0.50701345       1817.35738163   
    1075.500 0.64934916       1779.90895809   
    1076.000 0.75142713       1724.30921621   
    1076.500 1.95625648       1631.55481909   
    1077.000 4.82839899       1435.22502228   
    1077.500 12.01610466      1124.81444333   
    1078.000 20.41658644      835.69107322    
    1078.500 21.91975102      673.86158475    
    1079.000 20.38842270      649.78936810    
    1079.500 18.60354236      689.90972919    
    1080.000 17.91683671      713.98194584    
    1080.500 15.94220998      773.17225861    
    1081.000 13.60543298      914.91267870    
    1081.500 7.86643460       1129.45350034   
    1082.000 4.31785564       1328.72216650   
    1082.500 4.29913997       1452.19658977   
    1083.000 6.24301804       1452.19658977   
    1083.500 7.58514096       1387.63825730   
    1084.000 6.34134990       1304.24681530   
    1084.500 6.19260629       1199.89637712   
    1085.000 6.36354813       1249.26995398   
    1085.500 4.66587562       1407.25740041   
    1086.000 3.03481069       1536.99811513   
    1086.500 2.34798498       1632.76158939   
    1087.000 2.11595969       1632.11264703   
    1087.500 2.84104775       1542.31602536   
    1088.000 4.39993098       1432.05524724   
    1088.500 5.35099902       1356.34194958   
    1089.000 3.81074428       1351.21820737   
    1089.500 2.61066047       1508.91041384   
    1090.000 2.10184061       1631.29487231   
    1090.500 2.18359363       1594.78370836   
    1091.000 3.35347352       1575.30102203   
    1091.500 2.79249151       1566.15054158   
    1092.000 2.12633952       1586.67407047   
    1092.500 2.01449384       1659.78567660   
    1093.000 1.85937006       1719.80707269   
    1093.500 1.12665148       1729.26055424   
    1094.000 0.79549983       1753.05541870   
    1094.500 0.50514865       1817.84501540   
    1095.000 0.29700016       1847.18485231   
    1095.500 0.11920497       1856.29493181   
    1096.000 0.09631561       1867.21431041   
    1096.500 0.08152326       1914.49556160   
    1097.000 0.21920642       1946.99228696   
    1097.500 0.31392146       1948.10178750   
    1098.000 0.50164684       1948.13722442   
    1098.500 0.68561576       1948.08561717   
    1099.000 0.70822630       1948.08425276   
    1099.500 0.70431141       1948.07543726   
    1100.000 0.70312009       1948.05507032   
    1100.500 0.71044560       1948.48480784   
    1101.000 0.85410683       1949.63945492   
    1101.500 0.90398520       1949.69788270   
    1102.000 0.95224316       1949.69179602   
    1102.500 1.15893300       1949.68906720   
    1103.000 1.43879712       1949.68906720   
    1103.500 1.71872203       1949.68906720   
    1104.000 1.50620975       1949.68906720   
    1104.500 1.08944770       1949.68906720   
    1105.000 0.90997344       1949.68906720   
    1105.500 0.90766089       1949.68906720   
    1106.000 0.90533934       1949.68906720   
    1106.500 0.90168053       1949.68906720   
    1107.000 0.89123277       1949.68906720   
    1107.500 1.08678320       1949.98328242   
    1108.000 1.50013208       1949.26928674   
    1108.500 2.41509427       1945.87064414   
    1109.000 5.18297328       1959.35178673   
    1109.500 10.54127316      1472.34054031   
    1110.000 16.82901611      1285.61039904   
    1110.500 18.46673252      1248.38515547   
    1111.000 17.92024850      1302.62788365   
