~Version Information Block
 VERS.                2.00:     CWLS LOG ASCII STANDARD - VERSION 2.000000
 WRAP.                  NO:     One Line Per Depth Step
#
~Well Information Block
#MNEM.UNIT                     Data                         Information
#----------   ------------------------------------------   ----------------
 STRT.FT                                        0.0000:     START DEPTH
 STOP.FT                                     1150.0000:     STOP DEPTH
 STEP.FT                                        0.5000:     STEP
 NULL.                                       -999.2500:     NULL VALUE
 COMP.                                Aerkla Expl. Co.:     COMPANY
 WELL.                                 State #3 V #326:     WELL
 FLD .                                         Wildcat:     FIELD
 LOC .                                           NW NW:     LOCATION
 SEC .                                              36:     SECTION
 TWP .                                             17N:     TOWNSHIP
 RANG.                                             22E:     RANGE
 CNTY.                                          Navajo:     COUNTY
 STAT.                                         Arizona:     STATE
 CTRY.                                          U.S.A.:     COUNTRY
 SRVC.                           Jet Radioactivity Log:     SERVICE COMPANY
 DATE.                                                :     DATE
 API .                                    02-017-05143:     API NUMBER
 UWI .                                    02-017-05143:     UWI NUMBER
 TVD .                                              NO:     TVD flag
 WSTA.                                               S:     Well status
#
~Curve Information Block
#MNEM.UNIT       API CODE      Curve Description
#----------    -------------   -------------------
 DEPT.FT                   :   Depth in Feet
 GR  .GAPI     35 310 01 01:   Gamma Ray
 NEUT.NCPS     35 330 30 01:   Neutrons
#
~Parameter Information Block
#MNEM.UNIT            Value               Description
#----------    --------------------    -------------------
 DATE.                   10/2/1965:    Date As Month-Day-Year
 RUN .                         ONE:    Run Number
 EPD .FT                    0.0000:    Elevation Of Perm. Datum
 LMF .                          KB:    Log Measured From
 TD  .FT                 1150.0000:    Total Depth
 DF  .               Permian Supai:    
 PROJ.                       RMCCS:    
 BLI .FT                 1159.0000:    Bottom Log Interval
 TLI .FT                    0.0000:    Top Log Interval
 CSIZ.IN                         7:    Casing Size
 DFT .                      Diesel:    Drilling Fluid Type
 DFL .ML                  210.0000:    Drilling Fluid Loss
 ENGI.                      Baldry:    Engineer'S Name
 WITN.                      Spragg:    Witness' Name
 DGBY.                         J.L:    
 PDAT.                         UNK:    Permanent Datum
 WSTA.                           S:    
#
~Other Information Block
<DescLogPlotStart>   NEURALOG PLOT DEFINITION
PLOTDEFVERSION: 3
LASFILE: C:\nds\projects\AZGS Digitized OGPwelllogs\las\0326GRN.las
DEPTHSCALE: 240.000000
RESOLUTION: 200
DEPTHLABELFREQ: 100.000000
HEAVYGRIDFREQ: 100.000000
MEDIUMGRIDFREQ: 50.000000
LIGHTGRIDFREQ: 10.000000
#
#   TRACK 1
#
STARTTRACK: 
 LEFTX: 0.500000 inch
 RIGHTX: 3.000000 inch
 SCALETYPE: Linear
 NUMCHARTDIVISIONS: 10
CURVE: GR    0.000000   100.000000 (0,0,255)      Solid             2     N    
ENDTRACK: 
#
#   TRACK 2
#
STARTTRACK: 
 LEFTX: 3.500000 inch
 RIGHTX: 8.500000 inch
 SCALETYPE: Linear
 NUMCHARTDIVISIONS: 20
CURVE: NEUT  320.000000 1920.000000 (0,131,131)    Solid             2     N   
ENDTRACK: 
<DescLogPlotEnd>
<DescLog>Gamma Ray Neutron
<DescOSVS>
<DescOSVS>
<DescOSVS>
~A DEPTH     GR               NEUT            
# ...
     513.000 4.27485318       742.91298318    
     513.500 4.31671992       738.82226220    
     514.000 4.40862110       727.83771795    
     514.500 4.78359797       724.27970039    
     515.000 5.26258364       680.51197860    
     515.500 5.97395013       626.94925247    
     516.000 6.62485977       587.61717995    
     516.500 5.93925640       569.89095143    
     517.000 5.31630306       578.60382550    
     517.500 5.17601592       588.91145031    
     518.000 5.11098901       600.32297177    
     518.500 5.16288957       617.65131329    
     519.000 5.55806652       620.43250398    
     519.500 5.33069305       594.99426367    
     520.000 5.10979802       592.76707438    
     520.500 4.97736736       598.60600332    
     521.000 5.17481476       598.24033551    
     521.500 5.54716344       627.78346459    
     522.000 5.67161123       635.39641546    
     522.500 5.74341136       626.58657363    
     523.000 5.95690027       621.09400375    
     523.500 5.58273636       626.28912742    
     524.000 5.66923720       628.97561968    
     524.500 5.52322364       637.04046874    
     525.000 5.72426254       638.98968635    
     525.500 6.40653213       640.78207933    
     526.000 6.60701304       646.51767346    
     526.500 7.04435834       663.12520904    
     527.000 6.81206683       667.13075702    
     527.500 6.52659072       649.51281429    
     528.000 6.81281099       638.02636820    
     528.500 6.94188525       619.99901310    
     529.000 6.96342523       614.34372222    
     529.500 6.12704236       615.29620251    
     530.000 5.06028861       625.63591384    
     530.500 4.62986772       636.43177974    
     531.000 4.30972293       640.70624159    
     531.500 5.04430409       632.11837488    
     532.000 5.53817519       627.76208081    
     532.500 5.33867183       637.55425819    
     533.000 4.82923630       654.48874115    
     533.500 4.75382670       659.83800649    
     534.000 4.50959373       640.93216333    
     534.500 4.40139437       627.28622586    
     535.000 5.01486236       622.47999825    
     535.500 5.44609436       626.75725106    
     536.000 6.58068366       639.19558454    
     536.500 7.24816364       644.86126338    
     537.000 7.56098256       644.89688428    
     537.500 7.52442609       651.62190665    
     538.000 7.56538717       645.82622610    
     538.500 7.64940469       631.51832702    
     539.000 7.84285059       618.18717025    
     539.500 7.66225986       615.52089883    
     540.000 7.12372585       609.44259482    
     540.500 6.73857616       610.03712783    
     541.000 6.73603841       609.86425153    
     541.500 6.54979834       609.38963111    
     542.000 6.77149131       607.57405427    
     542.500 7.23151189       605.41963134    
     543.000 7.54898831       614.36364249    
     543.500 7.32251034       623.95420185    
     544.000 7.16244696       630.33883254    
     544.500 7.23863362       625.58907891    
     545.000 7.84585935       625.49071766    
     545.500 8.45136733       623.01379685    
     546.000 8.41417222       622.64625079    
     546.500 7.23231466       636.66831595    
     547.000 6.72610142       652.84731946    
     547.500 7.15338755       674.95290521    
     548.000 7.45212773       677.46199226    
     548.500 7.00369533       669.50281917    
     549.000 6.24417418       662.41089159    
     549.500 5.53568457       646.67489168    
     550.000 4.97956580       638.50303914    
     550.500 4.53189621       637.04728109    
     551.000 4.37641818       618.82545154    
     551.500 4.87100244       608.71318735    
     552.000 5.19587580       623.16309263    
     552.500 5.32192300       638.14902623    
     553.000 5.38401847       648.08194514    
     553.500 5.52240384       662.91544826    
     554.000 5.40791617       685.25911237    
     554.500 4.65227299       696.18253048    
     555.000 4.51085431       726.42939757    
     555.500 4.56848183       739.56607473    
     556.000 4.29419646       744.29571696    
     556.500 4.31876997       740.99065829    
     557.000 4.52131191       735.24385640    
     557.500 5.14671544       735.96032010    
     558.000 5.65777820       729.90868399    
     558.500 6.85490847       727.76106616    
     559.000 7.98836574       751.02040808    
     559.500 8.14066868       746.21575061    
     560.000 7.95223915       753.61901444    
     560.500 7.33273665       757.33292559    
     561.000 7.30143416       740.52792104    
     561.500 6.78760817       720.42653885    
     562.000 6.53035395       729.40758576    
     562.500 6.70538310       735.67383478    
     563.000 7.09144067       739.16869146    
     563.500 7.20068628       759.82183947    
     564.000 6.96233372       751.60658760    
     564.500 7.53474201       743.51967168    
     565.000 7.68557787       718.97077082    
     565.500 7.96705287       723.45091319    
     566.000 7.95328110       735.15700482    
     566.500 8.16192892       749.27822318    
     567.000 8.14752527       737.58414620    
     567.500 8.14911946       770.18504085    
     568.000 8.12412903       781.36935100    
     568.500 7.75318608       787.81832533    
     569.000 7.67330559       787.08474920    
     569.500 8.17539711       779.71152601    
     570.000 8.46089797       773.02977382    
     570.500 8.05601286       783.14741503    
     571.000 7.64529331       754.09813177    
     571.500 7.53762586       710.55142927    
     572.000 7.71618420       666.13722361    
     572.500 7.12814557       658.63897863    
     573.000 6.02698476       679.51919348    
     573.500 5.23772258       682.67787278    
     574.000 5.10702839       668.95136497    
     574.500 5.13391293       650.50340966    
     575.000 5.24309973       650.58118048    
     575.500 6.40592197       669.21681428    
     576.000 8.62209411       679.99190430    
     576.500 10.36649881      688.18678826    
     577.000 8.65764706       694.17858137    
     577.500 7.05751967       701.80398638    
     578.000 6.10693330       743.61542720    
     578.500 5.52493969       763.58020196    
     579.000 5.43162963       787.02057012    
     579.500 5.34507618       785.53266501    
     580.000 5.70255813       771.43867466    
     580.500 6.00450137       775.19158852    
     581.000 6.17446874       783.07594665    
     581.500 5.66178292       781.48071554    
     582.000 5.61375678       752.68984412    
     582.500 5.53906915       705.04898561    
     583.000 6.17491574       680.32085188    
     583.500 6.34582757       670.88315124    
     584.000 6.24768685       681.97476998    
     584.500 6.65488352       698.89002528    
     585.000 7.29248669       707.67997129    
     585.500 8.26836842       697.60584618    
     586.000 8.75279791       693.18139060    
     586.500 9.26288211       710.83051008    
     587.000 8.88626735       715.92192120    
     587.500 7.84697756       713.89712001    
     588.000 6.87028677       723.99671675    
     588.500 6.23138056       697.15259291    
     589.000 6.45442687       685.40649558    
     589.500 7.06382166       682.27831673    
     590.000 7.42613490       693.19613814    
     590.500 7.85821534       713.01551593    
     591.000 7.94637594       724.50842433    
     591.500 7.85471295       719.55593677    
     592.000 7.46776750       715.49898896    
     592.500 6.43784311       715.58079922    
     593.000 5.54251485       715.30839713    
     593.500 5.52874550       728.78346218    
     594.000 5.53894632       737.85081950    
     594.500 5.72388919       750.55760182    
     595.000 5.91719456       752.58338392    
     595.500 6.15626178       750.85022004    
     596.000 6.15021698       754.59224637    
     596.500 5.83097196       761.41772051    
     597.000 5.73469307       777.28319864    
     597.500 5.74955429       798.15350625    
     598.000 5.82961633       801.05504981    
