~Version Information Block
 VERS.                2.00:     CWLS LOG ASCII STANDARD - VERSION 2.000000
 WRAP.                  NO:     One Line Per Depth Step
#
~Well Information Block
#MNEM.UNIT                     Data                         Information
#----------   ------------------------------------------   ----------------
 STRT.FT                                        0.0000:     START DEPTH
 STOP.FT                                     1150.0000:     STOP DEPTH
 STEP.FT                                        0.5000:     STEP
 NULL.                                       -999.2500:     NULL VALUE
 COMP.                                Aerkla Expl. Co.:     COMPANY
 WELL.                                 State #3 V #326:     WELL
 FLD .                                         Wildcat:     FIELD
 LOC .                                           NW NW:     LOCATION
 SEC .                                              36:     SECTION
 TWP .                                             17N:     TOWNSHIP
 RANG.                                             22E:     RANGE
 CNTY.                                          Navajo:     COUNTY
 STAT.                                         Arizona:     STATE
 CTRY.                                          U.S.A.:     COUNTRY
 SRVC.                           Jet Radioactivity Log:     SERVICE COMPANY
 DATE.                                                :     DATE
 API .                                    02-017-05143:     API NUMBER
 UWI .                                    02-017-05143:     UWI NUMBER
 TVD .                                              NO:     TVD flag
 WSTA.                                               S:     Well status
#
~Curve Information Block
#MNEM.UNIT       API CODE      Curve Description
#----------    -------------   -------------------
 DEPT.FT                   :   Depth in Feet
 GR  .GAPI     35 310 01 01:   Gamma Ray
 NEUT.NCPS     35 330 30 01:   Neutrons
#
~Parameter Information Block
#MNEM.UNIT            Value               Description
#----------    --------------------    -------------------
 DATE.                   10/2/1965:    Date As Month-Day-Year
 RUN .                         ONE:    Run Number
 EPD .FT                    0.0000:    Elevation Of Perm. Datum
 LMF .                          KB:    Log Measured From
 TD  .FT                 1150.0000:    Total Depth
 DF  .               Permian Supai:    
 PROJ.                       RMCCS:    
 BLI .FT                 1159.0000:    Bottom Log Interval
 TLI .FT                    0.0000:    Top Log Interval
 CSIZ.IN                         7:    Casing Size
 DFT .                      Diesel:    Drilling Fluid Type
 DFL .ML                  210.0000:    Drilling Fluid Loss
 ENGI.                      Baldry:    Engineer'S Name
 WITN.                      Spragg:    Witness' Name
 DGBY.                         J.L:    
 PDAT.                         UNK:    Permanent Datum
 WSTA.                           S:    
#
~Other Information Block
<DescLogPlotStart>   NEURALOG PLOT DEFINITION
PLOTDEFVERSION: 3
LASFILE: C:\nds\projects\AZGS Digitized OGPwelllogs\las\0326GRN.las
DEPTHSCALE: 240.000000
RESOLUTION: 200
DEPTHLABELFREQ: 100.000000
HEAVYGRIDFREQ: 100.000000
MEDIUMGRIDFREQ: 50.000000
LIGHTGRIDFREQ: 10.000000
#
#   TRACK 1
#
STARTTRACK: 
 LEFTX: 0.500000 inch
 RIGHTX: 3.000000 inch
 SCALETYPE: Linear
 NUMCHARTDIVISIONS: 10
CURVE: GR    0.000000   100.000000 (0,0,255)      Solid             2     N    
ENDTRACK: 
#
#   TRACK 2
#
STARTTRACK: 
 LEFTX: 3.500000 inch
 RIGHTX: 8.500000 inch
 SCALETYPE: Linear
 NUMCHARTDIVISIONS: 20
CURVE: NEUT  320.000000 1920.000000 (0,131,131)    Solid             2     N   
ENDTRACK: 
<DescLogPlotEnd>
<DescLog>Gamma Ray Neutron
<DescOSVS>
<DescOSVS>
<DescOSVS>
~A DEPTH     GR               NEUT            
# ...
     598.500 5.83748870       791.55996510    
     599.000 5.60859546       776.59855861    
     599.500 5.36983665       772.49730178    
     600.000 5.52143630       760.22660942    
     600.500 5.53374348       747.66217373    
     601.000 5.67462809       747.46108027    
     601.500 6.08403899       751.07948396    
     602.000 6.07625628       758.36993668    
     602.500 6.13702430       770.23727221    
     603.000 6.13126231       779.99386565    
     603.500 6.53667707       784.50868488    
     604.000 6.15550562       785.44382869    
     604.500 5.56513089       787.96817279    
     605.000 5.56905845       864.85112132    
     605.500 6.07498389       902.02035903    
     606.000 6.94089506       916.28523118    
     606.500 7.55633178       903.86080853    
     607.000 7.53673436       893.57830272    
     607.500 7.37894184       856.56052790    
     608.000 7.53885540       840.74014240    
     608.500 7.78784606       797.32202571    
     609.000 8.14029683       782.49989878    
     609.500 8.09636632       794.37928515    
     610.000 7.96572219       803.92355880    
     610.500 8.13443382       785.36853643    
     611.000 8.76798379       731.79284701    
     611.500 8.97012097       669.45308975    
     612.000 8.52111233       645.96781179    
     612.500 8.25173731       647.03417693    
     613.000 7.92494953       659.08799821    
     613.500 8.16607552       667.32200256    
     614.000 8.29275338       662.51399279    
     614.500 7.65127144       665.22496586    
     615.000 6.26372523       675.53750957    
     615.500 5.72986674       684.85935941    
     616.000 5.72279136       699.99861687    
     616.500 5.91542727       714.13963605    
     617.000 5.65579643       717.85302407    
     617.500 5.71654172       721.92379680    
     618.000 5.93918521       729.47541524    
     618.500 5.93212312       736.40276550    
     619.000 5.94258743       758.57267551    
     619.500 5.90600379       776.48798261    
     620.000 6.18722944       792.43139765    
     620.500 7.34039383       792.57485121    
     621.000 8.35470458       794.12801063    
     621.500 8.78532092       792.55070345    
     622.000 9.36551209       790.85964377    
     622.500 9.72660087       770.96295500    
     623.000 10.17167855      754.70603913    
     623.500 10.24222956      758.33314919    
     624.000 9.95488175       767.14510012    
     624.500 9.65145502       762.14083194    
     625.000 9.95618831       737.95188170    
     625.500 9.65879177       729.19444806    
     626.000 9.35187338       726.24367478    
     626.500 9.53933373       723.65719374    
     627.000 9.64436683       715.19312674    
     627.500 9.76706961       707.90708838    
     628.000 9.33360668       710.95410408    
     628.500 9.12388537       708.90131140    
     629.000 9.46432083       717.71280913    
     629.500 9.26815461       724.99336521    
     630.000 8.94014673       701.80036363    
     630.500 8.75125002       699.51538123    
     631.000 8.75470268       711.36497908    
     631.500 8.43590739       716.54176710    
     632.000 8.35267207       705.20045958    
     632.500 8.65354815       702.04861283    
     633.000 9.04088375       705.14735932    
     633.500 9.94201965       704.46664468    
     634.000 10.37926296      701.57621255    
     634.500 10.66282924      695.07822524    
     635.000 10.78005156      682.40782346    
     635.500 10.34505338      669.04629384    
     636.000 10.83848337      670.04137774    
     636.500 11.28302657      667.94724295    
     637.000 11.57688553      658.98248505    
     637.500 9.63356430       674.41428024    
     638.000 7.05195112       677.94482313    
     638.500 6.42096454       680.37044123    
     639.000 6.33186513       687.53593823    
     639.500 6.23863743       698.10767779    
     640.000 5.92118624       703.74262408    
     640.500 5.95990171       718.07386645    
     641.000 6.73998846       744.53781018    
     641.500 7.55717419       750.40456314    
     642.000 7.28877102       762.75073078    
     642.500 6.78662491       750.94071365    
     643.000 6.88636831       777.15996993    
     643.500 6.95026130       820.38590103    
     644.000 6.41511118       853.44252842    
     644.500 5.92630859       849.63357936    
     645.000 5.83699852       829.66511708    
     645.500 5.36491307       793.34201190    
     646.000 5.92086771       767.94115609    
     646.500 6.72503056       735.88927858    
     647.000 7.27630025       709.22979109    
     647.500 7.98835140       709.07377722    
     648.000 9.20784436       704.87048941    
     648.500 9.58614482       715.32966667    
     649.000 9.00784439       732.58435381    
     649.500 8.74295520       754.28575934    
     650.000 9.36057566       757.21429310    
     650.500 10.76046421      757.06913514    
     651.000 11.17872966      744.70455258    
     651.500 11.35664747      729.79304124    
     652.000 11.74680221      723.80472104    
     652.500 12.38180998      725.23742553    
     653.000 12.15107766      725.23213172    
     653.500 12.01202851      725.27821716    
     654.000 12.31761394      720.75352697    
     654.500 12.37970401      722.72144468    
     655.000 11.87637274      727.65276083    
     655.500 10.30962260      727.04724264    
     656.000 9.19189160       729.84928245    
     656.500 8.74163187       734.72073510    
     657.000 8.49568808       734.11851188    
     657.500 8.10922673       738.17049629    
     658.000 8.50575259       717.93102482    
     658.500 10.61173965      687.28533572    
     659.000 10.74939406      686.65825016    
     659.500 10.75352304      684.41195386    
     660.000 11.07618064      664.54357194    
     660.500 10.99507078      645.41985349    
     661.000 10.94758194      635.73807752    
     661.500 10.99095363      630.19697148    
     662.000 11.72436755      623.14389505    
     662.500 11.92817355      625.68543655    
     663.000 11.62285528      631.66829777    
     663.500 10.95534660      635.58053751    
     664.000 11.26466140      628.52380700    
     664.500 11.54194780      624.17509618    
     665.000 10.16937025      620.89964768    
     665.500 9.49731285       609.78045862    
     666.000 8.43125897       605.98938935    
     666.500 7.14132797       603.03389467    
     667.000 6.12274831       609.27633167    
     667.500 5.51804150       613.46313019    
     668.000 5.52862500       626.26419774    
     668.500 5.53631099       646.41768130    
     669.000 5.54855630       659.43371849    
     669.500 5.34553772       662.13508665    
     670.000 5.54199391       674.88304996    
     670.500 5.38476600       690.64664955    
     671.000 5.32294379       693.26798268    
     671.500 5.37686635       678.82369312    
     672.000 5.30093334       669.94593777    
     672.500 5.52941721       669.06589602    
     673.000 5.74210279       668.08515156    
     673.500 5.78217178       666.31001328    
     674.000 5.98936707       669.18197815    
     674.500 6.38750106       669.26259346    
     675.000 6.99128598       664.03290797    
     675.500 6.94778459       648.71046443    
     676.000 7.13127885       644.00558389    
     676.500 7.80551694       637.15617182    
     677.000 7.73098206       629.24423372    
     677.500 7.66889118       652.94960125    
     678.000 8.02073381       672.75794688    
     678.500 8.10591579       675.59700861    
     679.000 7.58913141       673.44711763    
     679.500 7.52536416       675.34996420    
     680.000 7.79388194       677.17624546    
     680.500 8.06404318       676.90938685    
     681.000 7.51092925       669.07539767    
     681.500 7.34689410       673.03186711    
     682.000 7.68711580       676.10642232    
     682.500 7.94221828       664.11842887    
     683.000 7.94698790       654.21364146    
     683.500 8.05372344       618.62753106    
