~Version Information Block
 VERS.                2.00:     CWLS LOG ASCII STANDARD - VERSION 2.000000
 WRAP.                  NO:     One Line Per Depth Step
#
~Well Information Block
#MNEM.UNIT                     Data                         Information
#----------   ------------------------------------------   ----------------
 STRT.FT                                        0.0000:     START DEPTH
 STOP.FT                                     1150.0000:     STOP DEPTH
 STEP.FT                                        0.5000:     STEP
 NULL.                                       -999.2500:     NULL VALUE
 COMP.                                Aerkla Expl. Co.:     COMPANY
 WELL.                                 State #3 V #326:     WELL
 FLD .                                         Wildcat:     FIELD
 LOC .                                           NW NW:     LOCATION
 SEC .                                              36:     SECTION
 TWP .                                             17N:     TOWNSHIP
 RANG.                                             22E:     RANGE
 CNTY.                                          Navajo:     COUNTY
 STAT.                                         Arizona:     STATE
 CTRY.                                          U.S.A.:     COUNTRY
 SRVC.                           Jet Radioactivity Log:     SERVICE COMPANY
 DATE.                                                :     DATE
 API .                                    02-017-05143:     API NUMBER
 UWI .                                    02-017-05143:     UWI NUMBER
 TVD .                                              NO:     TVD flag
 WSTA.                                               S:     Well status
#
~Curve Information Block
#MNEM.UNIT       API CODE      Curve Description
#----------    -------------   -------------------
 DEPT.FT                   :   Depth in Feet
 GR  .GAPI     35 310 01 01:   Gamma Ray
 NEUT.NCPS     35 330 30 01:   Neutrons
#
~Parameter Information Block
#MNEM.UNIT            Value               Description
#----------    --------------------    -------------------
 DATE.                   10/2/1965:    Date As Month-Day-Year
 RUN .                         ONE:    Run Number
 EPD .FT                    0.0000:    Elevation Of Perm. Datum
 LMF .                          KB:    Log Measured From
 TD  .FT                 1150.0000:    Total Depth
 DF  .               Permian Supai:    
 PROJ.                       RMCCS:    
 BLI .FT                 1159.0000:    Bottom Log Interval
 TLI .FT                    0.0000:    Top Log Interval
 CSIZ.IN                         7:    Casing Size
 DFT .                      Diesel:    Drilling Fluid Type
 DFL .ML                  210.0000:    Drilling Fluid Loss
 ENGI.                      Baldry:    Engineer'S Name
 WITN.                      Spragg:    Witness' Name
 DGBY.                         J.L:    
 PDAT.                         UNK:    Permanent Datum
 WSTA.                           S:    
#
~Other Information Block
<DescLogPlotStart>   NEURALOG PLOT DEFINITION
PLOTDEFVERSION: 3
LASFILE: C:\nds\projects\AZGS Digitized OGPwelllogs\las\0326GRN.las
DEPTHSCALE: 240.000000
RESOLUTION: 200
DEPTHLABELFREQ: 100.000000
HEAVYGRIDFREQ: 100.000000
MEDIUMGRIDFREQ: 50.000000
LIGHTGRIDFREQ: 10.000000
#
#   TRACK 1
#
STARTTRACK: 
 LEFTX: 0.500000 inch
 RIGHTX: 3.000000 inch
 SCALETYPE: Linear
 NUMCHARTDIVISIONS: 10
CURVE: GR    0.000000   100.000000 (0,0,255)      Solid             2     N    
ENDTRACK: 
#
#   TRACK 2
#
STARTTRACK: 
 LEFTX: 3.500000 inch
 RIGHTX: 8.500000 inch
 SCALETYPE: Linear
 NUMCHARTDIVISIONS: 20
CURVE: NEUT  320.000000 1920.000000 (0,131,131)    Solid             2     N   
ENDTRACK: 
<DescLogPlotEnd>
<DescLog>Gamma Ray Neutron
<DescOSVS>
<DescOSVS>
<DescOSVS>
~A DEPTH     GR               NEUT            
# ...
     171.000 32.20144794      1392.28685704   
     171.500 34.27767962      1389.66950825   
     172.000 35.67495878      1385.51235862   
     172.500 36.17285732      1345.89811728   
     173.000 36.16728936      1306.32235970   
     173.500 36.51693500      1301.86885322   
     174.000 36.92973197      1325.27169770   
     174.500 36.72607407      1374.21431902   
     175.000 35.90577166      1411.86259476   
     175.500 34.85865411      1416.88553095   
     176.000 33.85663998      1407.13534281   
     176.500 35.17859003      1398.61987838   
     177.000 39.46997907      1404.12816212   
     177.500 43.07539823      1395.02513604   
     178.000 42.36703503      1408.15451140   
     178.500 41.36003871      1489.71053488   
     179.000 41.11613602      1588.75888117   
     179.500 42.35760811      1674.83631388   
     180.000 41.97102791      1720.07753905   
     180.500 39.55153090      1700.76577489   
     181.000 38.71357312      1695.79771970   
     181.500 39.06772229      1728.76101907   
     182.000 36.03602221      1746.14063897   
     182.500 31.54554890      1765.15970477   
     183.000 27.05263683      1767.05619101   
     183.500 24.02103946      1784.79746661   
     184.000 22.89829416      1779.40011120   
     184.500 22.43890593      1743.80707512   
     185.000 24.83764443      1742.04597845   
     185.500 27.16285473      1772.12170291   
     186.000 28.89566932      1746.44294618   
     186.500 29.51186333      1733.01709241   
     187.000 30.73851916      1728.20488887   
     187.500 31.65550872      1724.74250540   
     188.000 31.05337973      1716.72118843   
     188.500 30.09694099      1707.38322715   
     189.000 30.53354225      1711.81605621   
     189.500 31.72535046      1715.76028033   
     190.000 31.79785783      1691.78497242   
     190.500 31.87805592      1653.70943381   
     191.000 32.24322650      1642.06410481   
     191.500 32.89989563      1618.05636667   
     192.000 34.95466439      1554.76143968   
     192.500 36.91623379      1503.11488117   
     193.000 40.27936965      1426.92530723   
     193.500 43.90535001      1370.56329805   
     194.000 43.57947093      1377.55940309   
     194.500 42.00877584      1414.20146867   
     195.000 40.57857913      1463.08896204   
     195.500 41.04227690      1525.87709243   
     196.000 41.02386228      1530.94085122   
     196.500 41.82078568      1532.65477999   
     197.000 41.29677385      1530.59168690   
     197.500 40.08319364      1524.74031551   
     198.000 37.97553672      1507.11493541   
     198.500 35.63313395      1513.99757024   
     199.000 32.81494748      1482.53091362   
     199.500 32.32855077      1421.58703830   
     200.000 33.27794009      1380.61268126   
     200.500 33.71001700      1427.27104827   
     201.000 33.13924435      1495.88288840   
     201.500 33.09396981      1502.84197538   
     202.000 33.85484225      1516.83767310   
     202.500 34.27520075      1507.07707388   
     203.000 33.17094966      1484.86394828   
     203.500 31.00952400      1448.91700743   
     204.000 29.07841167      1439.53280661   
     204.500 27.25860411      1426.40508696   
     205.000 26.99289907      1429.55579770   
     205.500 27.62712718      1400.19922744   
     206.000 27.17615519      1374.48210689   
     206.500 27.01159318      1332.66112527   
     207.000 27.09651035      1252.24441438   
     207.500 28.86953692      1075.47691793   
     208.000 30.64903888      939.27496776    
     208.500 32.32050988      851.99598796    
     209.000 33.45715348      787.80341023    
     209.500 34.11303444      778.03468341    
     210.000 35.31604028      771.02480437    
     210.500 38.55035813      720.29381546    
     211.000 46.82492981      662.63932899    
     211.500 55.43846649      608.20576135    
     212.000 59.06896891      606.22149251    
     212.500 44.81082722      619.19912074    
     213.000 33.53714032      638.70695011    
     213.500 32.60933550      642.96757721    
     214.000 31.87162142      641.35576670    
     214.500 30.70017568      637.27095475    
     215.000 30.86115046      644.42123305    
     215.500 30.62841290      637.55253486    
     216.000 29.70271309      629.26008271    
     216.500 29.12845286      613.78901865    
     217.000 30.83285205      595.30708108    
     217.500 32.30070537      594.36936093    
     218.000 32.24004566      584.14078096    
     218.500 30.68642477      587.59907538    
     219.000 28.99677727      594.00128738    
     219.500 28.45163419      595.63604014    
     220.000 28.26251666      598.92446193    
     220.500 29.65111145      603.24779088    
     221.000 30.51223054      607.38754516    
     221.500 30.29381943      594.11976068    
     222.000 30.43462912      571.89300890    
     222.500 29.19122213      555.68071950    
     223.000 25.52226290      532.81072093    
     223.500 23.71711101      533.30146992    
     224.000 24.90759657      536.48344298    
     224.500 26.34813843      549.37448118    
     225.000 26.46064782      559.18276795    
     225.500 26.34822951      566.46493100    
     226.000 25.68840721      566.40035952    
     226.500 25.59730704      563.70828758    
     227.000 25.14717933      549.49743140    
     227.500 26.04247081      545.38293845    
     228.000 27.96056577      545.43995092    
     228.500 29.83564382      545.38437778    
     229.000 32.37065128      547.99169564    
     229.500 33.11967999      544.81415857    
     230.000 33.33088351      522.37089251    
     230.500 31.86602086      507.85644832    
     231.000 30.51117232      500.28027472    
     231.500 30.08044805      504.50101693    
     232.000 30.89222279      514.77758484    
     232.500 30.84229914      532.93297241    
     233.000 27.24492306      535.64147741    
     233.500 26.47224080      537.45338788    
     234.000 27.64088285      530.15951592    
     234.500 28.26779007      531.19555826    
     235.000 29.52781279      534.02004555    
     235.500 31.88920473      543.05416643    
     236.000 32.11685216      548.20556664    
     236.500 33.19520728      549.28713915    
     237.000 34.07190742      538.52812174    
     237.500 33.65372363      529.10514073    
     238.000 33.25985849      526.13815723    
     238.500 32.49377828      526.24308202    
     239.000 31.88660641      534.10025272    
     239.500 31.25797127      548.64657488    
     240.000 30.53228150      556.49678044    
     240.500 30.07815401      564.85450559    
     241.000 29.67820384      564.78120203    
     241.500 30.01124890      560.31644497    
     242.000 30.45878880      559.07893854    
     242.500 31.28230680      555.08180699    
     243.000 31.53500000      550.26358895    
     243.500 31.67997954      556.43665559    
     244.000 31.69666651      560.22125235    
     244.500 31.97360524      560.73624921    
     245.000 32.91418743      559.65896132    
     245.500 32.48151977      562.13193381    
     246.000 31.58391007      553.38209530    
     246.500 31.51612726      533.95092510    
     247.000 31.87516643      529.85874241    
     247.500 32.12077587      545.78880491    
     248.000 32.47180886      556.05167890    
     248.500 32.76164360      561.42307481    
     249.000 32.63013755      566.35753068    
     249.500 32.31342955      566.44029204    
     250.000 31.77663112      568.68817764    
     250.500 31.30459138      578.33037935    
     251.000 29.76075757      587.20262281    
     251.500 26.38850696      596.87266062    
     252.000 22.17574722      602.40190800    
     252.500 18.72570911      605.89115290    
     253.000 17.56777706      597.56682341    
     253.500 18.19789699      590.96673060    
     254.000 18.94805729      587.78884400    
     254.500 17.72644976      599.96183699    
     255.000 17.44730980      608.07966346    
     255.500 18.79702432      611.37312588    
     256.000 20.17341465      615.07956097    
