~Version Information Block
 VERS.                2.00:     CWLS LOG ASCII STANDARD - VERSION 2.000000
 WRAP.                  NO:     One Line Per Depth Step
#
~Well Information Block
#MNEM.UNIT                     Data                         Information
#----------   ------------------------------------------   ----------------
 STRT.FT                                        0.0000:     START DEPTH
 STOP.FT                                     1150.0000:     STOP DEPTH
 STEP.FT                                        0.5000:     STEP
 NULL.                                       -999.2500:     NULL VALUE
 COMP.                                Aerkla Expl. Co.:     COMPANY
 WELL.                                 State #3 V #326:     WELL
 FLD .                                         Wildcat:     FIELD
 LOC .                                           NW NW:     LOCATION
 SEC .                                              36:     SECTION
 TWP .                                             17N:     TOWNSHIP
 RANG.                                             22E:     RANGE
 CNTY.                                          Navajo:     COUNTY
 STAT.                                         Arizona:     STATE
 CTRY.                                          U.S.A.:     COUNTRY
 SRVC.                           Jet Radioactivity Log:     SERVICE COMPANY
 DATE.                                                :     DATE
 API .                                    02-017-05143:     API NUMBER
 UWI .                                    02-017-05143:     UWI NUMBER
 TVD .                                              NO:     TVD flag
 WSTA.                                               S:     Well status
#
~Curve Information Block
#MNEM.UNIT       API CODE      Curve Description
#----------    -------------   -------------------
 DEPT.FT                   :   Depth in Feet
 GR  .GAPI     35 310 01 01:   Gamma Ray
 NEUT.NCPS     35 330 30 01:   Neutrons
#
~Parameter Information Block
#MNEM.UNIT            Value               Description
#----------    --------------------    -------------------
 DATE.                   10/2/1965:    Date As Month-Day-Year
 RUN .                         ONE:    Run Number
 EPD .FT                    0.0000:    Elevation Of Perm. Datum
 LMF .                          KB:    Log Measured From
 TD  .FT                 1150.0000:    Total Depth
 DF  .               Permian Supai:    
 PROJ.                       RMCCS:    
 BLI .FT                 1159.0000:    Bottom Log Interval
 TLI .FT                    0.0000:    Top Log Interval
 CSIZ.IN                         7:    Casing Size
 DFT .                      Diesel:    Drilling Fluid Type
 DFL .ML                  210.0000:    Drilling Fluid Loss
 ENGI.                      Baldry:    Engineer'S Name
 WITN.                      Spragg:    Witness' Name
 DGBY.                         J.L:    
 PDAT.                         UNK:    Permanent Datum
 WSTA.                           S:    
#
~Other Information Block
<DescLogPlotStart>   NEURALOG PLOT DEFINITION
PLOTDEFVERSION: 3
LASFILE: C:\nds\projects\AZGS Digitized OGPwelllogs\las\0326GRN.las
DEPTHSCALE: 240.000000
RESOLUTION: 200
DEPTHLABELFREQ: 100.000000
HEAVYGRIDFREQ: 100.000000
MEDIUMGRIDFREQ: 50.000000
LIGHTGRIDFREQ: 10.000000
#
#   TRACK 1
#
STARTTRACK: 
 LEFTX: 0.500000 inch
 RIGHTX: 3.000000 inch
 SCALETYPE: Linear
 NUMCHARTDIVISIONS: 10
CURVE: GR    0.000000   100.000000 (0,0,255)      Solid             2     N    
ENDTRACK: 
#
#   TRACK 2
#
STARTTRACK: 
 LEFTX: 3.500000 inch
 RIGHTX: 8.500000 inch
 SCALETYPE: Linear
 NUMCHARTDIVISIONS: 20
CURVE: NEUT  320.000000 1920.000000 (0,131,131)    Solid             2     N   
ENDTRACK: 
<DescLogPlotEnd>
<DescLog>Gamma Ray Neutron
<DescOSVS>
<DescOSVS>
<DescOSVS>
~A DEPTH     GR               NEUT            
# ...
     342.000 5.14671943       591.44588698    
     342.500 4.46705153       583.85953322    
     343.000 3.55588779       590.14690509    
     343.500 3.50223637       610.12131054    
     344.000 3.44667952       614.63592615    
     344.500 3.77802427       619.37635346    
     345.000 4.16211575       609.05079959    
     345.500 4.59579777       609.57029497    
     346.000 4.86784062       616.09877187    
     346.500 4.91672841       615.18638076    
     347.000 5.17138667       618.00203894    
     347.500 5.37083892       603.98288133    
     348.000 5.30594918       592.74950258    
     348.500 4.67274425       603.89778276    
     349.000 4.10848600       609.57010427    
     349.500 3.76980194       613.88698012    
     350.000 3.53969379       617.03430788    
     350.500 3.77233049       621.87057934    
     351.000 3.65947045       627.70929801    
     351.500 3.97931120       633.49868024    
     352.000 4.61575171       634.27583324    
     352.500 4.93108156       647.94301559    
     353.000 4.52458250       660.89808459    
     353.500 4.12494265       653.15831936    
     354.000 3.90414757       638.83059544    
     354.500 3.76648090       632.69532131    
     355.000 3.71270382       626.22499094    
     355.500 3.50673706       623.40457656    
     356.000 3.51687693       626.10740646    
     356.500 3.52676498       636.09334011    
     357.000 3.54058292       648.37288202    
     357.500 3.54057935       664.06718686    
     358.000 3.52248791       666.61864490    
     358.500 3.47101704       665.83317665    
     359.000 3.78219480       661.19124127    
     359.500 4.29068649       637.34888552    
     360.000 4.69140152       620.25927536    
     360.500 4.65995122       600.35755614    
     361.000 4.52669453       558.30007978    
     361.500 4.94387287       512.65829904    
     362.000 5.14141446       505.84339089    
     362.500 4.97233825       502.00762383    
     363.000 5.12548862       501.77354997    
     363.500 5.33534620       510.30561506    
     364.000 5.11147777       524.12987597    
     364.500 4.87197863       535.29582482    
     365.000 4.50467741       554.76373652    
     365.500 4.72166280       568.91432397    
     366.000 4.62596882       576.43335184    
     366.500 4.07016828       577.65310054    
     367.000 3.70872089       563.38909002    
     367.500 4.27348950       556.96672105    
     368.000 4.76090303       555.02137923    
     368.500 5.13343667       555.06768748    
     369.000 5.53649910       555.07641261    
     369.500 5.33769227       553.86757559    
     370.000 4.52681959       558.13888748    
     370.500 3.92892331       560.53028287    
     371.000 4.22385063       562.33563540    
     371.500 4.71839578       569.35904075    
     372.000 5.12991313       566.42443104    
     372.500 5.03530781       555.91860663    
     373.000 5.11505806       550.34607883    
     373.500 5.11847002       531.82837151    
     374.000 4.80955097       531.78718129    
     374.500 5.14432893       532.47710342    
     375.000 4.93325867       536.68557267    
     375.500 4.88663428       539.06827190    
     376.000 5.22317877       539.03184551    
     376.500 5.53572446       538.99948518    
     377.000 5.63124477       543.10062031    
     377.500 5.73810397       543.68856260    
     378.000 5.53675374       542.42040655    
     378.500 5.33871585       553.24136450    
     379.000 4.83450224       567.33367062    
     379.500 4.04088557       571.08533588    
     380.000 4.18168284       564.58462402    
     380.500 4.38025879       584.11661465    
     381.000 4.53239044       584.02383006    
     381.500 4.08361870       583.60688014    
     382.000 3.97077031       583.11578814    
     382.500 3.58012106       575.56142773    
     383.000 3.30090360       577.32220833    
     383.500 3.32043010       583.48581822    
     384.000 2.95103115       592.22293465    
     384.500 2.96604613       594.63162529    
     385.000 3.10772138       603.29885592    
     385.500 3.10531402       590.63309973    
     386.000 3.31776452       581.87503546    
     386.500 3.51514024       583.52082701    
     387.000 3.86339169       586.82683036    
     387.500 4.27027890       582.50829963    
     388.000 3.78095192       577.94580337    
     388.500 3.50928724       575.42591370    
     389.000 3.66444031       579.05237033    
     389.500 4.15862989       584.08804709    
     390.000 3.78533942       587.30128955    
     390.500 4.12722000       595.66289072    
     391.000 4.50488379       584.75507477    
     391.500 5.05161285       576.88182600    
     392.000 4.91503777       592.02435258    
     392.500 4.21553331       611.08915284    
     393.000 4.34357602       619.40579157    
     393.500 4.34009096       620.40042346    
     394.000 4.09897350       625.56033239    
     394.500 3.84022639       631.85440840    
     395.000 4.53326989       628.12080435    
     395.500 4.71455331       622.67400929    
     396.000 4.93509901       616.55970065    
     396.500 4.92205487       600.75570706    
     397.000 4.62643134       606.99888498    
     397.500 3.94596699       618.25946128    
     398.000 3.71044332       621.00022156    
     398.500 3.52049169       622.00751279    
     399.000 3.32813457       621.09847315    
     399.500 3.10086973       623.37490055    
     400.000 3.28233721       623.78979497    
     400.500 3.11747918       616.21137373    
     401.000 3.11854006       604.77231553    
     401.500 3.11776245       596.79300047    
     402.000 3.12510519       591.69617638    
     402.500 3.32408631       580.84017751    
     403.000 3.32134771       576.34271569    
     403.500 3.31398591       572.48881271    
     404.000 3.17091218       582.51162534    
     404.500 3.10340630       594.75550443    
     405.000 3.32001000       592.67873653    
     405.500 3.53056548       596.65266908    
     406.000 3.87417257       606.62929526    
     406.500 3.16674421       617.89908419    
     407.000 3.32393361       630.18007477    
     407.500 3.64755512       634.59386142    
     408.000 3.76426159       625.66427506    
     408.500 3.76948670       630.31206361    
     409.000 3.90588149       645.02565185    
     409.500 4.27510997       658.52629748    
     410.000 4.52691630       661.65989217    
     410.500 4.31294903       661.22204470    
     411.000 4.32236910       668.23510681    
     411.500 4.22740256       670.37299030    
     412.000 3.91497637       679.42268651    
     412.500 3.70603314       707.44179300    
     413.000 3.71339378       717.60678131    
     413.500 4.12347260       714.79662565    
     414.000 4.07581039       707.82930074    
     414.500 3.92985082       699.86830007    
     415.000 3.94170781       707.48976523    
     415.500 4.42563281       709.08769204    
     416.000 4.76184611       704.03689459    
     416.500 5.12842654       727.23799459    
     417.000 5.52108726       733.30151355    
     417.500 6.14175141       726.90434637    
     418.000 6.03092685       745.22387133    
     418.500 5.52945615       762.05215544    
     419.000 5.23244154       772.28402117    
     419.500 5.11918723       794.45556674    
     420.000 5.32581960       771.22567137    
     420.500 5.13699261       753.53982054    
     421.000 4.94856124       739.63121057    
     421.500 4.71889473       729.63738624    
     422.000 4.72333945       706.65787601    
     422.500 4.34213108       683.19721340    
     423.000 4.25772267       673.42934832    
     423.500 4.69749993       669.12659257    
     424.000 4.72382482       667.38116507    
     424.500 4.52251102       668.97273170    
     425.000 4.58435273       668.31379339    
     425.500 4.93149186       674.01816032    
     426.000 4.78701361       678.56127916    
     426.500 4.67433528       670.92636111    
     427.000 4.53084103       675.31475506    
