~Version Information Block
 VERS.                2.00:     CWLS LOG ASCII STANDARD - VERSION 2.000000
 WRAP.                  NO:     One Line Per Depth Step
#
~Well Information Block
#MNEM.UNIT                     Data                         Information
#----------   ------------------------------------------   ----------------
 STRT.FT                                        0.0000:     START DEPTH
 STOP.FT                                     1150.0000:     STOP DEPTH
 STEP.FT                                        0.5000:     STEP
 NULL.                                       -999.2500:     NULL VALUE
 COMP.                                Aerkla Expl. Co.:     COMPANY
 WELL.                                 State #3 V #326:     WELL
 FLD .                                         Wildcat:     FIELD
 LOC .                                           NW NW:     LOCATION
 SEC .                                              36:     SECTION
 TWP .                                             17N:     TOWNSHIP
 RANG.                                             22E:     RANGE
 CNTY.                                          Navajo:     COUNTY
 STAT.                                         Arizona:     STATE
 CTRY.                                          U.S.A.:     COUNTRY
 SRVC.                           Jet Radioactivity Log:     SERVICE COMPANY
 DATE.                                                :     DATE
 API .                                    02-017-05143:     API NUMBER
 UWI .                                    02-017-05143:     UWI NUMBER
 TVD .                                              NO:     TVD flag
 WSTA.                                               S:     Well status
#
~Curve Information Block
#MNEM.UNIT       API CODE      Curve Description
#----------    -------------   -------------------
 DEPT.FT                   :   Depth in Feet
 GR  .GAPI     35 310 01 01:   Gamma Ray
 NEUT.NCPS     35 330 30 01:   Neutrons
#
~Parameter Information Block
#MNEM.UNIT            Value               Description
#----------    --------------------    -------------------
 DATE.                   10/2/1965:    Date As Month-Day-Year
 RUN .                         ONE:    Run Number
 EPD .FT                    0.0000:    Elevation Of Perm. Datum
 LMF .                          KB:    Log Measured From
 TD  .FT                 1150.0000:    Total Depth
 DF  .               Permian Supai:    
 PROJ.                       RMCCS:    
 BLI .FT                 1159.0000:    Bottom Log Interval
 TLI .FT                    0.0000:    Top Log Interval
 CSIZ.IN                         7:    Casing Size
 DFT .                      Diesel:    Drilling Fluid Type
 DFL .ML                  210.0000:    Drilling Fluid Loss
 ENGI.                      Baldry:    Engineer'S Name
 WITN.                      Spragg:    Witness' Name
 DGBY.                         J.L:    
 PDAT.                         UNK:    Permanent Datum
 WSTA.                           S:    
#
~Other Information Block
<DescLogPlotStart>   NEURALOG PLOT DEFINITION
PLOTDEFVERSION: 3
LASFILE: C:\nds\projects\AZGS Digitized OGPwelllogs\las\0326GRN.las
DEPTHSCALE: 240.000000
RESOLUTION: 200
DEPTHLABELFREQ: 100.000000
HEAVYGRIDFREQ: 100.000000
MEDIUMGRIDFREQ: 50.000000
LIGHTGRIDFREQ: 10.000000
#
#   TRACK 1
#
STARTTRACK: 
 LEFTX: 0.500000 inch
 RIGHTX: 3.000000 inch
 SCALETYPE: Linear
 NUMCHARTDIVISIONS: 10
CURVE: GR    0.000000   100.000000 (0,0,255)      Solid             2     N    
ENDTRACK: 
#
#   TRACK 2
#
STARTTRACK: 
 LEFTX: 3.500000 inch
 RIGHTX: 8.500000 inch
 SCALETYPE: Linear
 NUMCHARTDIVISIONS: 20
CURVE: NEUT  320.000000 1920.000000 (0,131,131)    Solid             2     N   
ENDTRACK: 
<DescLogPlotEnd>
<DescLog>Gamma Ray Neutron
<DescOSVS>
<DescOSVS>
<DescOSVS>
~A DEPTH     GR               NEUT            
# ...
     769.500 19.21740604      862.72243360    
     770.000 19.67073324      886.37641208    
     770.500 20.78611696      893.69159721    
     771.000 20.11859216      882.14539973    
     771.500 17.69550758      867.22728645    
     772.000 14.67099009      862.67933983    
     772.500 12.80016475      847.87232455    
     773.000 13.95776794      778.91500338    
     773.500 16.38972129      784.04616895    
     774.000 18.84293789      774.56783392    
     774.500 20.91851683      751.48076837    
     775.000 19.71036902      734.92269034    
     775.500 18.33365361      755.59418722    
     776.000 17.71983442      764.94963787    
     776.500 15.73090415      772.61947130    
     777.000 13.27213983      774.08416136    
     777.500 12.58554149      779.09146670    
     778.000 13.90391101      774.19925166    
     778.500 15.89354071      762.98665528    
     779.000 18.25403816      735.09225971    
     779.500 18.63761715      734.73633283    
     780.000 16.77421772      729.19148185    
     780.500 15.30200993      745.06073380    
     781.000 18.41670036      763.59919779    
     781.500 21.59341034      780.50961258    
     782.000 22.29215416      825.06194452    
     782.500 21.36447601      855.01400111    
     783.000 20.21410452      833.06451468    
     783.500 19.36077988      820.92818724    
     784.000 18.42309835      792.08047298    
     784.500 17.77440789      783.13745231    
     785.000 16.80189964      768.65200166    
     785.500 15.83277119      732.72871371    
     786.000 16.20732411      728.58815110    
     786.500 17.30635353      685.15070589    
     787.000 20.06752264      656.44634968    
     787.500 19.78083912      614.42312271    
     788.000 19.24951705      605.12174265    
     788.500 19.20074347      612.19243713    
     789.000 20.13384719      606.35882992    
     789.500 22.40718944      594.53286785    
     790.000 23.18495976      587.84913866    
     790.500 20.10006797      566.24398367    
     791.000 18.05226763      536.98141152    
     791.500 16.89487486      546.64143504    
     792.000 15.55701929      545.84196109    
     792.500 14.51185060      532.62124738    
     793.000 13.69968983      521.98628414    
     793.500 12.70506745      523.08987743    
     794.000 12.17642888      519.51236129    
     794.500 12.57234751      516.64663185    
     795.000 13.03802364      525.23743100    
     795.500 14.36349895      536.80758636    
     796.000 16.54645740      541.36731842    
     796.500 17.96514128      526.01670773    
     797.000 17.74007500      524.54040996    
     797.500 16.24281305      544.56596130    
     798.000 13.91151674      549.56563127    
     798.500 12.19650014      555.06934952    
     799.000 12.57618967      559.23283988    
     799.500 13.79442200      522.14075306    
     800.000 16.40198171      516.91354277    
     800.500 16.86353285      508.52083189    
     801.000 16.38550586      513.51161468    
     801.500 16.41830572      526.81692206    
     802.000 17.78525958      536.10665950    
     802.500 19.00769734      544.25512961    
     803.000 19.32309637      561.51053271    
     803.500 19.25779991      576.65270577    
     804.000 18.23474853      587.84899465    
     804.500 18.04801078      566.40369685    
     805.000 18.16614099      568.16957462    
     805.500 17.73766681      566.30608006    
     806.000 18.40391273      585.25670371    
     806.500 20.19521176      561.88092995    
     807.000 21.18243801      538.64265188    
     807.500 20.99358480      546.87248306    
     808.000 20.21450614      526.44391290    
     808.500 20.62546191      512.15462067    
     809.000 21.48667142      526.78761904    
     809.500 22.38108679      539.18163068    
     810.000 22.02802902      535.64371273    
     810.500 21.02553212      535.98148766    
     811.000 20.12666642      532.54456530    
     811.500 20.01044734      532.45003009    
     812.000 20.40514005      529.07481636    
     812.500 19.93697546      514.60139097    
     813.000 18.50931301      512.68408598    
     813.500 17.94263789      502.14167013    
     814.000 15.86341598      495.08110055    
     814.500 12.57834125      472.61779834    
     815.000 11.17930810      471.61039542    
     815.500 11.95238525      476.67889843    
     816.000 13.72978761      485.86702544    
     816.500 16.08500226      497.32130414    
     817.000 17.43264152      454.41144033    
     817.500 17.69508883      416.16401578    
     818.000 20.65837960      416.04078995    
     818.500 20.91420738      429.78154974    
     819.000 10.66261692      454.49930025    
     819.500 4.14985346       494.31699001    
     820.000 2.99759245       546.43514785    
     820.500 3.69515931       587.92726762    
     821.000 6.69775405       558.81099298    
     821.500 11.88868260      500.43865420    
     822.000 15.99994808      469.96266566    
     822.500 20.83050974      465.34148539    
     823.000 22.55292690      468.15092015    
     823.500 22.20231933      489.13929062    
     824.000 20.18573120      490.94899090    
     824.500 15.31005449      497.66694859    
     825.000 7.72659505       509.83918755    
     825.500 3.00452038       532.35015950    
     826.000 1.56455522       552.80197789    
     826.500 1.08973543       561.58134926    
     827.000 0.90547381       538.72443653    
     827.500 0.90539485       521.56899661    
     828.000 0.90509046       518.28944012    
     828.500 0.90543260       493.63265654    
     829.000 0.90543260       451.97337867    
     829.500 0.90543260       441.47325570    
     830.000 0.90509046       453.70595764    
     830.500 0.90569860       471.24897259    
     831.000 0.91338338       483.19866961    
     831.500 1.08463972       520.40742007    
     832.000 1.32479034       564.12534125    
     832.500 1.30923942       664.79144741    
     833.000 1.30759820       746.93057756    
     833.500 1.30827527       768.43493590    
     834.000 1.31193409       729.83160906    
     834.500 1.29303787       638.09181956    
     835.000 1.09439206       556.63843505    
     835.500 0.91196548       527.92653562    
     836.000 0.90540310       552.62695768    
     836.500 0.90491940       626.01131814    
     837.000 0.90432733       679.73070086    
     837.500 0.90671332       632.17684957    
     838.000 1.00603622       537.54555003    
     838.500 1.10535912       415.59333308    
     839.000 1.10774510       396.99281384    
     839.500 1.10681091       392.73009092    
     840.000 1.10629771       391.38032027    
     840.500 1.10861925       391.30475225    
     841.000 1.11280109       393.74129632    
     841.500 1.30437815       397.78434547    
     842.000 1.58273221       405.01313799    
     842.500 2.04513360       411.65050983    
     843.000 2.70637012       413.69681011    
     843.500 5.45456701       415.58457424    
     844.000 10.56862077      423.33127984    
     844.500 16.80993223      429.71933376    
     845.000 21.02078565      438.82006504    
     845.500 20.21301584      441.23314647    
     846.000 19.03343432      434.83281801    
     846.500 20.19755158      432.97905510    
     847.000 22.53433756      430.76952706    
     847.500 23.29160436      429.07358805    
     848.000 22.43793964      428.52510479    
     848.500 21.85597249      434.92238967    
     849.000 22.70665913      445.46755255    
     849.500 23.62399310      454.67981282    
     850.000 24.09300162      454.67814081    
     850.500 26.21674084      439.42020404    
     851.000 27.72039355      436.67520562    
     851.500 24.92313255      433.71113468    
     852.000 21.77872639      429.97267382    
     852.500 20.49849152      430.62705286    
     853.000 22.58971398      439.53877910    
     853.500 23.05989801      451.72277216    
     854.000 23.93395458      455.59525719    
     854.500 26.12142393      455.50993743    
