~Version Information Block
 VERS.                2.00:     CWLS LOG ASCII STANDARD - VERSION 2.000000
 WRAP.                  NO:     One Line Per Depth Step
#
~Well Information Block
#MNEM.UNIT                     Data                         Information
#----------   ------------------------------------------   ----------------
 STRT.FT                                        0.0000:     START DEPTH
 STOP.FT                                     1150.0000:     STOP DEPTH
 STEP.FT                                        0.5000:     STEP
 NULL.                                       -999.2500:     NULL VALUE
 COMP.                                Aerkla Expl. Co.:     COMPANY
 WELL.                                 State #3 V #326:     WELL
 FLD .                                         Wildcat:     FIELD
 LOC .                                           NW NW:     LOCATION
 SEC .                                              36:     SECTION
 TWP .                                             17N:     TOWNSHIP
 RANG.                                             22E:     RANGE
 CNTY.                                          Navajo:     COUNTY
 STAT.                                         Arizona:     STATE
 CTRY.                                          U.S.A.:     COUNTRY
 SRVC.                           Jet Radioactivity Log:     SERVICE COMPANY
 DATE.                                                :     DATE
 API .                                    02-017-05143:     API NUMBER
 UWI .                                    02-017-05143:     UWI NUMBER
 TVD .                                              NO:     TVD flag
 WSTA.                                               S:     Well status
#
~Curve Information Block
#MNEM.UNIT       API CODE      Curve Description
#----------    -------------   -------------------
 DEPT.FT                   :   Depth in Feet
 GR  .GAPI     35 310 01 01:   Gamma Ray
 NEUT.NCPS     35 330 30 01:   Neutrons
#
~Parameter Information Block
#MNEM.UNIT            Value               Description
#----------    --------------------    -------------------
 DATE.                   10/2/1965:    Date As Month-Day-Year
 RUN .                         ONE:    Run Number
 EPD .FT                    0.0000:    Elevation Of Perm. Datum
 LMF .                          KB:    Log Measured From
 TD  .FT                 1150.0000:    Total Depth
 DF  .               Permian Supai:    
 PROJ.                       RMCCS:    
 BLI .FT                 1159.0000:    Bottom Log Interval
 TLI .FT                    0.0000:    Top Log Interval
 CSIZ.IN                         7:    Casing Size
 DFT .                      Diesel:    Drilling Fluid Type
 DFL .ML                  210.0000:    Drilling Fluid Loss
 ENGI.                      Baldry:    Engineer'S Name
 WITN.                      Spragg:    Witness' Name
 DGBY.                         J.L:    
 PDAT.                         UNK:    Permanent Datum
 WSTA.                           S:    
#
~Other Information Block
<DescLogPlotStart>   NEURALOG PLOT DEFINITION
PLOTDEFVERSION: 3
LASFILE: C:\nds\projects\AZGS Digitized OGPwelllogs\las\0326GRN.las
DEPTHSCALE: 240.000000
RESOLUTION: 200
DEPTHLABELFREQ: 100.000000
HEAVYGRIDFREQ: 100.000000
MEDIUMGRIDFREQ: 50.000000
LIGHTGRIDFREQ: 10.000000
#
#   TRACK 1
#
STARTTRACK: 
 LEFTX: 0.500000 inch
 RIGHTX: 3.000000 inch
 SCALETYPE: Linear
 NUMCHARTDIVISIONS: 10
CURVE: GR    0.000000   100.000000 (0,0,255)      Solid             2     N    
ENDTRACK: 
#
#   TRACK 2
#
STARTTRACK: 
 LEFTX: 3.500000 inch
 RIGHTX: 8.500000 inch
 SCALETYPE: Linear
 NUMCHARTDIVISIONS: 20
CURVE: NEUT  320.000000 1920.000000 (0,131,131)    Solid             2     N   
ENDTRACK: 
<DescLogPlotEnd>
<DescLog>Gamma Ray Neutron
<DescOSVS>
<DescOSVS>
<DescOSVS>
~A DEPTH     GR               NEUT            
# ...
      85.500 47.76984011      1132.47931399   
      86.000 47.46214816      1125.35684829   
      86.500 46.16102101      1118.21511656   
      87.000 45.05151947      1110.54202625   
      87.500 44.55472832      1123.62577684   
      88.000 45.12349286      1124.32775667   
      88.500 48.35480235      1123.43579348   
      89.000 49.82767757      1150.48078854   
      89.500 50.34061709      1166.45366508   
      90.000 50.40495775      1204.66875871   
      90.500 51.01247439      1208.42804010   
      91.000 50.80238215      1201.45700149   
      91.500 50.77685871      1228.25632887   
      92.000 49.05215032      1216.84881527   
      92.500 46.60624882      1247.02095950   
      93.000 45.61285747      1266.03668919   
      93.500 45.08800077      1285.53721671   
      94.000 46.63440832      1305.30822475   
      94.500 48.75432022      1304.94638953   
      95.000 50.58025408      1311.14998337   
      95.500 51.93505880      1317.25733433   
      96.000 52.87030780      1326.99079243   
      96.500 54.47186495      1314.51056276   
      97.000 53.90003337      1305.56089148   
      97.500 49.90096270      1301.28076458   
      98.000 48.16589462      1280.34146294   
      98.500 47.35924487      1274.87515766   
      99.000 47.35248098      1221.65328113   
      99.500 46.34624223      1181.47414236   
     100.000 44.80080967      1183.87261256   
     100.500 43.05751476      1181.04177030   
     101.000 41.37793392      1143.03809037   
     101.500 39.79839526      1130.62683925   
     102.000 37.67082150      1134.75520377   
     102.500 35.80362168      1159.21288203   
     103.000 36.12390111      1184.29917110   
     103.500 35.79031258      1183.27350203   
     104.000 34.69748536      1139.27460341   
     104.500 34.29974733      1146.93637103   
     105.000 33.90310600      1181.20639285   
     105.500 35.66699361      1193.11349760   
     106.000 38.28402301      1190.92379713   
     106.500 39.70133655      1221.05858932   
     107.000 36.84714855      1254.51725483   
     107.500 30.48426425      1269.20601689   
     108.000 29.10307751      1267.98875375   
     108.500 28.67419603      1290.34761812   
     109.000 28.37513294      1286.68373384   
     109.500 27.57908950      1288.42679477   
     110.000 26.33365716      1308.54446652   
     110.500 25.08524669      1313.86000546   
     111.000 24.53255216      1290.03534155   
     111.500 26.17322134      1279.08387594   
     112.000 28.88823115      1262.86894003   
     112.500 28.05998502      1268.27506637   
     113.000 26.62415886      1241.88024138   
     113.500 28.25336653      1196.68415439   
     114.000 32.68439736      1176.86711077   
     114.500 37.46953234      1152.44932227   
     115.000 39.94912764      1129.47766543   
     115.500 39.68089899      1100.94687553   
     116.000 39.50012794      1079.28351175   
     116.500 39.34456623      1061.76658493   
     117.000 39.74666458      1049.92087544   
     117.500 39.79909287      1032.98469321   
     118.000 39.23603215      1021.15412137   
     118.500 38.29788101      1009.56752149   
     119.000 38.55599450      1009.19575613   
     119.500 39.02613649      1038.72393712   
     120.000 41.00847397      1092.81793311   
     120.500 41.05138140      1124.51373771   
     121.000 38.88919042      1152.00491229   
     121.500 38.27979937      1170.75948955   
     122.000 37.88174684      1174.72316709   
     122.500 37.16135823      1183.55240368   
     123.000 37.15786101      1188.60936815   
     123.500 36.91986830      1197.18026441   
     124.000 35.88808928      1226.13375027   
     124.500 34.12692753      1258.39002182   
     125.000 33.41476683      1277.87830267   
     125.500 29.72395231      1274.20428003   
     126.000 29.10852374      1279.32733600   
     126.500 30.26307500      1266.53399431   
     127.000 32.26655629      1244.47401780   
     127.500 32.53575556      1230.98011740   
     128.000 34.68646649      1232.50677533   
     128.500 37.68506568      1230.59079591   
     129.000 40.22565203      1229.29123362   
     129.500 40.94584164      1257.28711194   
     130.000 40.55281759      1254.11930346   
     130.500 39.61936762      1240.83900772   
     131.000 39.22951535      1262.05770908   
     131.500 40.12872709      1293.09848597   
     132.000 43.49978906      1330.61703142   
     132.500 48.77094674      1426.53882444   
     133.000 51.41111307      1469.34012396   
     133.500 49.98336621      1471.21968297   
     134.000 47.12155823      1433.96919031   
     134.500 45.99455346      1358.76788158   
     135.000 45.77583092      1327.56762009   
     135.500 44.17741786      1325.45399947   
     136.000 42.74179772      1336.40902142   
     136.500 42.15410612      1323.83029225   
     137.000 42.37500756      1315.67376684   
     137.500 43.43538979      1269.36407717   
     138.000 44.03608491      1241.99414737   
     138.500 45.73693951      1235.38950314   
     139.000 47.68564961      1240.74175847   
     139.500 48.48416576      1266.13884752   
     140.000 48.84946516      1274.29308124   
     140.500 49.83034868      1291.51289425   
     141.000 50.03206094      1313.54155688   
     141.500 51.09486177      1318.84730267   
     142.000 49.53059920      1336.03623827   
     142.500 46.97362882      1346.58911834   
     143.000 44.93342001      1338.77042779   
     143.500 44.11229111      1328.30923367   
     144.000 44.36424618      1330.89152004   
     144.500 45.39641704      1273.80457157   
     145.000 47.37914955      1242.79979742   
     145.500 49.78725498      1220.47677275   
     146.000 50.60796285      1212.98006532   
     146.500 51.10058635      1212.45111581   
     147.000 51.61377973      1233.89114181   
     147.500 51.48548696      1231.58942867   
     148.000 50.67756007      1176.52412180   
     148.500 49.96351673      1173.92871529   
     149.000 46.89663049      1181.38194377   
     149.500 45.43282432      1197.46793309   
     150.000 44.17036289      1195.18191531   
     150.500 43.47003665      1265.64174328   
     151.000 43.83377335      1295.76888184   
     151.500 44.61422826      1348.63616029   
     152.000 46.94366708      1365.72557693   
     152.500 52.39239057      1364.81842228   
     153.000 52.00270771      1347.81696409   
     153.500 48.35968391      1323.24924086   
     154.000 47.01292133      1317.10589972   
     154.500 46.85116966      1316.43488473   
     155.000 48.17641166      1294.32164046   
     155.500 48.95799117      1286.08220819   
     156.000 48.42299523      1272.82986218   
     156.500 48.49001378      1261.59481608   
     157.000 47.34093279      1273.39193420   
     157.500 45.31939011      1275.83652279   
     158.000 43.37353484      1270.84284255   
     158.500 38.96066534      1331.27162616   
     159.000 33.55454231      1393.48531187   
     159.500 29.23464223      1393.23308160   
     160.000 29.47307809      1378.97983171   
     160.500 32.57925259      1375.80356179   
     161.000 36.39444089      1410.01922121   
     161.500 38.22062397      1436.92717639   
     162.000 37.20902331      1482.89612118   
     162.500 37.28986760      1445.79065245   
     163.000 40.12100560      1444.02834760   
     163.500 44.47750175      1469.77366563   
     164.000 47.75277924      1498.91154216   
     164.500 49.86353966      1551.42868114   
     165.000 50.86634299      1561.12257159   
     165.500 49.99694328      1570.94362900   
     166.000 48.87818376      1569.35156673   
     166.500 50.46875482      1524.90324208   
     167.000 52.90759235      1501.21647887   
     167.500 50.75428596      1523.72373583   
     168.000 47.34493787      1551.84718956   
     168.500 42.34551309      1612.17751054   
     169.000 35.38092768      1614.87764060   
     169.500 30.52925603      1557.41146052   
     170.000 29.76075522      1463.12615105   
     170.500 30.67086645      1441.90115926   
