~Version Information Block
 VERS.                2.00:     CWLS LOG ASCII STANDARD - VERSION 2.000000
 WRAP.                  NO:     One Line Per Depth Step
#
~Well Information Block
#MNEM.UNIT                     Data                         Information
#----------   ------------------------------------------   ----------------
 STRT.FT                                        0.0000:     START DEPTH
 STOP.FT                                     1150.0000:     STOP DEPTH
 STEP.FT                                        0.5000:     STEP
 NULL.                                       -999.2500:     NULL VALUE
 COMP.                                Aerkla Expl. Co.:     COMPANY
 WELL.                                 State #3 V #326:     WELL
 FLD .                                         Wildcat:     FIELD
 LOC .                                           NW NW:     LOCATION
 SEC .                                              36:     SECTION
 TWP .                                             17N:     TOWNSHIP
 RANG.                                             22E:     RANGE
 CNTY.                                          Navajo:     COUNTY
 STAT.                                         Arizona:     STATE
 CTRY.                                          U.S.A.:     COUNTRY
 SRVC.                           Jet Radioactivity Log:     SERVICE COMPANY
 DATE.                                                :     DATE
 API .                                    02-017-05143:     API NUMBER
 UWI .                                    02-017-05143:     UWI NUMBER
 TVD .                                              NO:     TVD flag
 WSTA.                                               S:     Well status
#
~Curve Information Block
#MNEM.UNIT       API CODE      Curve Description
#----------    -------------   -------------------
 DEPT.FT                   :   Depth in Feet
 GR  .GAPI     35 310 01 01:   Gamma Ray
 NEUT.NCPS     35 330 30 01:   Neutrons
#
~Parameter Information Block
#MNEM.UNIT            Value               Description
#----------    --------------------    -------------------
 DATE.                   10/2/1965:    Date As Month-Day-Year
 RUN .                         ONE:    Run Number
 EPD .FT                    0.0000:    Elevation Of Perm. Datum
 LMF .                          KB:    Log Measured From
 TD  .FT                 1150.0000:    Total Depth
 DF  .               Permian Supai:    
 PROJ.                       RMCCS:    
 BLI .FT                 1159.0000:    Bottom Log Interval
 TLI .FT                    0.0000:    Top Log Interval
 CSIZ.IN                         7:    Casing Size
 DFT .                      Diesel:    Drilling Fluid Type
 DFL .ML                  210.0000:    Drilling Fluid Loss
 ENGI.                      Baldry:    Engineer'S Name
 WITN.                      Spragg:    Witness' Name
 DGBY.                         J.L:    
 PDAT.                         UNK:    Permanent Datum
 WSTA.                           S:    
#
~Other Information Block
<DescLogPlotStart>   NEURALOG PLOT DEFINITION
PLOTDEFVERSION: 3
LASFILE: C:\nds\projects\AZGS Digitized OGPwelllogs\las\0326GRN.las
DEPTHSCALE: 240.000000
RESOLUTION: 200
DEPTHLABELFREQ: 100.000000
HEAVYGRIDFREQ: 100.000000
MEDIUMGRIDFREQ: 50.000000
LIGHTGRIDFREQ: 10.000000
#
#   TRACK 1
#
STARTTRACK: 
 LEFTX: 0.500000 inch
 RIGHTX: 3.000000 inch
 SCALETYPE: Linear
 NUMCHARTDIVISIONS: 10
CURVE: GR    0.000000   100.000000 (0,0,255)      Solid             2     N    
ENDTRACK: 
#
#   TRACK 2
#
STARTTRACK: 
 LEFTX: 3.500000 inch
 RIGHTX: 8.500000 inch
 SCALETYPE: Linear
 NUMCHARTDIVISIONS: 20
CURVE: NEUT  320.000000 1920.000000 (0,131,131)    Solid             2     N   
ENDTRACK: 
<DescLogPlotEnd>
<DescLog>Gamma Ray Neutron
<DescOSVS>
<DescOSVS>
<DescOSVS>
~A DEPTH     GR               NEUT            
# ...
     684.000 7.93301386       619.19017189    
     684.500 7.87150787       619.31544519    
     685.000 7.48687340       615.06144326    
     685.500 7.13705471       609.54094532    
     686.000 7.14618449       607.49023580    
     686.500 7.42432302       599.87460903    
     687.000 8.21924668       606.45038337    
     687.500 9.74811473       610.24234277    
     688.000 10.78894659      615.47116272    
     688.500 13.01253268      625.61365377    
     689.000 15.45839143      638.61289126    
     689.500 16.22980083      653.96324047    
     690.000 16.37920519      661.45249403    
     690.500 16.21269461      661.23072611    
     691.000 15.67008950      636.82518568    
     691.500 14.64709604      628.88761058    
     692.000 12.71516304      644.47857196    
     692.500 9.93792827       653.18394625    
     693.000 7.69807535       636.19796574    
     693.500 5.64718952       619.65114200    
     694.000 5.00342680       608.23056040    
     694.500 4.69107805       592.80122429    
     695.000 4.92576640       577.73747375    
     695.500 5.17528272       578.69679736    
     696.000 5.31248726       583.36734617    
     696.500 5.53132991       614.98681172    
     697.000 5.73387442       634.34479326    
     697.500 5.91810909       648.57809064    
     698.000 5.79054263       686.08620551    
     698.500 5.57992937       721.16147806    
     699.000 5.51353572       731.84093079    
     699.500 5.53841304       722.44280913    
     700.000 5.63623428       713.97659581    
     700.500 6.04216048       717.77073288    
     701.000 5.94699384       754.99048272    
     701.500 5.87142837       757.20333085    
     702.000 5.93063138       752.39651700    
     702.500 5.75603424       734.97033791    
     703.000 6.71419480       726.25775668    
     703.500 8.44058186       738.89583583    
     704.000 10.63693093      759.22537957    
     704.500 11.98907263      767.06463065    
     705.000 11.34642233      772.15050529    
     705.500 11.02950150      775.43641651    
     706.000 10.52365373      768.17752311    
     706.500 9.80320184       763.91048623    
     707.000 9.39191626       766.69859334    
     707.500 9.73777357       758.32247272    
     708.000 10.94854377      733.43683596    
     708.500 11.43182458      702.57104874    
     709.000 11.51783380      700.37377195    
     709.500 12.13251991      701.79615627    
     710.000 12.07341798      692.08156639    
     710.500 11.58658611      681.75603206    
     711.000 12.00511870      675.15854163    
     711.500 12.10666164      686.13933089    
     712.000 12.32259334      688.43167915    
     712.500 12.59729091      686.00322368    
     713.000 12.15841141      694.61022943    
     713.500 12.16553248      702.70887735    
     714.000 11.40715623      696.07604554    
     714.500 10.81732315      688.24430079    
     715.000 10.93987509      682.29998155    
     715.500 10.97807118      667.45583332    
     716.000 10.69562494      665.13026769    
     716.500 10.62135842      669.00882968    
     717.000 10.97659951      666.11212380    
     717.500 11.74726502      666.12442748    
     718.000 12.23867238      670.30091380    
     718.500 12.25185931      670.67888004    
     719.000 11.94148402      670.67515161    
     719.500 10.85445136      670.64008300    
     720.000 9.63804254       669.39082017    
     720.500 8.79282879       665.46805104    
     721.000 8.08866830       661.54373393    
     721.500 7.93540438       665.50956217    
     722.000 8.16255757       662.65826495    
     722.500 8.13605646       664.15491170    
     723.000 8.61684312       662.62933581    
     723.500 9.40678607       656.44766375    
     724.000 10.56428750      652.10600777    
     724.500 11.45492648      653.52422778    
     725.000 13.36398513      677.36361345    
     725.500 15.97665469      687.04846799    
     726.000 17.20817439      681.81602509    
     726.500 18.42348085      684.09525107    
     727.000 19.59161003      697.14254375    
     727.500 18.46236297      722.97168812    
     728.000 17.42611292      723.11846626    
     728.500 17.38030138      719.93745037    
     729.000 19.35806690      702.24861257    
     729.500 20.98306624      689.31487477    
     730.000 21.43938129      684.75569287    
     730.500 21.03305886      701.26233650    
     731.000 20.12252163      720.31702622    
     731.500 19.21346037      725.42189922    
     732.000 18.48038715      718.69068521    
     732.500 19.89473774      728.67314325    
     733.000 21.01780705      744.28681130    
     733.500 20.46173395      735.79266683    
     734.000 18.90820563      728.64371199    
     734.500 16.81997555      739.42285486    
     735.000 14.09948664      772.34033886    
     735.500 11.68845977      791.27891059    
     736.000 10.46823184      809.82086276    
     736.500 8.75158499       852.75352335    
     737.000 7.41714844       849.21268951    
     737.500 7.16692736       839.09538552    
     738.000 8.14178147       878.00921014    
     738.500 8.93265708       899.60254827    
     739.000 10.27502186      902.62430516    
     739.500 11.47813376      884.28603086    
     740.000 12.87062273      872.72057009    
     740.500 15.23638675      841.61454564    
     741.000 16.14503193      820.45858024    
     741.500 14.58988745      812.41835031    
     742.000 12.82784567      795.69820395    
     742.500 10.59815835      790.51844354    
     743.000 9.83083809       782.94905204    
     743.500 11.03394827      779.73926550    
     744.000 12.83867682      776.46308924    
     744.500 15.16615953      764.80641096    
     745.000 15.97452350      753.87536898    
     745.500 13.84034184      757.44205636    
     746.000 12.00357553      759.42111988    
     746.500 11.87968256      758.58445968    
     747.000 13.37799294      774.46870895    
     747.500 16.15994078      785.07398605    
     748.000 17.65678796      780.88894838    
     748.500 18.95229761      776.72944673    
     749.000 19.43012782      786.57281770    
     749.500 19.96987913      778.21852318    
     750.000 19.62143039      770.39345026    
     750.500 18.64115715      785.33278246    
     751.000 15.64344135      808.92690645    
     751.500 13.74812452      822.50505159    
     752.000 15.00022214      819.79113780    
     752.500 16.73682170      799.03614138    
     753.000 15.19880815      822.94988839    
     753.500 11.70299985      791.25613137    
     754.000 10.11135290      788.10136804    
     754.500 10.78600988      784.82856626    
     755.000 12.80318231      768.77881473    
     755.500 12.58937100      731.67184710    
     756.000 10.93142512      729.49535942    
     756.500 9.51604121       734.57686878    
     757.000 10.45989595      764.68666639    
     757.500 12.12026086      790.01168049    
     758.000 13.93420686      789.68080319    
     758.500 13.85887698      760.29867360    
     759.000 11.03748615      767.50225772    
     759.500 8.97476832       789.61717416    
     760.000 10.08982239      786.29735729    
     760.500 12.71496294      782.93595283    
     761.000 15.36594187      785.53901286    
     761.500 17.59638079      800.03094512    
     762.000 17.41313884      797.36263591    
     762.500 17.15686312      785.50307646    
     763.000 16.61235249      778.29038757    
     763.500 16.39478474      771.79035277    
     764.000 16.22543113      766.13971238    
     764.500 16.91297407      767.85118043    
     765.000 17.59692166      782.38443251    
     765.500 17.72883150      773.17353725    
     766.000 16.92145862      775.96718796    
     766.500 16.01481059      795.60743524    
     767.000 16.44905650      801.46522263    
     767.500 19.17633580      795.79480840    
     768.000 21.67302605      796.96002228    
     768.500 22.38498457      819.47114210    
     769.000 20.82093908      833.36117768    
