~Version Information Block
 VERS.                2.00:     CWLS LOG ASCII STANDARD - VERSION 2.000000
 WRAP.                  NO:     One Line Per Depth Step
#
~Well Information Block
#MNEM.UNIT                     Data                         Information
#----------   ------------------------------------------   ----------------
 STRT.FT                                        0.0000:     START DEPTH
 STOP.FT                                     1150.0000:     STOP DEPTH
 STEP.FT                                        0.5000:     STEP
 NULL.                                       -999.2500:     NULL VALUE
 COMP.                                Aerkla Expl. Co.:     COMPANY
 WELL.                                 State #3 V #326:     WELL
 FLD .                                         Wildcat:     FIELD
 LOC .                                           NW NW:     LOCATION
 SEC .                                              36:     SECTION
 TWP .                                             17N:     TOWNSHIP
 RANG.                                             22E:     RANGE
 CNTY.                                          Navajo:     COUNTY
 STAT.                                         Arizona:     STATE
 CTRY.                                          U.S.A.:     COUNTRY
 SRVC.                           Jet Radioactivity Log:     SERVICE COMPANY
 DATE.                                                :     DATE
 API .                                    02-017-05143:     API NUMBER
 UWI .                                    02-017-05143:     UWI NUMBER
 TVD .                                              NO:     TVD flag
 WSTA.                                               S:     Well status
#
~Curve Information Block
#MNEM.UNIT       API CODE      Curve Description
#----------    -------------   -------------------
 DEPT.FT                   :   Depth in Feet
 GR  .GAPI     35 310 01 01:   Gamma Ray
 NEUT.NCPS     35 330 30 01:   Neutrons
#
~Parameter Information Block
#MNEM.UNIT            Value               Description
#----------    --------------------    -------------------
 DATE.                   10/2/1965:    Date As Month-Day-Year
 RUN .                         ONE:    Run Number
 EPD .FT                    0.0000:    Elevation Of Perm. Datum
 LMF .                          KB:    Log Measured From
 TD  .FT                 1150.0000:    Total Depth
 DF  .               Permian Supai:    
 PROJ.                       RMCCS:    
 BLI .FT                 1159.0000:    Bottom Log Interval
 TLI .FT                    0.0000:    Top Log Interval
 CSIZ.IN                         7:    Casing Size
 DFT .                      Diesel:    Drilling Fluid Type
 DFL .ML                  210.0000:    Drilling Fluid Loss
 ENGI.                      Baldry:    Engineer'S Name
 WITN.                      Spragg:    Witness' Name
 DGBY.                         J.L:    
 PDAT.                         UNK:    Permanent Datum
 WSTA.                           S:    
#
~Other Information Block
<DescLogPlotStart>   NEURALOG PLOT DEFINITION
PLOTDEFVERSION: 3
LASFILE: C:\nds\projects\AZGS Digitized OGPwelllogs\las\0326GRN.las
DEPTHSCALE: 240.000000
RESOLUTION: 200
DEPTHLABELFREQ: 100.000000
HEAVYGRIDFREQ: 100.000000
MEDIUMGRIDFREQ: 50.000000
LIGHTGRIDFREQ: 10.000000
#
#   TRACK 1
#
STARTTRACK: 
 LEFTX: 0.500000 inch
 RIGHTX: 3.000000 inch
 SCALETYPE: Linear
 NUMCHARTDIVISIONS: 10
CURVE: GR    0.000000   100.000000 (0,0,255)      Solid             2     N    
ENDTRACK: 
#
#   TRACK 2
#
STARTTRACK: 
 LEFTX: 3.500000 inch
 RIGHTX: 8.500000 inch
 SCALETYPE: Linear
 NUMCHARTDIVISIONS: 20
CURVE: NEUT  320.000000 1920.000000 (0,131,131)    Solid             2     N   
ENDTRACK: 
<DescLogPlotEnd>
<DescLog>Gamma Ray Neutron
<DescOSVS>
<DescOSVS>
<DescOSVS>
~A DEPTH     GR               NEUT            
# ...
     427.500 4.54184271       682.04469741    
     428.000 4.30520751       672.21098038    
     428.500 4.07453568       690.75159959    
     429.000 3.92708953       700.45898304    
     429.500 3.91234297       707.58248759    
     430.000 4.09664069       707.62299307    
     430.500 3.59507426       707.26739052    
     431.000 3.41853999       724.42314177    
     431.500 3.33649587       723.15072498    
     432.000 3.50616011       710.40354628    
     432.500 4.01795457       696.37545241    
     433.000 4.45075955       693.08694366    
     433.500 5.11707284       680.40325508    
     434.000 5.31520682       684.07732956    
     434.500 5.34326818       709.14906742    
     435.000 5.09377613       720.64444438    
     435.500 4.76171999       719.23338688    
     436.000 4.53900161       726.17531276    
     436.500 4.72345231       738.67427680    
     437.000 4.72769833       720.93093580    
     437.500 4.72249210       701.87972517    
     438.000 4.54597314       703.74857510    
     438.500 4.52328478       704.05420886    
     439.000 4.52116604       686.96077039    
     439.500 4.35169021       684.94338236    
     440.000 3.93561201       685.30129094    
     440.500 3.90390669       669.21020517    
     441.000 4.33565020       664.46068038    
     441.500 4.53730631       672.43108190    
     442.000 4.60963567       673.99128872    
     442.500 4.53132881       675.47073506    
     443.000 4.51467117       676.96201500    
     443.500 4.73364049       682.65944852    
     444.000 4.41176377       690.52210454    
     444.500 4.33141286       697.51330515    
     445.000 4.49931266       702.81711884    
     445.500 4.93152243       700.28234554    
     446.000 5.32882009       699.05571239    
     446.500 5.22739967       683.92405052    
     447.000 4.91420945       658.86703449    
     447.500 4.83030450       641.43200960    
     448.000 4.70713548       636.87993139    
     448.500 4.32029208       648.56289621    
     449.000 4.44854397       657.92658215    
     449.500 4.73078977       669.08425216    
     450.000 4.39261980       671.44614539    
     450.500 3.91645367       680.18116130    
     451.000 3.71374161       691.65059617    
     451.500 3.89868142       675.98651402    
     452.000 4.16406096       672.16897416    
     452.500 4.73189204       670.71358687    
     453.000 4.52655712       675.81276479    
     453.500 4.51445718       726.87477521    
     454.000 4.72800977       738.97912327    
     454.500 4.82496876       781.34223677    
     455.000 5.73008557       777.75257664    
     455.500 6.94239972       766.41528179    
     456.000 6.71938759       753.07043216    
     456.500 6.32341611       728.61937331    
     457.000 5.70966086       691.05390141    
     457.500 4.92935211       671.20182515    
     458.000 4.50504974       667.46214774    
     458.500 4.32334076       672.55624492    
     459.000 4.32607862       686.88960447    
     459.500 4.31257013       694.04188709    
     460.000 4.85027909       697.24162546    
     460.500 5.34742283       699.47139716    
     461.000 5.35214810       702.75399126    
     461.500 5.12893833       719.21781677    
     462.000 4.93096586       725.78988877    
     462.500 4.71913785       727.00810216    
     463.000 4.72885900       728.07888088    
     463.500 4.93654840       726.69239552    
     464.000 4.71798146       713.68848055    
     464.500 4.72889238       706.37836895    
     465.000 4.87271006       715.48840653    
     465.500 4.72024279       725.45955850    
     466.000 4.76479896       712.10993935    
     466.500 5.15073467       687.27068038    
     467.000 5.09029195       684.38035207    
     467.500 4.88416694       685.07564352    
     468.000 4.80081758       685.04971228    
     468.500 4.78945673       681.83860037    
     469.000 4.44271886       679.17157236    
     469.500 4.53085659       675.49034800    
     470.000 4.69684315       673.67882012    
     470.500 5.13528906       683.34626873    
     471.000 5.12657677       681.42344764    
     471.500 5.18215146       677.78873652    
     472.000 5.36117741       679.95361711    
     472.500 5.48257807       683.01839593    
     473.000 5.32223043       689.49195274    
     473.500 5.51125578       702.47355194    
     474.000 5.63797647       701.36963265    
     474.500 5.10599897       682.58667225    
     475.000 4.96101517       680.89053268    
     475.500 4.92887825       693.10793403    
     476.000 4.35548973       691.38525442    
     476.500 4.11923927       688.56280024    
     477.000 4.17569578       689.72391329    
     477.500 4.26929620       716.24653019    
     478.000 3.92613290       739.63315434    
     478.500 4.28182551       767.88178490    
     479.000 4.93041052       797.84948275    
     479.500 5.33841400       812.94823888    
     480.000 5.33401699       811.93393354    
     480.500 5.43418285       787.59674152    
     481.000 5.52854797       778.28650556    
     481.500 5.43197288       783.03774816    
     482.000 4.92924131       780.79006906    
     482.500 5.16271984       778.52419392    
     483.000 5.50134335       790.24907850    
     483.500 5.92864679       770.44662544    
     484.000 5.79295821       728.72731259    
     484.500 4.94570574       674.36154438    
     485.000 4.74314800       667.12617076    
     485.500 4.33830581       674.05739696    
     486.000 4.32576124       676.93830899    
     486.500 3.90875015       687.70554995    
     487.000 3.62159321       693.95441485    
     487.500 3.50598799       693.09090402    
     488.000 3.74622063       688.49871780    
     488.500 4.08474452       689.99563882    
     489.000 4.45549683       694.72003748    
     489.500 5.11556084       691.79978898    
     490.000 5.04142484       689.55348349    
     490.500 4.73131873       681.90668406    
     491.000 4.21776767       671.40651268    
     491.500 3.53365294       670.53325702    
     492.000 3.31050426       680.07262032    
     492.500 3.51678974       687.45950079    
     493.000 3.54079017       703.08641147    
     493.500 3.91128293       723.84795066    
     494.000 4.15542689       726.61596204    
     494.500 4.81756695       689.04529577    
     495.000 5.52781744       671.35475426    
     495.500 6.27852661       644.53552552    
     496.000 6.38703859       634.44769425    
     496.500 6.55075164       637.78993615    
     497.000 6.42360302       650.15148991    
     497.500 5.76078695       666.93954513    
     498.000 5.52642246       669.94453040    
     498.500 5.34127355       668.83445451    
     499.000 5.52919589       664.94982804    
     499.500 6.23800248       664.26917395    
     500.000 6.33102229       670.58814820    
     500.500 6.34484134       674.36432553    
     501.000 5.99555455       670.89723575    
     501.500 5.89028021       670.55000462    
     502.000 5.37701755       673.85554809    
     502.500 5.34113758       672.27915439    
     503.000 5.14168457       696.08622315    
     503.500 5.28119820       707.95883582    
     504.000 5.33637717       703.00842092    
     504.500 5.53070920       704.65027488    
     505.000 6.14647836       717.13791072    
     505.500 5.58791700       734.82807219    
     506.000 4.93103004       759.17160285    
     506.500 3.87085723       759.40863429    
     507.000 3.16949025       754.47911739    
     507.500 3.24701054       750.32724307    
     508.000 4.13438517       749.89347121    
     508.500 5.00387622       763.73897507    
     509.000 4.91246199       757.40457883    
     509.500 5.10716199       735.73988072    
     510.000 6.01092018       744.15423179    
     510.500 6.77626860       747.92108100    
     511.000 5.73939665       755.99216372    
     511.500 5.47396543       770.52401036    
     512.000 5.29012562       769.43562542    
     512.500 4.79206672       764.74730488    
