~Version Information Block
 VERS.                2.00:     CWLS LOG ASCII STANDARD - VERSION 2.000000
 WRAP.                  NO:     One Line Per Depth Step
#
~Well Information Block
#MNEM.UNIT                     Data                         Information
#----------   ------------------------------------------   ----------------
 STRT.FT                                        0.0000:     START DEPTH
 STOP.FT                                     1150.0000:     STOP DEPTH
 STEP.FT                                        0.5000:     STEP
 NULL.                                       -999.2500:     NULL VALUE
 COMP.                                Aerkla Expl. Co.:     COMPANY
 WELL.                                 State #3 V #326:     WELL
 FLD .                                         Wildcat:     FIELD
 LOC .                                           NW NW:     LOCATION
 SEC .                                              36:     SECTION
 TWP .                                             17N:     TOWNSHIP
 RANG.                                             22E:     RANGE
 CNTY.                                          Navajo:     COUNTY
 STAT.                                         Arizona:     STATE
 CTRY.                                          U.S.A.:     COUNTRY
 SRVC.                           Jet Radioactivity Log:     SERVICE COMPANY
 DATE.                                                :     DATE
 API .                                    02-017-05143:     API NUMBER
 UWI .                                    02-017-05143:     UWI NUMBER
 TVD .                                              NO:     TVD flag
 WSTA.                                               S:     Well status
#
~Curve Information Block
#MNEM.UNIT       API CODE      Curve Description
#----------    -------------   -------------------
 DEPT.FT                   :   Depth in Feet
 GR  .GAPI     35 310 01 01:   Gamma Ray
 NEUT.NCPS     35 330 30 01:   Neutrons
#
~Parameter Information Block
#MNEM.UNIT            Value               Description
#----------    --------------------    -------------------
 DATE.                   10/2/1965:    Date As Month-Day-Year
 RUN .                         ONE:    Run Number
 EPD .FT                    0.0000:    Elevation Of Perm. Datum
 LMF .                          KB:    Log Measured From
 TD  .FT                 1150.0000:    Total Depth
 DF  .               Permian Supai:    
 PROJ.                       RMCCS:    
 BLI .FT                 1159.0000:    Bottom Log Interval
 TLI .FT                    0.0000:    Top Log Interval
 CSIZ.IN                         7:    Casing Size
 DFT .                      Diesel:    Drilling Fluid Type
 DFL .ML                  210.0000:    Drilling Fluid Loss
 ENGI.                      Baldry:    Engineer'S Name
 WITN.                      Spragg:    Witness' Name
 DGBY.                         J.L:    
 PDAT.                         UNK:    Permanent Datum
 WSTA.                           S:    
#
~Other Information Block
<DescLogPlotStart>   NEURALOG PLOT DEFINITION
PLOTDEFVERSION: 3
LASFILE: C:\nds\projects\AZGS Digitized OGPwelllogs\las\0326GRN.las
DEPTHSCALE: 240.000000
RESOLUTION: 200
DEPTHLABELFREQ: 100.000000
HEAVYGRIDFREQ: 100.000000
MEDIUMGRIDFREQ: 50.000000
LIGHTGRIDFREQ: 10.000000
#
#   TRACK 1
#
STARTTRACK: 
 LEFTX: 0.500000 inch
 RIGHTX: 3.000000 inch
 SCALETYPE: Linear
 NUMCHARTDIVISIONS: 10
CURVE: GR    0.000000   100.000000 (0,0,255)      Solid             2     N    
ENDTRACK: 
#
#   TRACK 2
#
STARTTRACK: 
 LEFTX: 3.500000 inch
 RIGHTX: 8.500000 inch
 SCALETYPE: Linear
 NUMCHARTDIVISIONS: 20
CURVE: NEUT  320.000000 1920.000000 (0,131,131)    Solid             2     N   
ENDTRACK: 
<DescLogPlotEnd>
<DescLog>Gamma Ray Neutron
<DescOSVS>
<DescOSVS>
<DescOSVS>
~A DEPTH     GR               NEUT            
# ...
     256.500 23.05075770      621.53192026    
     257.000 27.06624962      625.60717519    
     257.500 30.54909005      624.38087895    
     258.000 30.31896054      619.83578295    
     258.500 23.07978021      606.67020113    
     259.000 19.79497949      604.68961098    
     259.500 16.17743909      601.55120968    
     260.000 14.24103960      600.58605385    
     260.500 12.47009861      598.50695552    
     261.000 10.97220794      608.07664973    
     261.500 10.16034886      617.67747036    
     262.000 9.44545102       613.45011840    
     262.500 9.16799250       604.94067625    
     263.000 9.86520362       598.42030620    
     263.500 10.80848574      596.13630653    
     264.000 11.76814043      572.19397984    
     264.500 11.76966957      561.31252614    
     265.000 11.46146869      561.37609786    
     265.500 11.16205169      568.69072612    
     266.000 11.24342537      583.02884763    
     266.500 11.67725480      602.97160771    
     267.000 12.45131546      600.88402987    
     267.500 13.37786764      598.47175053    
     268.000 14.24253159      598.41539326    
     268.500 15.94701293      594.13565638    
     269.000 19.14839775      590.66002860    
     269.500 23.96221656      597.37815590    
     270.000 27.98408527      595.16475287    
     270.500 31.16584757      573.21859640    
     271.000 32.49355781      564.53628762    
     271.500 31.22389588      567.13809980    
     272.000 28.66992261      565.05807346    
     272.500 26.23072389      564.52942830    
     273.000 24.93639715      562.44256196    
     273.500 25.10717542      560.03485141    
     274.000 25.28313370      561.65255860    
     274.500 24.91889909      564.75242507    
     275.000 24.98926447      565.43006481    
     275.500 25.28905393      573.60815346    
     276.000 24.64583268      581.38609518    
     276.500 24.62534016      594.44650978    
     277.000 25.00781467      601.86283873    
     277.500 24.24206469      608.48897686    
     278.000 23.00606367      612.51104369    
     278.500 22.16991695      615.24759044    
     279.000 22.03689447      628.02788058    
     279.500 22.43785578      621.01032817    
     280.000 24.41563304      613.33133673    
     280.500 26.67465992      604.73659699    
     281.000 28.59445177      600.56326212    
     281.500 29.89333411      594.60313218    
     282.000 30.57713719      598.12561860    
     282.500 28.80069145      597.58995516    
     283.000 23.68005243      601.34693599    
     283.500 16.86041999      598.37664714    
     284.000 11.07427919      598.95384161    
     284.500 6.52498109       618.84184258    
     285.000 5.15086307       633.55176490    
     285.500 4.90710609       628.33091806    
     286.000 4.97543052       648.88476128    
     286.500 5.15165166       658.25099594    
     287.000 5.98557196       654.98957763    
     287.500 6.39897955       637.92241213    
     288.000 6.47926244       613.40738602    
     288.500 6.14669121       598.14459263    
     289.000 5.68149452       598.68678809    
     289.500 5.17754872       600.11715748    
     290.000 5.34190071       597.89232859    
     290.500 5.34749756       607.21355957    
     291.000 5.34440974       609.18843438    
     291.500 5.05903171       617.86623837    
     292.000 5.19145797       620.94336942    
     292.500 5.32165878       617.91359920    
     293.000 5.16814728       631.58738718    
     293.500 5.34330447       642.44195432    
     294.000 5.32120538       648.38301698    
     294.500 5.17459108       648.20008004    
     295.000 4.90894830       647.74841467    
     295.500 4.91794921       657.27171755    
     296.000 5.24785399       654.59322755    
     296.500 4.70778944       638.52243676    
     297.000 4.37084397       641.08376638    
     297.500 4.66730070       637.32803160    
     298.000 4.83987109       626.53985376    
     298.500 4.93549936       615.46769910    
     299.000 5.18187042       596.20972993    
     299.500 5.79108799       589.28535956    
     300.000 5.95301854       579.49536853    
     300.500 5.32448075       577.94452594    
     301.000 5.48086341       578.04386691    
     301.500 5.62179907       568.50627814    
     302.000 5.53012296       556.57661692    
     302.500 5.27851216       560.25766044    
     303.000 5.18945084       563.22839873    
     303.500 5.52686482       565.22944325    
     304.000 5.74369742       568.03732198    
     304.500 5.33767224       566.49274433    
     305.000 5.30238187       556.66969487    
     305.500 5.05917860       537.44362785    
     306.000 5.32513596       535.99705088    
     306.500 5.27617107       532.83319302    
     307.000 5.22655783       535.26119916    
     307.500 5.57012631       533.10038479    
     308.000 5.79505611       532.63063145    
     308.500 6.11766129       534.03738829    
     309.000 6.09561828       540.84189180    
     309.500 5.53288517       547.52849102    
     310.000 4.96801614       555.21131226    
     310.500 4.37481269       565.06595212    
     311.000 3.87530168       569.08504527    
     311.500 3.51147322       575.71981214    
     312.000 3.50496440       571.55911511    
     312.500 3.78208688       566.65131978    
     313.000 3.90264816       571.43491949    
     313.500 4.11765409       566.25809305    
     314.000 4.11713984       567.91622541    
     314.500 3.90915154       576.22146106    
     315.000 3.91786090       569.25434364    
     315.500 3.97685520       568.17304734    
     316.000 4.32377857       564.61627882    
     316.500 4.79595410       561.63425456    
     317.000 5.15649044       549.28709476    
     317.500 4.87077836       547.27066004    
     318.000 4.76700373       544.75983279    
     318.500 4.93066622       546.70963298    
     319.000 4.94795874       548.74391500    
     319.500 4.93024727       554.47158357    
     320.000 4.94251977       558.41102793    
     320.500 4.74715088       562.41284959    
     321.000 4.71715844       566.23166047    
     321.500 4.91024372       561.57428536    
     322.000 4.93061109       565.42847339    
     322.500 4.72313967       568.02435967    
     323.000 4.35219469       572.83203746    
     323.500 4.49302453       575.45062761    
     324.000 4.72990457       579.82893751    
     324.500 4.94866615       579.40088498    
     325.000 5.09692882       572.09792596    
     325.500 4.94103908       572.53153175    
     326.000 4.62658704       571.51287826    
     326.500 4.54457720       579.14261427    
     327.000 4.42443681       592.68753558    
     327.500 4.72864897       624.56339276    
     328.000 4.92807466       649.17537822    
     328.500 4.92948252       665.61053329    
     329.000 4.92453025       665.43569471    
     329.500 4.95123546       646.74092807    
     330.000 4.90921639       637.76715911    
     330.500 4.93639688       621.88251403    
     331.000 5.06814341       610.34632434    
     331.500 5.34752127       579.52641860    
     332.000 5.25881816       554.85519970    
     332.500 4.78221289       539.91437471    
     333.000 4.51922518       543.76236097    
     333.500 4.72956266       551.28100704    
     334.000 5.02005676       559.44086717    
     334.500 5.53800727       565.49955985    
     335.000 6.23158728       565.49138389    
     335.500 6.49437630       566.17616122    
     336.000 5.92331696       568.06300707    
     336.500 6.15916440       571.75729631    
     337.000 5.73938633       576.04842817    
     337.500 5.40197721       577.51869173    
     338.000 5.05813770       575.71544071    
     338.500 4.93590961       596.10539921    
     339.000 4.88369700       594.01473785    
     339.500 4.71478436       585.70113415    
     340.000 4.78943263       577.28998677    
     340.500 4.71900136       569.60453706    
     341.000 5.11537002       588.58918888    
     341.500 5.18314721       601.67190848    
