~Version Information Block
 VERS.                2.00:     CWLS LOG ASCII STANDARD - VERSION 2.000000
 WRAP.                  NO:     One Line Per Depth Step
#
~Well Information Block
#MNEM.UNIT                     Data                         Information
#----------   ------------------------------------------   ----------------
 STRT.FT                                        0.0000:     START DEPTH
 STOP.FT                                     1150.0000:     STOP DEPTH
 STEP.FT                                        0.5000:     STEP
 NULL.                                       -999.2500:     NULL VALUE
 COMP.                                Aerkla Expl. Co.:     COMPANY
 WELL.                                 State #3 V #326:     WELL
 FLD .                                         Wildcat:     FIELD
 LOC .                                           NW NW:     LOCATION
 SEC .                                              36:     SECTION
 TWP .                                             17N:     TOWNSHIP
 RANG.                                             22E:     RANGE
 CNTY.                                          Navajo:     COUNTY
 STAT.                                         Arizona:     STATE
 CTRY.                                          U.S.A.:     COUNTRY
 SRVC.                           Jet Radioactivity Log:     SERVICE COMPANY
 DATE.                                                :     DATE
 API .                                    02-017-05143:     API NUMBER
 UWI .                                    02-017-05143:     UWI NUMBER
 TVD .                                              NO:     TVD flag
 WSTA.                                               S:     Well status
#
~Curve Information Block
#MNEM.UNIT       API CODE      Curve Description
#----------    -------------   -------------------
 DEPT.FT                   :   Depth in Feet
 GR  .GAPI     35 310 01 01:   Gamma Ray
 NEUT.NCPS     35 330 30 01:   Neutrons
#
~Parameter Information Block
#MNEM.UNIT            Value               Description
#----------    --------------------    -------------------
 DATE.                   10/2/1965:    Date As Month-Day-Year
 RUN .                         ONE:    Run Number
 EPD .FT                    0.0000:    Elevation Of Perm. Datum
 LMF .                          KB:    Log Measured From
 TD  .FT                 1150.0000:    Total Depth
 DF  .               Permian Supai:    
 PROJ.                       RMCCS:    
 BLI .FT                 1159.0000:    Bottom Log Interval
 TLI .FT                    0.0000:    Top Log Interval
 CSIZ.IN                         7:    Casing Size
 DFT .                      Diesel:    Drilling Fluid Type
 DFL .ML                  210.0000:    Drilling Fluid Loss
 ENGI.                      Baldry:    Engineer'S Name
 WITN.                      Spragg:    Witness' Name
 DGBY.                         J.L:    
 PDAT.                         UNK:    Permanent Datum
 WSTA.                           S:    
#
~Other Information Block
<DescLogPlotStart>   NEURALOG PLOT DEFINITION
PLOTDEFVERSION: 3
LASFILE: C:\nds\projects\AZGS Digitized OGPwelllogs\las\0326GRN.las
DEPTHSCALE: 240.000000
RESOLUTION: 200
DEPTHLABELFREQ: 100.000000
HEAVYGRIDFREQ: 100.000000
MEDIUMGRIDFREQ: 50.000000
LIGHTGRIDFREQ: 10.000000
#
#   TRACK 1
#
STARTTRACK: 
 LEFTX: 0.500000 inch
 RIGHTX: 3.000000 inch
 SCALETYPE: Linear
 NUMCHARTDIVISIONS: 10
CURVE: GR    0.000000   100.000000 (0,0,255)      Solid             2     N    
ENDTRACK: 
#
#   TRACK 2
#
STARTTRACK: 
 LEFTX: 3.500000 inch
 RIGHTX: 8.500000 inch
 SCALETYPE: Linear
 NUMCHARTDIVISIONS: 20
CURVE: NEUT  320.000000 1920.000000 (0,131,131)    Solid             2     N   
ENDTRACK: 
<DescLogPlotEnd>
<DescLog>Gamma Ray Neutron
<DescOSVS>
<DescOSVS>
<DescOSVS>
~A DEPTH     GR               NEUT            
# ...
     940.500 0.71042855       1431.48901656   
     941.000 0.70595588       1447.86960984   
     941.500 0.70388322       1472.73956818   
     942.000 0.70422535       1460.83118163   
     942.500 0.70422535       1412.13844104   
     943.000 0.70447423       1402.12291274   
     943.500 0.70416635       1413.83822413   
     944.000 0.68554727       1425.06188658   
     944.500 0.97524405       1404.89366329   
     945.000 1.49327828       1341.66466029   
     945.500 3.46651104       1136.04814443   
     946.000 7.74237230       884.79839519    
     946.500 12.43083460      681.88565697    
     947.000 14.15363951      652.99899699    
     947.500 11.02719359      733.87068420    
     948.000 5.71042110       919.39861680    
     948.500 2.85503043       1184.19257773   
     949.000 1.69802124       1343.06920762   
     949.500 1.14772991       1402.44734203   
     950.000 0.75638980       1445.77733200   
     950.500 0.69870867       1450.19585978   
     951.000 0.80037922       1447.77671437   
     951.500 0.92322544       1450.24701287   
     952.000 1.40095751       1456.28271078   
     952.500 2.02925505       1431.09435406   
     953.000 2.01901341       1423.82546782   
     953.500 1.40693937       1416.62738183   
     954.000 0.88378598       1456.62619287   
     954.500 1.24401319       1457.33966725   
     955.000 2.33723870       1434.30424776   
     955.500 3.55501191       1403.58785754   
     956.000 3.41058136       1396.88537443   
     956.500 3.35266582       1360.33788524   
     957.000 4.27256790       1239.81506963   
     957.500 4.93129464       1179.37403544   
     958.000 3.84809620       1180.08334248   
     958.500 2.63150088       1268.50871522   
     959.000 1.86810801       1386.93381207   
     959.500 1.48231939       1458.82501408   
     960.000 1.13421992       1428.38529116   
     960.500 1.10233006       1466.15437507   
     961.000 1.05350888       1482.65774218   
     961.500 0.99714982       1527.91826976   
     962.000 0.94047267       1543.93917042   
     962.500 0.90500088       1549.33092686   
     963.000 0.90524786       1561.99770186   
     963.500 0.90728881       1569.89358095   
     964.000 0.91871704       1580.03081617   
     964.500 0.70400906       1606.10860541   
     965.000 0.70595588       1622.04688133   
     965.500 0.70432713       1630.37892451   
     966.000 0.70586263       1622.36426615   
     966.500 0.68539932       1608.46884582   
     967.000 0.90828055       1588.07072455   
     967.500 1.24396444       1545.59969653   
     968.000 2.11336307       1434.05729681   
     968.500 3.93410713       1282.21133023   
     969.000 8.22578491       1078.81607541   
     969.500 9.76904501       921.97724677    
     970.000 9.50262562       842.42272855    
     970.500 10.22607360      794.05023918    
     971.000 11.69113721      750.88624999    
     971.500 11.88074859      737.30502667    
     972.000 11.31965392      726.36395508    
     972.500 11.48088228      704.63227841    
     973.000 12.13842881      695.75862635    
     973.500 10.04861150      746.07823470    
     974.000 6.86636592       911.37412237    
     974.500 4.80151976       1171.35406219   
     975.000 4.11954488       1239.94620440   
     975.500 4.19646759       1263.54195095   
     976.000 5.04397484       1122.94776328   
     976.500 10.74353171      861.92704750    
     977.000 16.36676718      741.42715572    
     977.500 18.09776750      682.26592661    
     978.000 16.40551690      728.08068027    
     978.500 13.55009673      827.50481442    
     979.000 10.73013350      941.72987210    
     979.500 8.25110498       1065.43630893   
     980.000 5.58587385       1169.50952442   
     980.500 4.70684896       1277.27181545   
     981.000 3.92923123       1349.48846540   
     981.500 2.95433823       1429.10482145   
     982.000 2.40326988       1450.52444829   
     982.500 1.76141755       1540.48323510   
     983.000 1.54812830       1553.21830505   
     983.500 2.04607286       1436.58971501   
     984.000 3.27798662       1223.47817941   
     984.500 6.96603405       909.67510530    
     985.000 11.52741974      676.53036185    
     985.500 15.28132900      563.49397154    
     986.000 16.83314225      545.02076338    
     986.500 17.06213474      559.80074699    
     987.000 14.26847821      588.90241490    
     987.500 12.14522838      624.46755603    
     988.000 11.99651425      629.42476908    
     988.500 13.12221613      625.90082773    
     989.000 11.27925396      705.70116122    
     989.500 8.31209920       866.71045194    
     990.000 6.14684992       995.88524441    
     990.500 7.44679987       977.09235732    
     991.000 9.44224461       906.27249404    
     991.500 10.07319566      854.83292473    
     992.000 8.62750388       944.77626547    
     992.500 6.20478322       1058.56920829   
     993.000 4.32450644       1195.11490024   
     993.500 3.10569537       1317.45050368   
     994.000 2.82016368       1412.76856727   
     994.500 2.70763571       1482.06890743   
     995.000 2.62531498       1501.56163442   
     995.500 2.27680254       1561.37571548   
     996.000 1.93165397       1582.02195482   
     996.500 1.91102549       1561.45008959   
     997.000 2.19859635       1507.62639472   
     997.500 3.94099446       1403.42030387   
     998.000 6.01826601       1262.25146807   
     998.500 8.36161721       1055.80742227   
     999.000 9.95698018       906.55967904    
     999.500 10.36100579      808.66599799    
    1000.000 10.05223476      787.94133077    
    1000.500 9.33032873       832.02443113    
    1001.000 7.84559225       881.08867881    
    1001.500 6.70640989       966.52155164    
    1002.000 5.74669893       1074.37077655   
    1002.500 4.74871677       1182.88444499   
    1003.000 3.92832308       1317.64616403   
    1003.500 3.38985999       1438.05752666   
    1004.000 2.91666150       1476.42397535   
    1004.500 2.56988257       1499.21374242   
    1005.000 3.11135972       1401.08569350   
    1005.500 3.50699413       1312.13776797   
    1006.000 4.28382350       1172.92239472   
    1006.500 6.69739607       916.07362293    
    1007.000 9.62373164       748.69147334    
    1007.500 11.64670097      693.11935807    
    1008.000 14.19222176      672.25677031    
    1008.500 14.31236103      681.88565697    
    1009.000 9.73358918       851.73184457    
    1009.500 5.24558724       1096.86596644   
    1010.000 3.49375869       1254.84377875   
    1010.500 3.37563132       1260.83738986   
    1011.000 4.74178564       1107.30369959   
    1011.500 6.94256762       935.38874204    
    1012.000 8.35037281       876.00372788    
    1012.500 8.05977870       907.87709377    
    1013.000 6.63573095       967.37941434    
    1013.500 6.56335013       997.78802957    
    1014.000 6.50402959       1015.68947942   
    1014.500 5.81399479       1084.54266178   
    1015.000 4.25256966       1177.74110943   
    1015.500 3.01637351       1300.57457667   
    1016.000 1.78364492       1388.58705037   
    1016.500 1.40952870       1462.06684502   
    1017.000 1.30274928       1518.82438851   
    1017.500 1.32207868       1523.74070767   
    1018.000 1.97119233       1466.19816728   
    1018.500 3.31833082       1369.65141166   
    1019.000 4.84670491       1276.72345083   
    1019.500 4.40372891       1260.84708463   
    1020.000 3.21833158       1332.08922157   
    1020.500 2.25493894       1434.16789264   
    1021.000 1.75068843       1466.18263723   
    1021.500 1.71530304       1515.09901357   
    1022.000 1.81984004       1519.04218833   
    1022.500 2.11694586       1483.94496102   
    1023.000 3.79437923       1379.17753260   
    1023.500 7.02968908       1150.49147442   
    1024.000 12.52063632      924.05215647    
    1024.500 15.12155065      752.58656164    
    1025.000 17.83231016      686.40863114    
    1025.500 19.01999213      682.85277004    
