~Version Information Block
 VERS.                2.00:     CWLS LOG ASCII STANDARD - VERSION 2.000000
 WRAP.                  NO:     One Line Per Depth Step
#
~Well Information Block
#MNEM.UNIT                     Data                         Information
#----------   ------------------------------------------   ----------------
 STRT.FT                                        0.0000:     START DEPTH
 STOP.FT                                     1150.0000:     STOP DEPTH
 STEP.FT                                        0.5000:     STEP
 NULL.                                       -999.2500:     NULL VALUE
 COMP.                                Aerkla Expl. Co.:     COMPANY
 WELL.                                 State #3 V #326:     WELL
 FLD .                                         Wildcat:     FIELD
 LOC .                                           NW NW:     LOCATION
 SEC .                                              36:     SECTION
 TWP .                                             17N:     TOWNSHIP
 RANG.                                             22E:     RANGE
 CNTY.                                          Navajo:     COUNTY
 STAT.                                         Arizona:     STATE
 CTRY.                                          U.S.A.:     COUNTRY
 SRVC.                           Jet Radioactivity Log:     SERVICE COMPANY
 DATE.                                                :     DATE
 API .                                    02-017-05143:     API NUMBER
 UWI .                                    02-017-05143:     UWI NUMBER
 TVD .                                              NO:     TVD flag
 WSTA.                                               S:     Well status
#
~Curve Information Block
#MNEM.UNIT       API CODE      Curve Description
#----------    -------------   -------------------
 DEPT.FT                   :   Depth in Feet
 GR  .GAPI     35 310 01 01:   Gamma Ray
 NEUT.NCPS     35 330 30 01:   Neutrons
#
~Parameter Information Block
#MNEM.UNIT            Value               Description
#----------    --------------------    -------------------
 DATE.                   10/2/1965:    Date As Month-Day-Year
 RUN .                         ONE:    Run Number
 EPD .FT                    0.0000:    Elevation Of Perm. Datum
 LMF .                          KB:    Log Measured From
 TD  .FT                 1150.0000:    Total Depth
 DF  .               Permian Supai:    
 PROJ.                       RMCCS:    
 BLI .FT                 1159.0000:    Bottom Log Interval
 TLI .FT                    0.0000:    Top Log Interval
 CSIZ.IN                         7:    Casing Size
 DFT .                      Diesel:    Drilling Fluid Type
 DFL .ML                  210.0000:    Drilling Fluid Loss
 ENGI.                      Baldry:    Engineer'S Name
 WITN.                      Spragg:    Witness' Name
 DGBY.                         J.L:    
 PDAT.                         UNK:    Permanent Datum
 WSTA.                           S:    
#
~Other Information Block
<DescLogPlotStart>   NEURALOG PLOT DEFINITION
PLOTDEFVERSION: 3
LASFILE: C:\nds\projects\AZGS Digitized OGPwelllogs\las\0326GRN.las
DEPTHSCALE: 240.000000
RESOLUTION: 200
DEPTHLABELFREQ: 100.000000
HEAVYGRIDFREQ: 100.000000
MEDIUMGRIDFREQ: 50.000000
LIGHTGRIDFREQ: 10.000000
#
#   TRACK 1
#
STARTTRACK: 
 LEFTX: 0.500000 inch
 RIGHTX: 3.000000 inch
 SCALETYPE: Linear
 NUMCHARTDIVISIONS: 10
CURVE: GR    0.000000   100.000000 (0,0,255)      Solid             2     N    
ENDTRACK: 
#
#   TRACK 2
#
STARTTRACK: 
 LEFTX: 3.500000 inch
 RIGHTX: 8.500000 inch
 SCALETYPE: Linear
 NUMCHARTDIVISIONS: 20
CURVE: NEUT  320.000000 1920.000000 (0,131,131)    Solid             2     N   
ENDTRACK: 
<DescLogPlotEnd>
<DescLog>Gamma Ray Neutron
<DescOSVS>
<DescOSVS>
<DescOSVS>
~A DEPTH     GR               NEUT            
# ...
     855.000 25.67184997      462.12239005    
     855.500 26.06715614      468.06703231    
     856.000 25.42616148      467.48138359    
     856.500 24.64483502      477.82280814    
     857.000 24.44986000      469.87311076    
     857.500 23.36145101      452.91306334    
     858.000 20.10122389      444.25721164    
     858.500 13.00859408      438.54242098    
     859.000 5.38032456       458.93168227    
     859.500 2.76075714       489.20883994    
     860.000 1.73272143       508.84934732    
     860.500 1.12027447       503.31197759    
     861.000 1.11701686       481.36647359    
     861.500 0.90108355       477.97813565    
     862.000 0.90716312       483.22331356    
     862.500 0.90495778       489.41339192    
     863.000 0.90177378       494.10628999    
     863.500 0.92355849       499.96417650    
     864.000 1.10039009       492.65911477    
     864.500 1.11259577       499.53831661    
     865.000 1.29375648       517.70710688    
     865.500 1.48446069       549.45711607    
     866.000 2.01968498       588.82583490    
     866.500 2.30801464       616.69208844    
     867.000 2.47535431       615.67037948    
     867.500 3.57660329       562.21669146    
     868.000 6.33146611       523.97417663    
     868.500 11.75926765      470.45916653    
     869.000 17.91439870      454.15234913    
     869.500 23.47147342      448.98354554    
     870.000 24.34767656      444.68511543    
     870.500 23.45264709      445.92474026    
     871.000 18.63695772      450.84106328    
     871.500 18.30637366      462.82687104    
     872.000 21.02303890      473.80104693    
     872.500 22.24421006      503.01696683    
     873.000 20.14568597      551.79809064    
     873.500 16.24658210      613.58691677    
     874.000 10.63419386      698.94034519    
     874.500 6.93707786       822.43828672    
     875.000 5.71664895       886.23818232    
     875.500 8.44662288       794.81874458    
     876.000 12.87566451      692.72775324    
     876.500 16.40806190      624.13718499    
     877.000 15.81328513      627.40999737    
     877.500 13.15652013      695.02450893    
     878.000 9.98521213       731.41719477    
     878.500 9.78164138       728.06120798    
     879.000 11.36904072      739.70957952    
     879.500 11.28660086      726.13672003    
     880.000 12.90664173      709.35364131    
     880.500 15.63256492      674.82619350    
     881.000 15.89258751      716.58703206    
     881.500 11.24476838      857.35493899    
     882.000 7.26163468       1037.92784028   
     882.500 3.51755362       1201.01704771   
     883.000 2.30613294       1274.69957095   
     883.500 2.31628850       1280.44864215   
     884.000 2.78072121       1285.53032797   
     884.500 2.07752578       1301.40784608   
     885.000 2.34370090       1341.29918534   
     885.500 2.09405384       1384.42881962   
     886.000 2.35944129       1399.43795678   
     886.500 3.52567262       1384.38687370   
     887.000 6.51363979       1353.80886018   
     887.500 13.11186761      1310.61254733   
     888.000 19.58896415      1306.20735675   
     888.500 27.26337666      1314.77442194   
     889.000 34.78700375      1202.31944464   
     889.500 39.56399488      1069.62668453   
     890.000 44.12181402      974.69768237    
     890.500 54.34698796      966.31782832    
     891.000 63.36733303      992.26703908    
     891.500 72.76067842      1086.03021401   
     892.000 76.44755645      1046.25093118   
     892.500 67.78671993      1099.92227598   
     893.000 46.46103130      1096.85459187   
     893.500 28.54936755      1056.06400257   
     894.000 24.48058181      1015.05055399   
     894.500 24.51213822      963.20843168    
     895.000 24.45831322      837.95239200    
     895.500 22.21478136      715.84388508    
     896.000 20.41514239      627.44179843    
     896.500 19.73005476      609.71157665    
     897.000 19.90721479      617.80224149    
     897.500 20.00646660      631.59500278    
     898.000 20.20982599      641.45440219    
     898.500 20.24892094      675.69346522    
     899.000 18.69234282      695.06074989    
     899.500 17.97949388      720.41189430    
     900.000 19.78091718      728.12431596    
     900.500 22.31671345      713.33855195    
     901.000 22.36852316      768.39613797    
     901.500 13.28474682      908.79902486    
     902.000 7.37704798       1045.05516550   
     902.500 5.47849689       1172.95887663   
     903.000 4.32703795       1222.70812437   
     903.500 3.53010171       1251.59478435   
     904.000 3.05934705       1276.31700981   
     904.500 2.86123324       1323.77054969   
     905.000 2.87937046       1356.59457417   
     905.500 2.50459955       1368.33988100   
     906.000 2.51912574       1342.27009945   
     906.500 2.52938700       1333.38694361   
     907.000 2.33313911       1352.42808300   
     907.500 2.16862803       1337.68245308   
     908.000 2.12672363       1386.46912371   
     908.500 1.91427124       1398.24560996   
     909.000 1.64877029       1423.68668972   
     909.500 1.49495564       1409.51797016   
     910.000 1.77556482       1408.08698604   
     910.500 2.16922536       1375.79842632   
     911.000 2.31795067       1364.14245913   
     911.500 1.91866878       1326.60390762   
     912.000 1.93558511       1301.23645590   
     912.500 2.89352167       1243.87651402   
     913.000 4.47364018       1117.79761340   
     913.500 7.30682735       918.41040483    
     914.000 12.83279381      769.38863248    
     914.500 14.60730576      652.19658977    
     915.000 14.50676333      594.42326981    
     915.500 14.63382871      565.53660983    
     916.000 16.22161716      554.16451023    
     916.500 17.76416112      554.89295508    
     917.000 18.43464138      568.27498666    
     917.500 16.49190329      616.01104587    
     918.000 12.18802859      687.45878496    
     918.500 9.63851907       789.23014934    
     919.000 8.27597161       887.02119760    
     919.500 7.75626712       929.11605730    
     920.000 7.75949592       943.50001033    
     920.500 8.24018640       948.11159020    
     921.000 6.85498111       1022.34289859   
     921.500 4.89840688       1144.57427192   
     922.000 3.41661881       1227.24000078   
     922.500 2.91367748       1274.93530272   
     923.000 2.52532815       1333.56239815   
     923.500 1.49996860       1370.59614649   
     924.000 0.95629503       1394.29192431   
     924.500 0.90110728       1425.53286808   
     925.000 0.90364307       1451.40810969   
     925.500 0.90543260       1443.86679725   
     926.000 0.90543260       1452.37874916   
     926.500 0.90543260       1443.69881856   
     927.000 0.90543260       1430.34868733   
     927.500 0.90543260       1440.71216138   
     928.000 0.90543260       1450.42510932   
     928.500 0.90544103       1493.23199688   
     929.000 0.90584408       1520.64400552   
     929.500 0.90795828       1510.22424424   
     930.000 0.81621049       1505.94642614   
     930.500 0.71560449       1521.27664369   
     931.000 0.70449685       1531.35336890   
     931.500 0.70669222       1507.78044409   
     932.000 0.95663345       1489.59870341   
     932.500 1.43985156       1432.78541397   
     933.000 2.61793419       1280.48144433   
     933.500 5.90052789       1018.89669007   
     934.000 8.89305844       823.10932798    
     934.500 5.08201761       824.71414243    
     935.000 3.29793424       1061.61788149   
     935.500 2.69003580       1211.09283273   
     936.000 2.45310776       1261.99684090   
     936.500 1.64958463       1283.53828669   
     937.000 1.09943273       1321.44805603   
     937.500 1.09590504       1360.10904978   
     938.000 1.04598241       1381.79386789   
     938.500 0.99380767       1415.03213153   
     939.000 0.94181224       1427.89190155   
     939.500 0.90842094       1414.52641773   
     940.000 0.91881164       1415.37845254   
