~Version Information Block
 VERS.                2.00:     CWLS LOG ASCII STANDARD - VERSION 2.000000
 WRAP.                  NO:     One Line Per Depth Step
#
~Well Information Block
#MNEM.UNIT                     Data                         Information
#----------   ------------------------------------------   ----------------
 STRT.FT                                        0.0000:     START DEPTH
 STOP.FT                                     1150.0000:     STOP DEPTH
 STEP.FT                                        0.5000:     STEP
 NULL.                                       -999.2500:     NULL VALUE
 COMP.                                Aerkla Expl. Co.:     COMPANY
 WELL.                                 State #3 V #326:     WELL
 FLD .                                         Wildcat:     FIELD
 LOC .                                           NW NW:     LOCATION
 SEC .                                              36:     SECTION
 TWP .                                             17N:     TOWNSHIP
 RANG.                                             22E:     RANGE
 CNTY.                                          Navajo:     COUNTY
 STAT.                                         Arizona:     STATE
 CTRY.                                          U.S.A.:     COUNTRY
 SRVC.                           Jet Radioactivity Log:     SERVICE COMPANY
 DATE.                                                :     DATE
 API .                                    02-017-05143:     API NUMBER
 UWI .                                    02-017-05143:     UWI NUMBER
 TVD .                                              NO:     TVD flag
 WSTA.                                               S:     Well status
#
~Curve Information Block
#MNEM.UNIT       API CODE      Curve Description
#----------    -------------   -------------------
 DEPT.FT                   :   Depth in Feet
 GR  .GAPI     35 310 01 01:   Gamma Ray
 NEUT.NCPS     35 330 30 01:   Neutrons
#
~Parameter Information Block
#MNEM.UNIT            Value               Description
#----------    --------------------    -------------------
 DATE.                   10/2/1965:    Date As Month-Day-Year
 RUN .                         ONE:    Run Number
 EPD .FT                    0.0000:    Elevation Of Perm. Datum
 LMF .                          KB:    Log Measured From
 TD  .FT                 1150.0000:    Total Depth
 DF  .               Permian Supai:    
 PROJ.                       RMCCS:    
 BLI .FT                 1159.0000:    Bottom Log Interval
 TLI .FT                    0.0000:    Top Log Interval
 CSIZ.IN                         7:    Casing Size
 DFT .                      Diesel:    Drilling Fluid Type
 DFL .ML                  210.0000:    Drilling Fluid Loss
 ENGI.                      Baldry:    Engineer'S Name
 WITN.                      Spragg:    Witness' Name
 DGBY.                         J.L:    
 PDAT.                         UNK:    Permanent Datum
 WSTA.                           S:    
#
~Other Information Block
<DescLogPlotStart>   NEURALOG PLOT DEFINITION
PLOTDEFVERSION: 3
LASFILE: C:\nds\projects\AZGS Digitized OGPwelllogs\las\0326GRN.las
DEPTHSCALE: 240.000000
RESOLUTION: 200
DEPTHLABELFREQ: 100.000000
HEAVYGRIDFREQ: 100.000000
MEDIUMGRIDFREQ: 50.000000
LIGHTGRIDFREQ: 10.000000
#
#   TRACK 1
#
STARTTRACK: 
 LEFTX: 0.500000 inch
 RIGHTX: 3.000000 inch
 SCALETYPE: Linear
 NUMCHARTDIVISIONS: 10
CURVE: GR    0.000000   100.000000 (0,0,255)      Solid             2     N    
ENDTRACK: 
#
#   TRACK 2
#
STARTTRACK: 
 LEFTX: 3.500000 inch
 RIGHTX: 8.500000 inch
 SCALETYPE: Linear
 NUMCHARTDIVISIONS: 20
CURVE: NEUT  320.000000 1920.000000 (0,131,131)    Solid             2     N   
ENDTRACK: 
<DescLogPlotEnd>
<DescLog>Gamma Ray Neutron
<DescOSVS>
<DescOSVS>
<DescOSVS>
~A DEPTH     GR               NEUT            
       0.000 9.35613682       1275.66700100   
       0.500 9.35613682       1275.66700100   
       1.000 8.03470825       1286.90070211   
       1.500 6.40843449       1262.28667824   
       2.000 4.53569405       1248.53716346   
       2.500 3.58600643       1245.27261712   
       3.000 3.67490822       1236.96826702   
       3.500 4.30793217       1237.02150047   
       4.000 6.02559612       1237.69477725   
       4.500 8.98166740       1239.87288791   
       5.000 11.90338758      1243.48083810   
       5.500 12.62031739      1245.36810087   
       6.000 13.61116833      1234.30358126   
       6.500 17.16390239      1206.78430211   
       7.000 18.79267931      1198.65597233   
       7.500 18.61508907      1210.48485532   
       8.000 18.99134854      1226.86173232   
       8.500 19.37403868      1228.68599698   
       9.000 19.79991781      1228.86922721   
       9.500 21.36118757      1276.68248790   
      10.000 22.27387441      1227.23983605   
      10.500 22.43998720      1266.09991015   
      11.000 22.37642503      1275.25120184   
      11.500 23.09453893      1209.86531762   
      12.000 23.50321799      1224.14467038   
      12.500 24.81650619      1218.70525720   
      13.000 25.55695891      1199.23603662   
      13.500 25.36472502      1198.04877802   
      14.000 25.40607919      1206.54819317   
      14.500 24.37582105      1246.89828316   
      15.000 23.86053545      1261.51772906   
      15.500 24.42613144      1273.50288172   
      16.000 24.23563301      1263.92022919   
      16.500 24.24467536      1233.00656601   
      17.000 24.05443894      1231.45697184   
      17.500 23.24162979      1228.95075479   
      18.000 23.26152495      1218.86055375   
      18.500 23.59867702      1221.96745504   
      19.000 23.44104519      1246.22817438   
      19.500 23.54169914      1264.90996192   
      20.000 24.27201509      1272.55072993   
      20.500 25.19451921      1275.28907261   
      21.000 26.09204973      1264.38498807   
      21.500 25.68091313      1273.53582395   
      22.000 25.28142687      1343.55112364   
      22.500 25.42405603      1336.73741879   
      23.000 26.02896584      1322.49046048   
      23.500 25.54909884      1358.23613943   
      24.000 24.58370249      1341.10532995   
      24.500 24.21509414      1366.61643757   
      25.000 23.45540697      1365.34417475   
      25.500 22.42836610      1354.07162093   
      26.000 22.19892664      1335.36744494   
      26.500 22.06627365      1307.57541706   
      27.000 22.37738379      1309.45899715   
      27.500 23.08124243      1316.27224641   
      28.000 22.86376011      1304.57607858   
      28.500 22.20867786      1269.39227572   
      29.000 21.15339821      1241.16167271   
      29.500 20.85433001      1229.51726405   
      30.000 21.00059486      1230.29507991   
      30.500 20.82764182      1220.88527399   
      31.000 21.21930509      1241.68974446   
      31.500 21.48846946      1244.17507388   
      32.000 21.44912612      1254.30078514   
      32.500 21.62871065      1280.77456660   
      33.000 21.31307416      1283.80709103   
      33.500 20.62391859      1281.87081019   
      34.000 20.22646295      1271.87126338   
      34.500 20.41663178      1259.02160686   
      35.000 21.63157142      1233.14230632   
      35.500 23.05489337      1217.29026327   
      36.000 23.09888649      1211.13960075   
      36.500 22.42207505      1191.39556688   
      37.000 21.62077837      1154.32121192   
      37.500 21.56432251      1105.20753723   
      38.000 22.47092844      1010.15157078   
      38.500 25.74627755      897.73337209    
      39.000 32.35575746      786.16584202    
      39.500 39.92500751      678.42097320    
      40.000 42.44262761      503.52968567    
      40.500 45.84829507      498.44125093    
      41.000 50.18300667      545.04097916    
      41.500 55.40998403      594.83756425    
      42.000 57.33899882      659.36809234    
      42.500 55.01755527      775.79662142    
      43.000 50.31209491      917.50488190    
      43.500 45.46994435      971.35322367    
      44.000 43.92557027      969.03715489    
      44.500 43.43455504      946.13071965    
      45.000 43.33144208      1000.22175451   
      45.500 44.16560876      1042.78230264   
      46.000 44.97751340      1062.47837287   
      46.500 44.77544677      1076.32161590   
      47.000 44.36194588      1084.77393902   
      47.500 44.58480536      1093.93272461   
      48.000 44.64102901      1102.50019728   
      48.500 43.75729640      1109.76063858   
      49.000 43.14626496      1114.74478237   
      49.500 43.58811812      1124.78931139   
      50.000 43.32609901      1128.87968100   
      50.500 41.83038194      1134.81866352   
      51.000 40.97955640      1142.17445243   
      51.500 41.15259043      1160.06252754   
      52.000 42.83166487      1190.59446804   
      52.500 46.99413953      1191.40478939   
      53.000 49.83848439      1151.22031126   
      53.500 49.79868955      1150.98905539   
      54.000 49.16575537      1155.20938836   
      54.500 47.97645648      1133.75557736   
      55.000 46.88237248      1060.50883331   
      55.500 46.20295629      1033.26016386   
      56.000 47.16166834      1039.33439532   
      56.500 48.47953749      1033.42998128   
      57.000 47.95955793      1039.72885474   
      57.500 47.16254039      1038.76081644   
      58.000 46.15162913      999.59192415    
      58.500 44.68069352      1002.09962401   
      59.000 45.14925802      1033.35824280   
      59.500 45.04899023      1036.20027722   
      60.000 45.99367961      1024.03502029   
      60.500 46.78147501      1017.20658022   
      61.000 48.40846273      1027.79541165   
      61.500 48.62783611      1029.47977363   
      62.000 47.29683145      1015.14161837   
      62.500 47.98815160      990.08535575    
      63.000 47.96677147      995.27125806    
      63.500 46.71833065      945.41695719    
      64.000 43.90464153      939.56110546    
      64.500 40.65458919      945.80075725    
      65.000 40.16300654      949.09975290    
      65.500 40.12618391      946.48752413    
      66.000 38.89566281      944.13743803    
      66.500 36.53375113      963.78680075    
      67.000 35.92494857      1003.06743176   
      67.500 35.11897067      1014.83795188   
      68.000 33.90175354      1002.74813800   
      68.500 32.61332831      1007.95903929   
      69.000 32.27482313      1035.38829730   
      69.500 31.23981735      1070.69596085   
      70.000 30.03427465      1128.00371783   
      70.500 28.69038776      1106.94952349   
      71.000 29.35764616      1069.51311134   
      71.500 30.46078763      1075.95218920   
      72.000 31.34207615      1090.08781438   
      72.500 32.38829856      1079.26777044   
      73.000 33.09573238      1095.36056778   
      73.500 33.98860729      1103.52624359   
      74.000 35.57615976      1137.79781239   
      74.500 37.69796618      1141.82079219   
      75.000 40.09527591      1125.96857204   
      75.500 39.96252221      1135.00647664   
      76.000 36.61306508      1119.79514366   
      76.500 34.91406132      1105.92449888   
      77.000 35.68187254      1113.17586934   
      77.500 37.19526075      1124.25165293   
      78.000 39.53789439      1167.34978563   
      78.500 42.52436938      1204.09342152   
      79.000 46.05793340      1218.06542198   
      79.500 49.79263229      1221.41783180   
      80.000 49.67350854      1226.01297132   
      80.500 47.75900853      1220.98414936   
      81.000 47.48052747      1198.58655576   
      81.500 46.60080024      1192.32787179   
      82.000 46.67281103      1195.20120454   
      82.500 48.21722678      1195.41423783   
      83.000 49.56432236      1183.94630622   
      83.500 50.47399836      1174.62264618   
      84.000 49.14276578      1183.15537673   
      84.500 48.96253685      1192.42711629   
      85.000 47.74412041      1169.85376116   
