~Version Information Block
 VERS.                2.00:     CWLS LOG ASCII STANDARD - VERSION 2.000000
 WRAP.                  NO:     One Line Per Depth Step
#
~Well Information Block
#MNEM.UNIT                     Data                         Information
#----------   ------------------------------------------   ----------------
 STRT.FT                                      250.0000:     START DEPTH
 STOP.FT                                     2900.0000:     STOP DEPTH
 STEP.FT                                        0.5000:     STEP
 NULL.                                       -999.2500:     NULL VALUE
 COMP.                          Kerr-McGee Corporation:     COMPANY
 WELL.                                       Navajo #4:     WELL
 FLD .                                  Dineh-bi-Keyah:     FIELD
 LOC .                             0870' FEL 1720' FNL:     LOCATION
 SEC .                                              32:     SECTION
 TWP .                                             36N:     TOWNSHIP
 RANG.                                             30E:     RANGE
 CNTY.                                          Apache:     COUNTY
 STAT.                                         Arizona:     STATE
 CTRY.                                             USA:     COUNTRY
 SRVC.                                    Schlumberger:     SERVICE COMPANY
 DATE.                                                :     DATE
 API .                                    02-001-20009:     API NUMBER
 UWI .                                    02-001-20009:     UWI NUMBER
 TVD .                                              NO:     TVD flag
 WSTA.                                             OIL:     Well status
#
~Curve Information Block
#MNEM.UNIT       API CODE      Curve Description
#----------    -------------   -------------------
 DEPT.FT                   :   Depth in Feet
 SP  .MV       05 010 01 01:   Spontaneous Potential
 ILD .OHMM     05 120 46 01:   Deep Induction Standard Processed Resistivity
 SN  .OHMM     05 040 16 01:   Short Normal
 CILD.MMHO     05 110 46 01:   Deep Induction Standard Processed Conductivity
#
~Parameter Information Block
#MNEM.UNIT            Value               Description
#----------    --------------------    -------------------
 DATE.                    5/9/2012:    Date As Month-Day-Year
 RUN .                         ONE:    Run Number
 PDAT.                          GL:    Permanent Datum
 EPD .FT                 7361.0000:    Elevation Of Perm. Datum
 LMF .                          KB:    Log Measured From
 FAPD.FT                   13.0000:    Feet Above Perm. Datum
 DMF .                          KB:    Drilling Measured From
 EKB .FT                 7374.0000:    Elevation Of Kelly Bushing
 EDF .FT                 7373.0000:    Elevation Of Derrick Floor
 EGL .FT                 7361.0000:    Elevation Of Ground Level
 TD  .FT                 2898.0000:    Total Depth
 DF  .                     Hermosa:    
 PROJ.                       Rmccs:    
 DD  .FT                 2898.0000:    Depth Driller
 DL  .FT                 2899.0000:    Depth Logger
 BLI .FT                 2898.0000:    Bottom Log Interval
 TLI .FT                  264.0000:    Top Log Interval
 CSIZ.IN                     9 5/8:    Casing Size
 CBD1.                         263:    Casing Bottom (Driller) 1
 CBL1.                         264:    Casing Bottom (Logger) 1
 BS  .IN                     8 3/4:    Bit Size
 DFT .                    GEL-CHEM:    Drilling Fluid Type
 DFV .S                    60.0000:    Drilling Fluid Viscosity
 DFD .LB/G                  8.9000:    Drilling Fluid Density
 DFL .ML                    3.0000:    Drilling Fluid Loss
 DFPH.                      9.0000:    Drilling Fluid Ph
 MSS .                   FLOW LINE:    Mud Sample Source
 RMS .OHMM                  5.1400:    Resistivity Of Mud Sample
 MST .DEGF                 90.0000:    Mud Sample Temperature
 RMF .OHMM                  3.1000:    Mud Filtrate Resistivity
 MFST.DEGF                 70.0000:    Mud Filtrate Sample Temperature
 MFSS.                        CALC:    Mud Filtrate Sample Source
 RMC .OHMM                  0.0000:    Mud Cake Resistivity
 MCST.DEGF                  0.0000:    Mud Cake Sample Temperature
 MCSS.                        CALC:    Mud Cake Sample Source
 RMB .OHMM                  4.6200:    Mud Resistivity At Bht
 BHT .DEGF                 99.0000:    Bottom Hole Temperature
 TCS .                        2 hr:    Time Circulation Stopped
 MRT .DEGF                 99.0000:    Maximum Recorded Temperature
 LUN .                        3860:    Logging Unit Number
 LUL .                        FARM:    Logging Unit Location
 ENGI.                      Brooks:    Engineer'S Name
 WITN.             Mr. Hassenfratz:    Witness' Name
 DGBY.                         slr:    
 WSTA.                         OIL:    
#
~Other Information Block
<DescLogPlotStart>   NEURALOG PLOT DEFINITION
PLOTDEFVERSION: 3
LASFILE: C:\nds\projects\Rmccs\las\0384IEL.las
DEPTHSCALE: 600.000013
RESOLUTION: 200
DEPTHLABELFREQ: 100.000000
HEAVYGRIDFREQ: 50.000000
MEDIUMGRIDFREQ: 50.000000
LIGHTGRIDFREQ: 10.000000
#
#   TRACK 1
#
STARTTRACK: 
 LEFTX: 0.500000 inch
 RIGHTX: 3.000000 inch
 SCALETYPE: Linear
 NUMCHARTDIVISIONS: 10
CURVE: SP    0.000000   100.000000 (255,131,0)    Solid             2     Y    
BACKUP: 0.000000   200.000000 (255,131,0)    Solid             2    
BACKUP: -100.000000 0.000000   (255,131,0)    Solid             2    
ENDTRACK: 
#
#   TRACK 2
#
STARTTRACK: 
 LEFTX: 3.750000 inch
 RIGHTX: 6.250000 inch
 SCALETYPE: Linear
 NUMCHARTDIVISIONS: 10
CURVE: ILD   0.000000   100.000000 (0,0,156)      Solid             2     Y    
BACKUP: 0.000000   1000.000000 (0,0,156)      Solid             2    
BACKUP: -100.000000 0.000000   (0,0,156)      Solid             2    
CURVE: SN    0.000000   100.000000 (255,0,0)      Solid             2     Y    
BACKUP: 0.000000   1000.000000 (255,0,0)      Solid             2    
BACKUP: -100.000000 0.000000   (255,0,0)      Solid             2    
ENDTRACK: 
#
#   TRACK 3
#
STARTTRACK: 
 LEFTX: 6.250000 inch
 RIGHTX: 8.750000 inch
 SCALETYPE: Linear
 NUMCHARTDIVISIONS: 10
CURVE: CILD  400.000000 0.000000   (0,131,0)      Solid             2     N    
ENDTRACK: 
<DescLogPlotEnd>
<DescLog>Induction Electrical
<DescOSVS>BHC/GR
<DescOSVS>CBL
<DescOSVS>FDC/GR
~A DEPTH     SP               ILD              SN               CILD            
     250.000 -999.25000000    -999.25000000    -999.25000000    -999.25000000   
     250.500 -999.25000000    -999.25000000    -999.25000000    -999.25000000   
     251.000 -999.25000000    -999.25000000    -999.25000000    -999.25000000   
     251.500 -999.25000000    -999.25000000    -999.25000000    -999.25000000   
     252.000 -999.25000000    -999.25000000    -999.25000000    -999.25000000   
     252.500 -999.25000000    -999.25000000    -999.25000000    -999.25000000   
     253.000 -999.25000000    -999.25000000    -999.25000000    -999.25000000   
     253.500 -999.25000000    -999.25000000    -999.25000000    -999.25000000   
     254.000 -999.25000000    -999.25000000    -999.25000000    -999.25000000   
     254.500 -999.25000000    -999.25000000    -999.25000000    -999.25000000   
     255.000 -999.25000000    -999.25000000    -999.25000000    -999.25000000   
     255.500 -999.25000000    -999.25000000    -999.25000000    -999.25000000   
     256.000 -999.25000000    -999.25000000    -999.25000000    -999.25000000   
     256.500 -999.25000000    -999.25000000    -999.25000000    -999.25000000   
     257.000 -999.25000000    -999.25000000    -999.25000000    -999.25000000   
     257.500 -999.25000000    -999.25000000    -999.25000000    -999.25000000   
     258.000 -999.25000000    -999.25000000    -999.25000000    -999.25000000   
     258.500 -999.25000000    -999.25000000    -999.25000000    -999.25000000   
     259.000 -999.25000000    -999.25000000    -999.25000000    -999.25000000   
     259.500 -999.25000000    -999.25000000    -999.25000000    -999.25000000   
     260.000 -999.25000000    -999.25000000    -999.25000000    -999.25000000   
     260.500 87.90000000      -999.25000000    -999.25000000    -999.25000000   
     261.000 88.10000000      -999.25000000    -999.25000000    -999.25000000   
     261.500 83.70000000      -999.25000000    -999.25000000    -999.25000000   
     262.000 83.50000000      -999.25000000    -999.25000000    -999.25000000   
     262.500 82.90000000      -999.25000000    -999.25000000    -999.25000000   
     263.000 82.50000000      -999.25000000    -999.25000000    -999.25000000   
     263.500 82.10000000      -999.25000000    -999.25000000    -999.25000000   
     264.000 82.37889966      -999.25000000    -999.25000000    -999.25000000   
     264.500 80.68517871      -999.25000000    -999.25000000    -999.25000000   
     265.000 60.06871619      -999.25000000    -999.25000000    -999.25000000   
     265.500 36.62072032      -999.25000000    -999.25000000    -999.25000000   
     266.000 19.55236050      -999.25000000    2.70541082       -999.25000000   
     266.500 18.56535127      -999.25000000    3.90781563       -999.25000000   
     267.000 19.15155715      -999.25000000    5.31062124       -999.25000000   
     267.500 21.12606058      -999.25000000    5.91182365       -999.25000000   
     268.000 28.77060286      -999.25000000    6.31262525       -999.25000000   
     268.500 43.70822906      -999.25000000    6.51302605       -999.25000000   
     269.000 58.67555964      12.16967268      6.51302605       -999.25000000   
     269.500 74.48749690      10.32064128      6.66234684       -999.25000000   
     270.000 75.13978748      12.46459586      6.73870167       -999.25000000   
     270.500 75.40436118      15.77054108      6.69247442       -999.25000000   
     271.000 75.46976978      20.14028056      6.77498992       -999.25000000   
     271.500 75.51844405      17.59089608      6.91202677       -999.25000000   
     272.000 75.55537259      13.83194961      7.06000558       -999.25000000   
     272.500 75.51756597      11.97596547      7.12813297       -999.25000000   
     273.000 75.54023945      8.25625505       7.13752264       -999.25000000   
     273.500 75.88593791      6.55877111       7.36871515       -999.25000000   
     274.000 75.86485146      5.94582402       7.08228161       170.82917083    
     274.500 76.35648065      5.63251477       7.01402818       197.20279720    
     275.000 76.50464939      5.90506386       7.62059214       195.85414585    
     275.500 76.21990070      6.49981650       7.00578177       175.22477522    
     276.000 76.07889743      6.95247121       7.12459871       154.84515485    
     276.500 75.68854780      7.50028454       7.71894779       149.25074925    
     277.000 75.44807013      7.50604399       7.69898725       150.84915085    
     277.500 75.23610698      7.53128947       7.73289808       152.36088997    
     278.000 75.12846809      7.36966903       7.56837854       154.35639978    
     278.500 75.35873402      7.29603747       7.48809798       155.53859384    
     279.000 75.54551802      7.46586025       7.67576888       155.54337972    
     279.500 75.85207764      7.54263100       7.71568862       155.97328844    
     280.000 76.04552186      7.36784441       7.71993171       156.81520559    
     280.500 75.97469700      6.97434852       7.50894446       161.43385911    
     281.000 75.85366985      6.53630115       7.47937798       166.84227144    
     281.500 75.54823255      6.14355901       7.94926625       172.82717283    
     282.000 75.36261322      5.94180809       7.88343509       178.42157842    
     282.500 75.00880434      5.91139671       8.03922110       179.22077922    
     283.000 74.72718978      6.39263783       8.29596033       172.82717283    
     283.500 74.70719790      6.66710181       8.56061580       160.03996004    
     284.000 74.66231228      8.76260720       9.00014991       140.85914086    
     284.500 74.34713703      9.83699155       10.14751189      121.27872128    
     285.000 74.10498989      12.74288762      11.91982028      103.29670330    
     285.500 73.10051930      17.38912000      14.75351744      85.71428571     
     286.000 71.96721373      21.53722466      20.28073687      66.93306693     
     286.500 71.34030787      24.62898010      28.00916466      50.14985015     
     287.000 71.03306812      28.67030392      29.01344011      38.16183816     
     287.500 71.45172175      34.09409288      27.48730792      32.56743257     
     288.000 71.87419815      35.27755451      25.49600155      30.16983017     
     288.500 71.93651128      34.34641187      24.37116868      29.77022977     
     289.000 72.01387740      32.07624218      24.66168678      30.91293259     
     289.500 71.58550602      31.56928046      25.89827915      32.10487670     
     290.000 71.02559831      31.59705309      31.03547928      32.51402394     
     290.500 70.81935641      32.19236272      34.98546386      32.95529863     
     291.000 70.54032244      32.64102337      35.34401391      33.34371431     
     291.500 70.35057614      32.54706542      34.64007249      34.54381435     
     292.000 70.27793668      32.45446141      33.52345369      37.33759292     
     292.500 70.34614770      30.85682246      32.95028152      42.53348686     
     293.000 70.52556192      25.49174960      27.62424812      50.93948368     
     293.500 70.43883660      16.67992900      23.74087526      60.55535056     
     294.000 70.30215850      14.46056172      23.39908255      73.78101745     
     294.500 70.25609710      13.33062487      21.16193598      84.20438310     
     295.000 70.08290163      11.82950442      19.48840788      91.36458188     
     295.500 70.11177338      12.26381403      17.90363277      90.23491631     
     296.000 70.09178520      12.43322325      17.51155433      85.84955811     
     296.500 70.11410285      13.00874174      17.79261901      80.66448287     
     297.000 69.95623428      14.05802002      18.17970358      77.47310505     
     297.500 69.85202977      14.16525414      19.27056399      73.45939178     
     298.000 69.64485542      18.56405778      20.36800006      67.00974624     
     298.500 69.46472510      23.04945617      23.44227610      57.34219777     
     299.000 69.09597587      30.20678479      26.58941573      44.47455856     
