~Version Information Block
 VERS.                2.00:     CWLS LOG ASCII STANDARD - VERSION 2.000000
 WRAP.                  NO:     One Line Per Depth Step
#
~Well Information Block
#MNEM.UNIT                     Data                         Information
#----------   ------------------------------------------   ----------------
 STRT.FT                                       50.0000:     START DEPTH
 STOP.FT                                     2900.0000:     STOP DEPTH
 STEP.FT                                        0.5000:     STEP
 NULL.                                       -999.2500:     NULL VALUE
 COMP.                          Kerr-McGee Corporation:     COMPANY
 WELL.                                       Navajo #4:     WELL
 FLD .                                  Dineh-bi-Keyah:     FIELD
 LOC .                            870' FEL & 1720' FNL:     LOCATION
 SEC .                                              32:     SECTION
 TWP .                                             36N:     TOWNSHIP
 RANG.                                             30E:     RANGE
 CNTY.                                          Apache:     COUNTY
 STAT.                                         Arizona:     STATE
 CTRY.                                          U.S.A.:     COUNTRY
 SRVC.                                    Schlumberger:     SERVICE COMPANY
 DATE.                                      05/23/2012:     DATE
 API .                                    02-001-20009:     API NUMBER
 UWI .                                    02-001-20009:     UWI NUMBER
 TVD .                                              NO:     TVD flag
 WSTA.                                             OIL:     Well status
#
~Curve Information Block
#MNEM.UNIT       API CODE      Curve Description
#----------    -------------   -------------------
 DEPT.FT                   :   Depth in Feet
 GR  .GAPI     35 310 01 01:   Gamma Ray
 CALI.IN       70 280 01 01:   Caliper
 DT  .US/F     60 520 08 01:   Delta-T
 BIT .IN                   :   Bit size
#
~Parameter Information Block
#MNEM.UNIT            Value               Description
#----------    --------------------    -------------------
 DATE.                   5/23/2012:    Date As Month-Day-Year
 RUN .                         ONE:    Run Number
 PDAT.                          GL:    Permanent Datum
 EPD .FT                 7361.0000:    Elevation Of Perm. Datum
 LMF .                          KB:    Log Measured From
 FAPD.FT                   13.0000:    Feet Above Perm. Datum
 DMF .                          KB:    Drilling Measured From
 EKB .FT                 7374.0000:    Elevation Of Kelly Bushing
 EDF .FT                 7361.0000:    Elevation Of Derrick Floor
 EGL .FT                 7361.0000:    Elevation Of Ground Level
 TD  .FT                 2900.0000:    Total Depth
 DF  .         Pennsylvanian Hermo:    
 PROJ.                       Rmccs:    
 DD  .FT                 2898.0000:    Depth Driller
 DL  .FT                 2898.0000:    Depth Logger
 BLI .FT                 2896.0000:    Bottom Log Interval
 TLI .FT                    0.0000:    Top Log Interval
 CSIZ.IN                     9 5/8:    Casing Size
 CBD1.                         263:    Casing Bottom (Driller) 1
 CBL1.                         263:    Casing Bottom (Logger) 1
 BS  .IN                     8 3/4:    Bit Size
 DFT .                    GEL CHEM:    Drilling Fluid Type
 DFV .S                    60.0000:    Drilling Fluid Viscosity
 DFD .LB/G                  8.9000:    Drilling Fluid Density
 DFL .ML                    3.0000:    Drilling Fluid Loss
 DFPH.                      9.0000:    Drilling Fluid Ph
 MSS .                   Flow line:    Mud Sample Source
 RMS .OHMM                  5.1400:    Resistivity Of Mud Sample
 MST .DEGF                 90.0000:    Mud Sample Temperature
 RMF .OHMM                  3.1000:    Mud Filtrate Resistivity
 MFST.DEGF                 70.0000:    Mud Filtrate Sample Temperature
 MFSS.                        MEAS:    Mud Filtrate Sample Source
 RMB .OHMM                  4.6200:    Mud Resistivity At Bht
 BHT .DEGF                 99.0000:    Bottom Hole Temperature
 TCS .                 5 1/2 hours:    Time Circulation Stopped
 MRT .DEGF                 99.0000:    Maximum Recorded Temperature
 LUN .                        3860:    Logging Unit Number
 LUL .                  Farmington:    Logging Unit Location
 ENGI.                      Brooks:    Engineer'S Name
 WITN.                 Hassenfratz:    Witness' Name
 DGBY.                         slr:    
 WSTA.                         OIL:    
#
~Other Information Block
<DescLogPlotStart>   NEURALOG PLOT DEFINITION
PLOTDEFVERSION: 3
LASFILE: C:\nds\projects\Rmccs\las\0384BHCS_2.las
DEPTHSCALE: 600.000013
RESOLUTION: 200
DEPTHLABELFREQ: 100.000000
HEAVYGRIDFREQ: 50.000000
MEDIUMGRIDFREQ: 50.000000
LIGHTGRIDFREQ: 50.000000
#
#   TRACK 1
#
STARTTRACK: 
 LEFTX: 0.500000 inch
 RIGHTX: 3.000000 inch
 SCALETYPE: Linear
 NUMCHARTDIVISIONS: 10
CURVE: GR    0.000000   160.000000 (0,0,255)      Solid             2     N    
CURVE: CALI  6.000000   16.000000  (0,131,131)    Dot               2     N    
CURVE: BIT   6.000000   16.000000  (255,0,255)    Short_Dash        2     N    
ENDTRACK: 
#
#   TRACK 2
#
STARTTRACK: 
 LEFTX: 3.500000 inch
 RIGHTX: 8.500000 inch
 SCALETYPE: Linear
 NUMCHARTDIVISIONS: 21
CURVE: DT    100.000000 40.000000  (255,0,0)      Solid             2     Y    
BACKUP: 160.000000 100.000000 (255,131,0)    Solid             2    
ENDTRACK: 
<DescLogPlotEnd>
<DescLog>Borehole Compensated Sonic
<DescOSVS>IES, CBL
<DescOSVS>FDC/GR
<DescOSVS>
IAP failed to step between 0932' and 0892'
~A DEPTH     GR               CALI             DT               BIT             
# ...
    2178.500 61.18221966      13.62923457      87.65936255      8.74991127      
    2179.000 60.91478460      13.34293697      87.30079681      8.74990753      
    2179.500 60.54667341      12.59061216      80.90637450      8.74990378      
    2180.000 60.05914258      11.95791058      80.66733068      8.74990004      
    2180.500 58.67184079      11.74324943      79.17330677      8.74989629      
    2181.000 57.58436560      11.42433645      74.65332954      8.74989255      
    2181.500 55.36857734      11.11554002      68.08500285      8.74988880      
    2182.000 46.78344336      10.72654740      61.51667615      8.74988506      
    2182.500 38.87138410      10.57310034      56.40438247      8.74988131      
    2183.000 36.15343776      10.58466971      53.59561753      8.74987756      
    2183.500 36.74079677      10.58185060      54.18994024      8.74987382      
    2184.000 39.01168549      10.58019584      56.16533865      8.74987007      
    2184.500 41.63407819      10.58343494      57.18127490      8.74986633      
    2185.000 44.13390415      10.60250691      57.48007968      8.74986258      
    2185.500 46.69098095      10.59786853      57.99492032      8.74985884      
    2186.000 49.42198484      10.61644249      60.28884462      8.74985509      
    2186.500 51.29835092      10.62069530      60.76693227      8.74985134      
    2187.000 53.27688836      10.63419429      61.00597610      8.74984760      
    2187.500 53.43932396      10.65596943      61.66334661      8.74984385      
    2188.000 53.29394393      10.67528702      62.32071713      8.74984011      
    2188.500 53.28819471      10.68516286      62.67928287      8.74983636      
    2189.000 55.61351172      10.71582335      63.21713147      8.74983262      
    2189.500 57.43554742      10.73643762      64.53349459      8.74982887      
    2190.000 57.97649333      10.79406742      66.90779738      8.74982513      
    2190.500 61.91444863      10.89335314      69.28210017      8.74982138      
    2191.000 60.92453521      10.94489522      71.70318725      8.74981763      
    2191.500 59.81868859      11.04506605      73.64561753      8.74981389      
    2192.000 61.10984980      11.04925323      75.62709163      8.74981014      
    2192.500 62.44812083      11.02898219      77.55976096      8.74980640      
    2193.000 60.68169228      11.09521075      77.55976096      8.74980265      
    2193.500 55.91991411      11.08052654      73.06235060      8.74979891      
    2194.000 51.68382990      10.98717387      68.73545817      8.74979516      
    2194.500 47.16043139      10.88652723      64.40856574      8.74979141      
    2195.000 43.31711786      10.85522939      58.37649402      8.74978767      
    2195.500 42.72396080      10.86700095      58.76240040      8.74978392      
    2196.000 44.56124056      10.87916888      59.35994666      8.74978018      
    2196.500 46.25114837      10.88437823      59.60890449      8.74977643      
    2197.000 47.89808815      10.90384803      59.80290370      8.74977269      
    2197.500 49.98917009      10.94938457      60.10966980      8.74976894      
    2198.000 51.94255971      10.96560548      61.42303482      8.74976520      
    2198.500 53.57550380      10.98376735      62.66928880      8.74976145      
    2199.000 53.28741892      11.01275734      64.21194337      8.74975770      
    2199.500 52.52737168      11.03930962      65.75648260      8.74975396      
    2200.000 52.08259264      11.12789987      67.31920388      8.74975021      
    2200.500 51.56779283      11.20720310      68.86623121      8.74974647      
    2201.000 51.10384506      11.28418398      69.31274900      8.74974272      
    2201.500 52.24412210      11.48830490      69.52191235      8.74973898      
    2202.000 54.11380435      11.84323800      70.51650541      8.74973523      
    2202.500 55.93266995      12.25465855      72.94109277      8.74973148      
    2203.000 56.45498464      13.02222448      75.36568014      8.74972774      
    2203.500 55.38333433      13.55542254      77.79026750      8.74972399      
    2204.000 54.42741684      13.40926778      78.81474104      8.74972025      
    2204.500 53.55831336      12.87444109      77.26095618      8.74971650      
    2205.000 52.46262731      12.15821285      76.57370518      8.74971276      
    2205.500 51.67275323      11.73223922      73.72758964      8.74970901      
    2206.000 51.28393914      11.55144198      70.53037849      8.74970527      
    2206.500 47.66439627      11.88324336      69.64143426      8.74970152      
    2207.000 49.13426982      12.73963266      72.11030876      8.74969777      
    2207.500 52.96733328      13.75737007      75.44198207      8.74969403      
    2208.000 55.72125607      14.03092693      78.77365538      8.74969028      
    2208.500 58.79142205      12.63016480      82.10532869      8.74968654      
    2209.000 61.62454136      12.18157290      83.29681275      8.74968279      
    2209.500 62.59307920      12.21104216      84.31274900      8.74967905      
    2210.000 62.01709094      11.90815686      83.95418327      8.74967530      
    2210.500 60.55445108      11.45183404      82.63944223      8.74967155      
    2211.000 58.99231657      10.99223013      81.09229748      8.74966781      
    2211.500 56.62253478      10.65354621      75.87622217      8.74966406      
    2212.000 53.90569054      10.60816773      70.63164092      8.74966032      
    2212.500 51.15973079      10.57232169      65.38691084      8.74965657      
    2213.000 48.57221125      10.53063867      60.14378925      8.74965283      
    2213.500 45.09357665      10.48275032      58.47180971      8.74964908      
    2214.000 42.11977202      10.45202478      58.05247445      8.74964534      
    2214.500 39.99379392      10.42110974      57.72455197      8.74964159      
    2215.000 38.40656090      10.35254237      56.95049142      8.74963784      
    2215.500 37.21125229      10.34840953      56.74708554      8.74963410      
    2216.000 35.31600051      10.36384028      56.78199185      8.74963035      
    2216.500 34.10420638      10.35804168      56.96540398      8.74962661      
    2217.000 34.49286549      10.34363450      57.11896816      8.74962286      
    2217.500 36.01538461      10.34057949      57.32886575      8.74961912      
    2218.000 37.81916931      10.34142435      57.38918763      8.74961537      
    2218.500 38.58979615      10.34129446      57.53919877      8.74961163      
    2219.000 39.21354132      10.34097518      57.77864618      8.74960788      
    2219.500 41.77300082      10.34328045      58.10728901      8.74960413      
    2220.000 44.59249610      10.35693596      58.40597784      8.74960039      
    2220.500 46.18704089      10.34864558      58.61478368      8.74959664      
    2221.000 46.64382844      10.34152923      58.31525693      8.74959290      
    2221.500 49.96399466      10.34100446      58.16600654      8.74958915      
    2222.000 52.09857977      10.34180009      58.01670896      8.74958541      
    2222.500 51.25711828      10.34001947      58.16449621      8.74958166      
    2223.000 49.28278747      10.35107601      58.85458167      8.74957791      
    2223.500 44.45582509      10.36399416      59.33266932      8.74957417      
    2224.000 43.53549512      10.38071117      59.57171315      8.74957042      
    2224.500 43.64854933      10.39973724      59.78087649      8.74956668      
    2225.000 45.28877778      10.40302845      59.48207171      8.74956293      
    2225.500 47.77790372      10.41937705      58.91434263      8.74955919      
    2226.000 50.12605383      10.42149759      59.99003984      8.74955544      
    2226.500 52.49944768      10.42099177      61.72310757      8.74955170      
    2227.000 54.96857232      10.42132138      63.61325691      8.74954795      
    2227.500 56.63652519      10.42082446      65.52462592      8.74954420      
