~Version Information Block
 VERS.                2.00:     CWLS LOG ASCII STANDARD - VERSION 2.000000
 WRAP.                  NO:     One Line Per Depth Step
#
~Well Information Block
#MNEM.UNIT                     Data                         Information
#----------   ------------------------------------------   ----------------
 STRT.FT                                       50.0000:     START DEPTH
 STOP.FT                                     2900.0000:     STOP DEPTH
 STEP.FT                                        0.5000:     STEP
 NULL.                                       -999.2500:     NULL VALUE
 COMP.                          Kerr-McGee Corporation:     COMPANY
 WELL.                                       Navajo #4:     WELL
 FLD .                                  Dineh-bi-Keyah:     FIELD
 LOC .                            870' FEL & 1720' FNL:     LOCATION
 SEC .                                              32:     SECTION
 TWP .                                             36N:     TOWNSHIP
 RANG.                                             30E:     RANGE
 CNTY.                                          Apache:     COUNTY
 STAT.                                         Arizona:     STATE
 CTRY.                                          U.S.A.:     COUNTRY
 SRVC.                                    Schlumberger:     SERVICE COMPANY
 DATE.                                      05/23/2012:     DATE
 API .                                    02-001-20009:     API NUMBER
 UWI .                                    02-001-20009:     UWI NUMBER
 TVD .                                              NO:     TVD flag
 WSTA.                                             OIL:     Well status
#
~Curve Information Block
#MNEM.UNIT       API CODE      Curve Description
#----------    -------------   -------------------
 DEPT.FT                   :   Depth in Feet
 GR  .GAPI     35 310 01 01:   Gamma Ray
 CALI.IN       70 280 01 01:   Caliper
 DT  .US/F     60 520 08 01:   Delta-T
 BIT .IN                   :   Bit size
#
~Parameter Information Block
#MNEM.UNIT            Value               Description
#----------    --------------------    -------------------
 DATE.                   5/23/2012:    Date As Month-Day-Year
 RUN .                         ONE:    Run Number
 PDAT.                          GL:    Permanent Datum
 EPD .FT                 7361.0000:    Elevation Of Perm. Datum
 LMF .                          KB:    Log Measured From
 FAPD.FT                   13.0000:    Feet Above Perm. Datum
 DMF .                          KB:    Drilling Measured From
 EKB .FT                 7374.0000:    Elevation Of Kelly Bushing
 EDF .FT                 7361.0000:    Elevation Of Derrick Floor
 EGL .FT                 7361.0000:    Elevation Of Ground Level
 TD  .FT                 2900.0000:    Total Depth
 DF  .         Pennsylvanian Hermo:    
 PROJ.                       Rmccs:    
 DD  .FT                 2898.0000:    Depth Driller
 DL  .FT                 2898.0000:    Depth Logger
 BLI .FT                 2896.0000:    Bottom Log Interval
 TLI .FT                    0.0000:    Top Log Interval
 CSIZ.IN                     9 5/8:    Casing Size
 CBD1.                         263:    Casing Bottom (Driller) 1
 CBL1.                         263:    Casing Bottom (Logger) 1
 BS  .IN                     8 3/4:    Bit Size
 DFT .                    GEL CHEM:    Drilling Fluid Type
 DFV .S                    60.0000:    Drilling Fluid Viscosity
 DFD .LB/G                  8.9000:    Drilling Fluid Density
 DFL .ML                    3.0000:    Drilling Fluid Loss
 DFPH.                      9.0000:    Drilling Fluid Ph
 MSS .                   Flow line:    Mud Sample Source
 RMS .OHMM                  5.1400:    Resistivity Of Mud Sample
 MST .DEGF                 90.0000:    Mud Sample Temperature
 RMF .OHMM                  3.1000:    Mud Filtrate Resistivity
 MFST.DEGF                 70.0000:    Mud Filtrate Sample Temperature
 MFSS.                        MEAS:    Mud Filtrate Sample Source
 RMB .OHMM                  4.6200:    Mud Resistivity At Bht
 BHT .DEGF                 99.0000:    Bottom Hole Temperature
 TCS .                 5 1/2 hours:    Time Circulation Stopped
 MRT .DEGF                 99.0000:    Maximum Recorded Temperature
 LUN .                        3860:    Logging Unit Number
 LUL .                  Farmington:    Logging Unit Location
 ENGI.                      Brooks:    Engineer'S Name
 WITN.                 Hassenfratz:    Witness' Name
 DGBY.                         slr:    
 WSTA.                         OIL:    
#
~Other Information Block
<DescLogPlotStart>   NEURALOG PLOT DEFINITION
PLOTDEFVERSION: 3
LASFILE: C:\nds\projects\Rmccs\las\0384BHCS_2.las
DEPTHSCALE: 600.000013
RESOLUTION: 200
DEPTHLABELFREQ: 100.000000
HEAVYGRIDFREQ: 50.000000
MEDIUMGRIDFREQ: 50.000000
LIGHTGRIDFREQ: 50.000000
#
#   TRACK 1
#
STARTTRACK: 
 LEFTX: 0.500000 inch
 RIGHTX: 3.000000 inch
 SCALETYPE: Linear
 NUMCHARTDIVISIONS: 10
CURVE: GR    0.000000   160.000000 (0,0,255)      Solid             2     N    
CURVE: CALI  6.000000   16.000000  (0,131,131)    Dot               2     N    
CURVE: BIT   6.000000   16.000000  (255,0,255)    Short_Dash        2     N    
ENDTRACK: 
#
#   TRACK 2
#
STARTTRACK: 
 LEFTX: 3.500000 inch
 RIGHTX: 8.500000 inch
 SCALETYPE: Linear
 NUMCHARTDIVISIONS: 21
CURVE: DT    100.000000 40.000000  (255,0,0)      Solid             2     Y    
BACKUP: 160.000000 100.000000 (255,131,0)    Solid             2    
ENDTRACK: 
<DescLogPlotEnd>
<DescLog>Borehole Compensated Sonic
<DescOSVS>IES, CBL
<DescOSVS>FDC/GR
<DescOSVS>
IAP failed to step between 0932' and 0892'
~A DEPTH     GR               CALI             DT               BIT             
# ...
    2327.000 44.18199593      9.46305284       59.99003984      8.74879883      
    2327.500 45.75776103      9.46280476       59.67111793      8.74879508      
    2328.000 48.19541398      9.46287957       59.33025754      8.74879133      
    2328.500 52.33321131      9.46291420       59.03341351      8.74878759      
    2329.000 54.25197489      9.46306865       58.85611415      8.74878384      
    2329.500 52.85419256      9.46291482       58.91582423      8.74878010      
    2330.000 48.82919089      9.46325306       59.09565055      8.74877635      
    2330.500 45.27347402      9.46255586       59.36828838      8.74877261      
    2331.000 44.50626719      9.46377754       59.69767160      8.74876886      
    2331.500 45.11640567      9.46142041       60.04980080      8.74876511      
    2332.000 45.55194333      9.47838277       60.58764940      8.74876137      
    2332.500 45.25591141      9.48338689       61.00597610      8.74875762      
    2333.000 44.42482531      9.49629120       61.00597610      8.74875388      
    2333.500 43.13344815      9.50890265       60.76693227      8.74875013      
    2334.000 42.85716497      9.52695779       60.22908367      8.74874639      
    2334.500 44.09796696      9.54910021       59.93027888      8.74874264      
    2335.000 46.55611789      9.56311791       60.34860558      8.74873890      
    2335.500 48.51411445      9.57577471       60.64741036      8.74873515      
    2336.000 50.36623059      9.58986790       60.76693227      8.74873140      
    2336.500 51.13129159      9.60187211       61.00597610      8.74872766      
    2337.000 51.14014949      9.61998074       61.06573705      8.74872391      
    2337.500 52.24219819      9.65998537       60.82669323      8.74872017      
    2338.000 54.05899321      9.69689081       61.42430279      8.74871642      
    2338.500 54.38948814      9.72195316       62.14143426      8.74871268      
    2339.000 52.54211876      9.74975917       63.09760956      8.74870893      
    2339.500 49.24443311      9.76363256       63.27689243      8.74870518      
    2340.000 47.59643529      9.78452135       63.09760956      8.74870144      
    2340.500 47.79188253      9.81239812       63.30557769      8.74869769      
    2341.000 47.53800752      9.83948805       63.81474104      8.74869395      
    2341.500 47.03100994      9.85467754       65.42828685      8.74869020      
    2342.000 45.91988641      9.90671694       67.10159363      8.74868646      
    2342.500 44.91520603      9.94073680       65.77788845      8.74868271      
    2343.000 44.03085181      9.94339296       63.33665339      8.74867897      
    2343.500 43.48048206      9.98734216       61.18525896      8.74867522      
    2344.000 45.43210486      10.03972110      61.48406375      8.74867147      
    2344.500 47.66784854      10.04197764      62.44023904      8.74866773      
    2345.000 49.97891367      10.04338795      64.95019920      8.74866398      
    2345.500 52.20900698      10.09695545      66.98207171      8.74866024      
    2346.000 55.88127317      10.13986876      63.51593625      8.74865649      
    2346.500 57.00117713      10.18662195      63.45617530      8.74865275      
    2347.000 62.12303460      10.22689563      68.04819700      8.74864900      
    2347.500 75.47587638      10.26485485      72.77622049      8.74864525      
    2348.000 76.22858382      10.36652457      77.23694712      8.74864151      
    2348.500 79.71464328      10.45583163      80.59663139      8.74863776      
    2349.000 78.64517826      10.41484277      78.50746554      8.74863402      
    2349.500 74.42974467      10.70070091      78.47991193      8.74863027      
    2350.000 71.76388418      11.72418828      85.28886844      8.74862653      
    2350.500 71.24005902      12.08957545      93.23700625      8.74862278      
    2351.000 72.57101226      11.72188994      94.17330677      8.74861904      
    2351.500 73.87911291      11.46687174      93.61902390      8.74861529      
    2352.000 76.32244332      11.46249033      91.12549801      8.74861154      
    2352.500 78.12752791      11.29938890      91.00597610      8.74860780      
    2353.000 78.70914905      11.11450181      91.54382470      8.74860405      
    2353.500 79.65926061      10.93774026      90.28884462      8.74860031      
    2354.000 79.89828972      10.86872679      87.88047809      8.74859656      
    2354.500 77.49240288      10.82007022      83.71513944      8.74859282      
    2355.000 75.37562492      10.79336383      87.48007968      8.74858907      
    2355.500 77.91397751      10.76233200      87.48007968      8.74858532      
    2356.000 80.17071903      10.71803464      84.85059761      8.74858158      
    2356.500 80.59085828      10.69507309      84.25298805      8.74857783      
    2357.000 77.80097956      10.66497380      81.86254980      8.74857409      
    2357.500 73.10310107      10.64650859      73.91434263      8.74857034      
    2358.000 70.71324683      10.63349800      72.83864542      8.74856660      
    2358.500 69.61758057      10.63485394      74.39243028      8.74856285      
    2359.000 67.41941682      10.64231015      73.49601594      8.74855911      
    2359.500 57.45020272      10.64032683      71.03844622      8.74855536      
    2360.000 48.47438201      10.63812011      68.71513944      8.74855161      
    2360.500 40.44283664      10.60096567      66.85099602      8.74854787      
    2361.000 37.53648200      10.56095381      62.92709163      8.74854412      
    2361.500 35.01767494      10.52044961      59.00318725      8.74854038      
    2362.000 35.84725672      10.48405834      56.10557769      8.74853663      
    2362.500 41.25024582      10.48035478      55.68725100      8.74853289      
    2363.000 46.31552770      10.47121238      56.16533865      8.74852914      
    2363.500 51.01471330      10.48036051      58.85458167      8.74852539      
    2364.000 54.96102330      10.48172855      62.26095618      8.74852165      
    2364.500 58.35312601      10.47921534      62.73904382      8.74851790      
    2365.000 61.75384942      10.49660370      63.03784861      8.74851416      
    2365.500 63.75972517      10.50093178      63.39641434      8.74851041      
    2366.000 64.53708139      10.51539772      63.57569721      8.74850667      
    2366.500 64.70615702      10.52257484      63.69521912      8.74850292      
    2367.000 64.31462655      10.52022255      63.99402390      8.74849918      
    2367.500 64.04508474      10.52126938      64.11354582      8.74849543      
    2368.000 63.67985281      10.52089904      63.57569721      8.74849168      
    2368.500 63.43890827      10.52052325      62.91832669      8.74848794      
    2369.000 63.40505992      10.52156871      62.79880478      8.74848419      
    2369.500 63.91194109      10.51916539      62.91832669      8.74848045      
    2370.000 64.13971440      10.52640147      64.08217131      8.74847670      
    2370.500 65.23353508      10.54067755      65.36852590      8.74847296      
    2371.000 67.64863579      10.55502566      66.56374502      8.74846921      
    2371.500 66.61576383      10.56745594      67.57968127      8.74846546      
    2372.000 62.07808210      10.64210800      67.81872510      8.74846172      
    2372.500 56.20471253      10.69370427      67.57968127      8.74845797      
    2373.000 53.39591296      10.71522479      67.22111554      8.74845423      
    2373.500 55.74689101      10.73582628      67.51992032      8.74845048      
    2374.000 57.42774076      10.77918447      68.68316791      8.74844674      
    2374.500 58.42535991      10.73077112      70.02393012      8.74844299      
    2375.000 56.91747575      10.65176799      71.42778255      8.74843925      
    2375.500 53.87858200      10.66038278      70.45983857      8.74843550      
    2376.000 50.69718747      10.70022896      68.88936291      8.74843175      
