~Version Information Block
 VERS.                2.00:     CWLS LOG ASCII STANDARD - VERSION 2.000000
 WRAP.                  NO:     One Line Per Depth Step
#
~Well Information Block
#MNEM.UNIT                     Data                         Information
#----------   ------------------------------------------   ----------------
 STRT.FT                                       50.0000:     START DEPTH
 STOP.FT                                     2900.0000:     STOP DEPTH
 STEP.FT                                        0.5000:     STEP
 NULL.                                       -999.2500:     NULL VALUE
 COMP.                          Kerr-McGee Corporation:     COMPANY
 WELL.                                       Navajo #4:     WELL
 FLD .                                  Dineh-bi-Keyah:     FIELD
 LOC .                            870' FEL & 1720' FNL:     LOCATION
 SEC .                                              32:     SECTION
 TWP .                                             36N:     TOWNSHIP
 RANG.                                             30E:     RANGE
 CNTY.                                          Apache:     COUNTY
 STAT.                                         Arizona:     STATE
 CTRY.                                          U.S.A.:     COUNTRY
 SRVC.                                    Schlumberger:     SERVICE COMPANY
 DATE.                                      05/23/2012:     DATE
 API .                                    02-001-20009:     API NUMBER
 UWI .                                    02-001-20009:     UWI NUMBER
 TVD .                                              NO:     TVD flag
 WSTA.                                             OIL:     Well status
#
~Curve Information Block
#MNEM.UNIT       API CODE      Curve Description
#----------    -------------   -------------------
 DEPT.FT                   :   Depth in Feet
 GR  .GAPI     35 310 01 01:   Gamma Ray
 CALI.IN       70 280 01 01:   Caliper
 DT  .US/F     60 520 08 01:   Delta-T
 BIT .IN                   :   Bit size
#
~Parameter Information Block
#MNEM.UNIT            Value               Description
#----------    --------------------    -------------------
 DATE.                   5/23/2012:    Date As Month-Day-Year
 RUN .                         ONE:    Run Number
 PDAT.                          GL:    Permanent Datum
 EPD .FT                 7361.0000:    Elevation Of Perm. Datum
 LMF .                          KB:    Log Measured From
 FAPD.FT                   13.0000:    Feet Above Perm. Datum
 DMF .                          KB:    Drilling Measured From
 EKB .FT                 7374.0000:    Elevation Of Kelly Bushing
 EDF .FT                 7361.0000:    Elevation Of Derrick Floor
 EGL .FT                 7361.0000:    Elevation Of Ground Level
 TD  .FT                 2900.0000:    Total Depth
 DF  .         Pennsylvanian Hermo:    
 PROJ.                       Rmccs:    
 DD  .FT                 2898.0000:    Depth Driller
 DL  .FT                 2898.0000:    Depth Logger
 BLI .FT                 2896.0000:    Bottom Log Interval
 TLI .FT                    0.0000:    Top Log Interval
 CSIZ.IN                     9 5/8:    Casing Size
 CBD1.                         263:    Casing Bottom (Driller) 1
 CBL1.                         263:    Casing Bottom (Logger) 1
 BS  .IN                     8 3/4:    Bit Size
 DFT .                    GEL CHEM:    Drilling Fluid Type
 DFV .S                    60.0000:    Drilling Fluid Viscosity
 DFD .LB/G                  8.9000:    Drilling Fluid Density
 DFL .ML                    3.0000:    Drilling Fluid Loss
 DFPH.                      9.0000:    Drilling Fluid Ph
 MSS .                   Flow line:    Mud Sample Source
 RMS .OHMM                  5.1400:    Resistivity Of Mud Sample
 MST .DEGF                 90.0000:    Mud Sample Temperature
 RMF .OHMM                  3.1000:    Mud Filtrate Resistivity
 MFST.DEGF                 70.0000:    Mud Filtrate Sample Temperature
 MFSS.                        MEAS:    Mud Filtrate Sample Source
 RMB .OHMM                  4.6200:    Mud Resistivity At Bht
 BHT .DEGF                 99.0000:    Bottom Hole Temperature
 TCS .                 5 1/2 hours:    Time Circulation Stopped
 MRT .DEGF                 99.0000:    Maximum Recorded Temperature
 LUN .                        3860:    Logging Unit Number
 LUL .                  Farmington:    Logging Unit Location
 ENGI.                      Brooks:    Engineer'S Name
 WITN.                 Hassenfratz:    Witness' Name
 DGBY.                         slr:    
 WSTA.                         OIL:    
#
~Other Information Block
<DescLogPlotStart>   NEURALOG PLOT DEFINITION
PLOTDEFVERSION: 3
LASFILE: C:\nds\projects\Rmccs\las\0384BHCS_2.las
DEPTHSCALE: 600.000013
RESOLUTION: 200
DEPTHLABELFREQ: 100.000000
HEAVYGRIDFREQ: 50.000000
MEDIUMGRIDFREQ: 50.000000
LIGHTGRIDFREQ: 50.000000
#
#   TRACK 1
#
STARTTRACK: 
 LEFTX: 0.500000 inch
 RIGHTX: 3.000000 inch
 SCALETYPE: Linear
 NUMCHARTDIVISIONS: 10
CURVE: GR    0.000000   160.000000 (0,0,255)      Solid             2     N    
CURVE: CALI  6.000000   16.000000  (0,131,131)    Dot               2     N    
CURVE: BIT   6.000000   16.000000  (255,0,255)    Short_Dash        2     N    
ENDTRACK: 
#
#   TRACK 2
#
STARTTRACK: 
 LEFTX: 3.500000 inch
 RIGHTX: 8.500000 inch
 SCALETYPE: Linear
 NUMCHARTDIVISIONS: 21
CURVE: DT    100.000000 40.000000  (255,0,0)      Solid             2     Y    
BACKUP: 160.000000 100.000000 (255,131,0)    Solid             2    
ENDTRACK: 
<DescLogPlotEnd>
<DescLog>Borehole Compensated Sonic
<DescOSVS>IES, CBL
<DescOSVS>FDC/GR
<DescOSVS>
IAP failed to step between 0932' and 0892'
~A DEPTH     GR               CALI             DT               BIT             
# ...
     792.500 32.14113936      9.00510613       80.93625498      8.76029414      
     793.000 31.80678669      9.00343371       80.32370518      8.76029039      
     793.500 31.15557700      9.00433545       78.99402390      8.76028665      
     794.000 31.19096919      9.00384268       78.21713147      8.76028290      
     794.500 30.75378298      9.00402052       78.33665339      8.76027916      
     795.000 29.88215230      9.00398232       78.81474104      8.76027541      
     795.500 29.84803803      9.00387119       79.23306773      8.76027166      
     796.000 29.87843146      9.00417642       79.68127490      8.76026792      
     796.500 29.68367572      9.00360843       79.77091633      8.76026417      
     797.000 30.09598045      9.00463022       79.65139442      8.76026043      
     797.500 30.92014620      9.00264755       79.20318725      8.76025668      
     798.000 31.65092894      9.01902966       79.11354582      8.76025294      
     798.500 32.57508985      9.02522394       78.63545817      8.76024919      
     799.000 33.18606122      9.02346999       77.94820717      8.76024545      
     799.500 33.93936568      9.02412629       76.99203187      8.76024170      
     800.000 33.26273786      9.02416634       76.84262948      8.76023795      
     800.500 30.52523405      9.02338275       77.29382470      8.76023421      
     801.000 29.10831113      9.02527460       77.89442231      8.76023046      
     801.500 28.62033359      9.01882110       78.63545817      8.76022672      
     802.000 28.08820479      9.01281122       78.81474104      8.76022297      
     802.500 27.92165982      9.00417506       78.81474104      8.76021923      
     803.000 28.17438392      9.00413780       78.51593625      8.76021548      
     803.500 28.26749720      9.00290193       78.27689243      8.76021173      
     804.000 28.46243316      9.01910210       78.21713147      8.76020799      
     804.500 28.89192573      9.03633950       78.69521912      8.76020424      
     805.000 29.71546493      9.05787855       78.83635008      8.76020050      
     805.500 30.15877059      9.08059813       78.96411649      8.76019675      
     806.000 31.06417140      9.08415948       78.55178916      8.76019301      
     806.500 31.84426236      9.09791233       77.71015706      8.76018926      
     807.000 32.79380215      9.10542648       77.57497331      8.76018552      
     807.500 32.01948792      9.03081928       77.76435775      8.76018177      
     808.000 30.04865125      8.94438135       78.60629028      8.76017802      
     808.500 28.55724915      8.90955617       80.24900398      8.76017428      
     809.000 27.67405106      8.88551429       80.36852590      8.76017053      
     809.500 28.35159212      8.84325117       78.94143426      8.76016679      
     810.000 29.40349898      8.81816319       76.36454183      8.76016304      
     810.500 30.55524027      8.79073303       76.12549801      8.76015930      
     811.000 31.56253645      8.76440002       76.24501992      8.76015555      
     811.500 31.28798848      8.73787517       77.18296813      8.76015181      
     812.000 30.67508049      8.72073864       79.95019920      8.76014806      
     812.500 29.48304715      8.68552115       80.30655953      8.76014431      
     813.000 28.98405761      8.64329689       80.12902741      8.76014057      
     813.500 28.66600753      8.60907189       79.76650163      8.76013682      
     814.000 28.27893575      8.59930166       79.70048946      8.76013308      
     814.500 27.64182513      8.58314503       79.69616286      8.76012933      
     815.000 27.68292092      8.58582742       81.56306244      8.76012559      
     815.500 28.24870972      8.58307489       84.23117132      8.76012184      
     816.000 29.86254556      8.59976923       85.06112260      8.76011809      
     816.500 31.23051796      8.60609869       86.28486056      8.76011435      
     817.000 31.47927822      8.60377209       86.58366534      8.76011060      
     817.500 31.88074054      8.60572185       83.59561753      8.76010686      
     818.000 31.58931705      8.60320928       82.99800797      8.76010311      
     818.500 32.36441034      8.61986679       82.93824701      8.76009937      
     819.000 32.62733701      8.62585608       83.88007968      8.76009562      
     819.500 36.49447245      8.62415890       84.85059761      8.76009188      
     820.000 39.71196257      8.62461168       84.91035857      8.76008813      
     820.500 41.14799836      8.62759002       84.61155378      8.76008438      
     821.000 43.82740397      8.66198324       82.51992032      8.76008064      
     821.500 43.50718363      8.66322505       -999.25000000    8.76007689      
     822.000 43.37812298      8.68303438       -999.25000000    8.76007315      
     822.500 42.40098601      8.72344030       -999.25000000    8.76006940      
     823.000 40.74272120      8.74621655       -999.25000000    8.76006566      
     823.500 38.65040619      8.78151676       -999.25000000    8.76006191      
     824.000 38.52734318      8.78492544       79.79661355      8.76005816      
     824.500 38.23063351      8.78468395       76.96215139      8.76005442      
     825.000 38.12987980      8.78425505       77.32071713      8.76005067      
     825.500 38.07724920      8.78549311       78.81474104      8.76004693      
     826.000 37.00494288      8.78034189       79.29282869      8.76004318      
     826.500 35.75966444      8.74945482       -999.25000000    8.76003944      
     827.000 34.92486894      8.73893028       -999.25000000    8.76003569      
     827.500 35.10957138      8.72341867       -999.25000000    8.76003195      
     828.000 37.94471083      8.72502401       -999.25000000    8.76002820      
     828.500 39.63130330      8.72420631       -999.25000000    8.76002445      
     829.000 40.76827628      8.72465847       -999.25000000    8.76002071      
     829.500 41.00829466      8.72441200       -999.25000000    8.76001696      
     830.000 39.30676845      8.72457941       -999.25000000    8.76001322      
     830.500 37.60114618      8.72449256       -999.25000000    8.76000947      
     831.000 35.64100256      8.72465624       78.57569721      8.76000573      
     831.500 30.80154456      8.72439107       77.55976096      8.76000198      
     832.000 29.45625159      8.72486220       75.80458167      8.75999823      
     832.500 29.60192779      8.72391166       74.63147410      8.75999449      
     833.000 30.05904893      8.72574147       74.57171315      8.75999074      
     833.500 30.94344299      8.71953491       76.00597610      8.75998700      
     834.000 31.32439104      8.70309196       76.84262948      8.75998325      
     834.500 31.76463769      8.70520165       77.79880478      8.75997951      
     835.000 32.43832948      8.70381088       78.33665339      8.75997576      
     835.500 33.42672613      8.71753487       79.35258964      8.75997202      
     836.000 34.23846116      8.74464477       82.28087649      8.75996827      
     836.500 35.46823998      8.77083276       81.45856574      8.75996452      
     837.000 37.34915613      8.79852202       78.97131474      8.75996078      
     837.500 37.92172790      8.82071899       76.02838645      8.75995703      
     838.000 36.89630028      8.82513305       73.08545817      8.75995329      
     838.500 37.19208230      8.82432579       -999.25000000    8.75994954      
     839.000 38.08194726      8.82439225       -999.25000000    8.75994580      
     839.500 38.65200481      8.82501276       -999.25000000    8.75994205      
     840.000 37.21792441      8.81083538       -999.25000000    8.75993830      
     840.500 34.68700907      8.78796085       -999.25000000    8.75993456      
     841.000 32.67820881      8.78395255       -999.25000000    8.75993081      
     841.500 30.45128606      8.78420714       -999.25000000    8.75992707      
