~Version Information Block
 VERS.                2.00:     CWLS LOG ASCII STANDARD - VERSION 2.000000
 WRAP.                  NO:     One Line Per Depth Step
#
~Well Information Block
#MNEM.UNIT                     Data                         Information
#----------   ------------------------------------------   ----------------
 STRT.FT                                      250.0000:     START DEPTH
 STOP.FT                                     2900.0000:     STOP DEPTH
 STEP.FT                                        0.5000:     STEP
 NULL.                                       -999.2500:     NULL VALUE
 COMP.                          Kerr-McGee Corporation:     COMPANY
 WELL.                                       Navajo #4:     WELL
 FLD .                                  Dineh-bi-Keyah:     FIELD
 LOC .                             0870' FEL 1720' FNL:     LOCATION
 SEC .                                              32:     SECTION
 TWP .                                             36N:     TOWNSHIP
 RANG.                                             30E:     RANGE
 CNTY.                                          Apache:     COUNTY
 STAT.                                         Arizona:     STATE
 CTRY.                                             USA:     COUNTRY
 SRVC.                                    Schlumberger:     SERVICE COMPANY
 DATE.                                                :     DATE
 API .                                    02-001-20009:     API NUMBER
 UWI .                                    02-001-20009:     UWI NUMBER
 TVD .                                              NO:     TVD flag
 WSTA.                                             OIL:     Well status
#
~Curve Information Block
#MNEM.UNIT       API CODE      Curve Description
#----------    -------------   -------------------
 DEPT.FT                   :   Depth in Feet
 SP  .MV       05 010 01 01:   Spontaneous Potential
 ILD .OHMM     05 120 46 01:   Deep Induction Standard Processed Resistivity
 SN  .OHMM     05 040 16 01:   Short Normal
 CILD.MMHO     05 110 46 01:   Deep Induction Standard Processed Conductivity
#
~Parameter Information Block
#MNEM.UNIT            Value               Description
#----------    --------------------    -------------------
 DATE.                    5/9/2012:    Date As Month-Day-Year
 RUN .                         ONE:    Run Number
 PDAT.                          GL:    Permanent Datum
 EPD .FT                 7361.0000:    Elevation Of Perm. Datum
 LMF .                          KB:    Log Measured From
 FAPD.FT                   13.0000:    Feet Above Perm. Datum
 DMF .                          KB:    Drilling Measured From
 EKB .FT                 7374.0000:    Elevation Of Kelly Bushing
 EDF .FT                 7373.0000:    Elevation Of Derrick Floor
 EGL .FT                 7361.0000:    Elevation Of Ground Level
 TD  .FT                 2898.0000:    Total Depth
 DF  .                     Hermosa:    
 PROJ.                       Rmccs:    
 DD  .FT                 2898.0000:    Depth Driller
 DL  .FT                 2899.0000:    Depth Logger
 BLI .FT                 2898.0000:    Bottom Log Interval
 TLI .FT                  264.0000:    Top Log Interval
 CSIZ.IN                     9 5/8:    Casing Size
 CBD1.                         263:    Casing Bottom (Driller) 1
 CBL1.                         264:    Casing Bottom (Logger) 1
 BS  .IN                     8 3/4:    Bit Size
 DFT .                    GEL-CHEM:    Drilling Fluid Type
 DFV .S                    60.0000:    Drilling Fluid Viscosity
 DFD .LB/G                  8.9000:    Drilling Fluid Density
 DFL .ML                    3.0000:    Drilling Fluid Loss
 DFPH.                      9.0000:    Drilling Fluid Ph
 MSS .                   FLOW LINE:    Mud Sample Source
 RMS .OHMM                  5.1400:    Resistivity Of Mud Sample
 MST .DEGF                 90.0000:    Mud Sample Temperature
 RMF .OHMM                  3.1000:    Mud Filtrate Resistivity
 MFST.DEGF                 70.0000:    Mud Filtrate Sample Temperature
 MFSS.                        CALC:    Mud Filtrate Sample Source
 RMC .OHMM                  0.0000:    Mud Cake Resistivity
 MCST.DEGF                  0.0000:    Mud Cake Sample Temperature
 MCSS.                        CALC:    Mud Cake Sample Source
 RMB .OHMM                  4.6200:    Mud Resistivity At Bht
 BHT .DEGF                 99.0000:    Bottom Hole Temperature
 TCS .                        2 hr:    Time Circulation Stopped
 MRT .DEGF                 99.0000:    Maximum Recorded Temperature
 LUN .                        3860:    Logging Unit Number
 LUL .                        FARM:    Logging Unit Location
 ENGI.                      Brooks:    Engineer'S Name
 WITN.             Mr. Hassenfratz:    Witness' Name
 DGBY.                         slr:    
 WSTA.                         OIL:    
#
~Other Information Block
<DescLogPlotStart>   NEURALOG PLOT DEFINITION
PLOTDEFVERSION: 3
LASFILE: C:\nds\projects\Rmccs\las\0384IEL.las
DEPTHSCALE: 600.000013
RESOLUTION: 200
DEPTHLABELFREQ: 100.000000
HEAVYGRIDFREQ: 50.000000
MEDIUMGRIDFREQ: 50.000000
LIGHTGRIDFREQ: 10.000000
#
#   TRACK 1
#
STARTTRACK: 
 LEFTX: 0.500000 inch
 RIGHTX: 3.000000 inch
 SCALETYPE: Linear
 NUMCHARTDIVISIONS: 10
CURVE: SP    0.000000   100.000000 (255,131,0)    Solid             2     Y    
BACKUP: 0.000000   200.000000 (255,131,0)    Solid             2    
BACKUP: -100.000000 0.000000   (255,131,0)    Solid             2    
ENDTRACK: 
#
#   TRACK 2
#
STARTTRACK: 
 LEFTX: 3.750000 inch
 RIGHTX: 6.250000 inch
 SCALETYPE: Linear
 NUMCHARTDIVISIONS: 10
CURVE: ILD   0.000000   100.000000 (0,0,156)      Solid             2     Y    
BACKUP: 0.000000   1000.000000 (0,0,156)      Solid             2    
BACKUP: -100.000000 0.000000   (0,0,156)      Solid             2    
CURVE: SN    0.000000   100.000000 (255,0,0)      Solid             2     Y    
BACKUP: 0.000000   1000.000000 (255,0,0)      Solid             2    
BACKUP: -100.000000 0.000000   (255,0,0)      Solid             2    
ENDTRACK: 
#
#   TRACK 3
#
STARTTRACK: 
 LEFTX: 6.250000 inch
 RIGHTX: 8.750000 inch
 SCALETYPE: Linear
 NUMCHARTDIVISIONS: 10
CURVE: CILD  400.000000 0.000000   (0,131,0)      Solid             2     N    
ENDTRACK: 
<DescLogPlotEnd>
<DescLog>Induction Electrical
<DescOSVS>BHC/GR
<DescOSVS>CBL
<DescOSVS>FDC/GR
~A DEPTH     SP               ILD              SN               CILD            
# ...
     596.500 59.28233033      -999.25000000    112.75805888     9.39060939      
     597.000 57.74873260      -999.25000000    116.45841676     8.59140859      
     597.500 55.71482965      -999.25000000    122.99966535     6.99300699      
     598.000 53.60195512      173.34669339     129.25646203     5.39460539      
     598.500 51.91259409      229.45891784     134.30609584     4.19580420      
     599.000 50.87674010      287.57515030     144.36785233     3.39660340      
     599.500 49.96821850      293.58717435     149.70927504     3.39660340      
     600.000 49.46687072      302.60521042     149.12431577     3.56310356      
     600.500 49.05574257      263.52705411     149.36974236     3.69763570      
     601.000 49.33409292      221.44288577     149.40203435     4.19580420      
     601.500 49.97255402      201.40280561     145.37438665     4.99500500      
     602.000 50.64253156      187.37474950     143.39242528     6.19380619      
     602.500 51.71889481      143.28657315     137.49117359     7.79220779      
     603.000 53.27684783      95.49098196      129.99936111     9.02150863      
     603.500 54.47970247      95.29058116      132.25814070     9.81693606      
     604.000 55.90694112      94.48897796      125.16468863     10.21708541     
     604.500 57.32798930      93.88777555      121.76211963     10.22353041     
     605.000 58.51119506      92.48496994      113.82151944     10.63437895     
     605.500 59.49228018      91.28256513      111.19402651     11.84589909     
     606.000 59.29041120      78.45691383      110.80985455     13.45703597     
     606.500 58.48098179      64.02805611      114.90939092     15.06467847     
     607.000 57.18899963      62.82565130      117.42833018     15.46931200     
     607.500 56.32456267      63.22645291      117.34550030     14.26972582     
     608.000 56.53370016      72.64529058      117.08544429     13.06524130     
     608.500 57.94917131      89.27855711      116.99361867     11.85674680     
     609.000 59.12488202      91.48296593      118.97393382     11.04407747     
     609.500 60.09333498      87.54446735      125.20894040     10.63160622     
     610.000 59.67938635      117.01314156     132.96658930     8.64517107      
     610.500 58.55434867      165.55594737     137.27454910     6.53911037      
     611.000 57.56385132      273.56903134     177.35470942     3.79620380      
     611.500 56.52045229      490.74102185     183.36673347     1.79820180      
     612.000 55.88145409      480.88474332     211.42284569     0.59940060      
     612.500 55.49826533      490.62343120     231.46292585     -0.59940060     
     613.000 55.13972029      488.49688081     249.49899800     -1.39860140     
     613.500 54.93922132      488.97667812     265.53106212     -1.79820180     
     614.000 54.89834146      487.97595190     279.55911824     -1.79820180     
     614.500 54.75489329      487.97595190     289.57915832     -1.79820180     
     615.000 54.55981111      489.97995992     297.59519038     -1.79820180     
     615.500 54.29455793      489.97995992     301.60320641     -1.79820180     
     616.000 54.05179037      489.97995992     305.61122244     -1.79820180     
     616.500 53.69786962      489.97995992     305.61122244     -0.99900100     
     617.000 53.44739517      487.97595190     303.60721443     -0.99900100     
     617.500 53.10013295      485.97194389     301.60320641     -0.59940060     
     618.000 52.73841666      481.96392786     295.59118236     0.19980020      
     618.500 52.53267286      475.95190381     287.90615937     0.59940060      
     619.000 52.52673438      425.85170341     277.98216398     0.99900100      
     619.500 52.84363275      363.91449566     270.13902177     1.76623377      
     620.000 53.12298046      309.04030283     261.77431838     2.97702298      
     620.500 53.56683962      254.16611000     254.83863855     4.18781219      
     621.000 53.86276617      199.29191717     232.42578808     4.99500500      
     621.500 54.49854497      155.65076179     204.23868022     5.79420579      
     622.000 55.28271920      141.38958040     197.39478958     6.59340659      
     622.500 56.39676283      137.10706012     185.37074148     6.99300699      
     623.000 57.34363380      136.86470228     173.34669339     6.99300699      
     623.500 58.02624291      140.56744414     155.31062124     6.59340659      
     624.000 58.13122454      162.19103551     157.31462926     6.19380619      
     624.500 57.93641558      187.52649102     169.33867735     5.79420579      
     625.000 57.31153416      274.54909820     182.36472946     4.39560440      
     625.500 56.62710835      354.16165665     201.40280561     2.19780220      
     626.000 56.12196789      451.90380762     209.39952890     1.39860140      
     626.500 56.10647324      437.87575150     215.51057337     0.99900100      
     627.000 56.04693479      378.03607214     217.56878855     2.19780220      
     627.500 55.88514694      309.21843687     217.57577811     2.99700300      
     628.000 55.89863704      221.44288577     217.51308908     4.19580420      
     628.500 55.95613890      197.39478958     215.40135805     4.59540460      
     629.000 56.70470910      193.38677355     215.27344124     4.19580420      
     629.500 57.47925580      195.39078156     213.42685371     4.54105894      
     630.000 58.26945034      105.11022044     215.43086172     4.41360564      
     630.500 59.15677155      197.39478958     223.44689379     4.21272146      
     631.000 58.37211641      223.44689379     231.46292585     4.20107158      
     631.500 56.77838420      271.54308617     249.49899800     2.99844671      
     632.000 55.02389492      356.49298597     269.53907816     1.80383882      
     632.500 53.37535472      485.97194389     281.56312625     1.01350379      
     633.000 52.45950228      487.97595190     297.59519038     0.22155902      
     633.500 51.91565823      487.97595190     311.62324649     -0.17716985     
     634.000 51.18992973      487.97595190     321.64328657     -0.19980020     
     634.500 50.71872980      487.97595190     337.67535070     -0.19980020     
     635.000 50.39328502      487.97595190     347.69539078     -0.19980020     
     635.500 49.70762326      487.97595190     356.47294589     -0.19980020     
     636.000 49.32358384      487.97595190     365.73146293     -0.19980020     
     636.500 48.70076279      487.97595190     377.75551102     -0.19980020     
     637.000 48.06619036      488.03238934     385.77154309     -0.19980020     
     637.500 47.85065708      487.84780666     395.79158317     0.19980020      
     638.000 47.65569530      488.46297668     397.79559118     0.22974860      
     638.500 47.31688959      490.13099276     401.80360721     0.22689967      
     639.000 46.89314911      489.88079319     405.81162325     0.62101562      
     639.500 46.52123595      490.07829468     407.81563126     0.68572344      
     640.000 45.98739987      489.83127894     411.47294589     0.81251519      
     640.500 45.38078103      490.48969237     414.50901804     0.93896684      
     641.000 44.73677834      492.11609112     419.83967936     0.99050200      
     641.500 43.80682484      491.92372720     423.50653038     0.98770755      
     642.000 41.95157118      492.02248073     429.53407070     0.99900100      
     642.500 40.41061704      491.96545334     435.58240520     0.59940060      
     643.000 38.53540729      491.99609891     442.30227564     0.59940060      
     643.500 36.47917045      491.98110561     452.43161553     0.19980020      
     644.000 34.56030427      491.99163912     460.87722342     0.19980020      
     644.500 32.47875661      491.98110561     476.82206372     0.19980020      
     645.000 30.28777044      491.99609891     480.39666071     0.19980020      
     645.500 28.15456537      491.96545334     485.97194389     -0.21776329     
