~Version Information Block
 VERS.                2.00:     CWLS LOG ASCII STANDARD - VERSION 2.000000
 WRAP.                  NO:     One Line Per Depth Step
#
~Well Information Block
#MNEM.UNIT                     Data                         Information
#----------   ------------------------------------------   ----------------
 STRT.FT                                       50.0000:     START DEPTH
 STOP.FT                                     2900.0000:     STOP DEPTH
 STEP.FT                                        0.5000:     STEP
 NULL.                                       -999.2500:     NULL VALUE
 COMP.                          Kerr-McGee Corporation:     COMPANY
 WELL.                                       Navajo #4:     WELL
 FLD .                                  Dineh-bi-Keyah:     FIELD
 LOC .                            870' FEL & 1720' FNL:     LOCATION
 SEC .                                              32:     SECTION
 TWP .                                             36N:     TOWNSHIP
 RANG.                                             30E:     RANGE
 CNTY.                                          Apache:     COUNTY
 STAT.                                         Arizona:     STATE
 CTRY.                                          U.S.A.:     COUNTRY
 SRVC.                                    Schlumberger:     SERVICE COMPANY
 DATE.                                      05/23/2012:     DATE
 API .                                    02-001-20009:     API NUMBER
 UWI .                                    02-001-20009:     UWI NUMBER
 TVD .                                              NO:     TVD flag
 WSTA.                                             OIL:     Well status
#
~Curve Information Block
#MNEM.UNIT       API CODE      Curve Description
#----------    -------------   -------------------
 DEPT.FT                   :   Depth in Feet
 GR  .GAPI     35 310 01 01:   Gamma Ray
 CALI.IN       70 280 01 01:   Caliper
 DT  .US/F     60 520 08 01:   Delta-T
 BIT .IN                   :   Bit size
#
~Parameter Information Block
#MNEM.UNIT            Value               Description
#----------    --------------------    -------------------
 DATE.                   5/23/2012:    Date As Month-Day-Year
 RUN .                         ONE:    Run Number
 PDAT.                          GL:    Permanent Datum
 EPD .FT                 7361.0000:    Elevation Of Perm. Datum
 LMF .                          KB:    Log Measured From
 FAPD.FT                   13.0000:    Feet Above Perm. Datum
 DMF .                          KB:    Drilling Measured From
 EKB .FT                 7374.0000:    Elevation Of Kelly Bushing
 EDF .FT                 7361.0000:    Elevation Of Derrick Floor
 EGL .FT                 7361.0000:    Elevation Of Ground Level
 TD  .FT                 2900.0000:    Total Depth
 DF  .         Pennsylvanian Hermo:    
 PROJ.                       Rmccs:    
 DD  .FT                 2898.0000:    Depth Driller
 DL  .FT                 2898.0000:    Depth Logger
 BLI .FT                 2896.0000:    Bottom Log Interval
 TLI .FT                    0.0000:    Top Log Interval
 CSIZ.IN                     9 5/8:    Casing Size
 CBD1.                         263:    Casing Bottom (Driller) 1
 CBL1.                         263:    Casing Bottom (Logger) 1
 BS  .IN                     8 3/4:    Bit Size
 DFT .                    GEL CHEM:    Drilling Fluid Type
 DFV .S                    60.0000:    Drilling Fluid Viscosity
 DFD .LB/G                  8.9000:    Drilling Fluid Density
 DFL .ML                    3.0000:    Drilling Fluid Loss
 DFPH.                      9.0000:    Drilling Fluid Ph
 MSS .                   Flow line:    Mud Sample Source
 RMS .OHMM                  5.1400:    Resistivity Of Mud Sample
 MST .DEGF                 90.0000:    Mud Sample Temperature
 RMF .OHMM                  3.1000:    Mud Filtrate Resistivity
 MFST.DEGF                 70.0000:    Mud Filtrate Sample Temperature
 MFSS.                        MEAS:    Mud Filtrate Sample Source
 RMB .OHMM                  4.6200:    Mud Resistivity At Bht
 BHT .DEGF                 99.0000:    Bottom Hole Temperature
 TCS .                 5 1/2 hours:    Time Circulation Stopped
 MRT .DEGF                 99.0000:    Maximum Recorded Temperature
 LUN .                        3860:    Logging Unit Number
 LUL .                  Farmington:    Logging Unit Location
 ENGI.                      Brooks:    Engineer'S Name
 WITN.                 Hassenfratz:    Witness' Name
 DGBY.                         slr:    
 WSTA.                         OIL:    
#
~Other Information Block
<DescLogPlotStart>   NEURALOG PLOT DEFINITION
PLOTDEFVERSION: 3
LASFILE: C:\nds\projects\Rmccs\las\0384BHCS_2.las
DEPTHSCALE: 600.000013
RESOLUTION: 200
DEPTHLABELFREQ: 100.000000
HEAVYGRIDFREQ: 50.000000
MEDIUMGRIDFREQ: 50.000000
LIGHTGRIDFREQ: 50.000000
#
#   TRACK 1
#
STARTTRACK: 
 LEFTX: 0.500000 inch
 RIGHTX: 3.000000 inch
 SCALETYPE: Linear
 NUMCHARTDIVISIONS: 10
CURVE: GR    0.000000   160.000000 (0,0,255)      Solid             2     N    
CURVE: CALI  6.000000   16.000000  (0,131,131)    Dot               2     N    
CURVE: BIT   6.000000   16.000000  (255,0,255)    Short_Dash        2     N    
ENDTRACK: 
#
#   TRACK 2
#
STARTTRACK: 
 LEFTX: 3.500000 inch
 RIGHTX: 8.500000 inch
 SCALETYPE: Linear
 NUMCHARTDIVISIONS: 21
CURVE: DT    100.000000 40.000000  (255,0,0)      Solid             2     Y    
BACKUP: 160.000000 100.000000 (255,131,0)    Solid             2    
ENDTRACK: 
<DescLogPlotEnd>
<DescLog>Borehole Compensated Sonic
<DescOSVS>IES, CBL
<DescOSVS>FDC/GR
<DescOSVS>
IAP failed to step between 0932' and 0892'
~A DEPTH     GR               CALI             DT               BIT             
# ...
    2673.500 40.47812439      8.94474787       56.58365233      8.74620311      
    2674.000 39.79132652      8.94360253       56.34606820      8.74619936      
    2674.500 40.47400227      8.94447162       56.35072543      8.74619562      
    2675.000 43.78481196      8.94352875       56.65523720      8.74619187      
    2675.500 47.01588264      8.94491613       56.89818800      8.74618813      
    2676.000 48.47209633      8.94239587       57.67644436      8.74618438      
    2676.500 46.73481219      8.94970613       58.13745020      8.74618064      
    2677.000 43.65902405      8.96411006       58.49601594      8.74617689      
    2677.500 41.00128702      8.97840907       58.55577689      8.74617314      
    2678.000 40.45464038      8.98583282       58.55577689      8.74616940      
    2678.500 40.31803557      8.98306729       58.79482072      8.74616565      
    2679.000 40.02047653      8.98488586       58.91434263      8.74616191      
    2679.500 39.30540690      8.98320539       58.67529880      8.74615816      
    2680.000 38.26819454      8.98551995       58.61553785      8.74615442      
    2680.500 37.21241714      8.96904608       58.23904382      8.74615067      
    2681.000 36.70555106      8.96278059       57.95816733      8.74614692      
    2681.500 37.66721609      8.96478851       58.01792829      8.74614318      
    2682.000 39.24959464      8.96353795       58.13745020      8.74613943      
    2682.500 40.17222319      8.96461528       57.95816733      8.74613569      
    2683.000 40.45954748      8.96332831       57.83864542      8.74613194      
    2683.500 38.79326229      8.96543645       57.53984064      8.74612820      
    2684.000 39.48158587      8.94903422       57.30991919      8.74612445      
    2684.500 42.40830397      8.94281531       57.12675315      8.74612071      
    2685.000 45.23313979      8.94467390       57.18067450      8.74611696      
    2685.500 47.44109177      8.94378240       57.59317830      8.74611321      
    2686.000 47.40390345      8.94416626       57.82567818      8.74610947      
    2686.500 47.39081084      8.94416626       58.17925462      8.74610572      
    2687.000 46.33254226      8.94378240       58.59339369      8.74610198      
    2687.500 44.97462195      8.94467390       59.00853484      8.74609823      
    2688.000 43.80229939      8.94281531       59.27290837      8.74609449      
    2688.500 46.01717331      8.94906793       59.27290837      8.74609074      
    2689.000 48.49478056      8.96541632       59.03386454      8.74608699      
    2689.500 46.80374700      8.96343365       58.43625498      8.74608325      
    2690.000 42.58157765      8.96449365       58.37649402      8.74607950      
    2690.500 41.69106756      8.96382523       58.53934263      8.74607576      
    2691.000 43.50241847      8.96433364       59.03386454      8.74607201      
    2691.500 45.73044608      8.96371539       59.69123506      8.74606827      
    2692.000 45.41643403      8.96468199       60.35673939      8.74606452      
    2692.500 45.28685679      8.96296332       61.05574661      8.74606078      
    2693.000 43.42841542      8.96616285       60.90080672      8.74605703      
    2693.500 41.21544424      8.94740800       60.54291924      8.74605328      
    2694.000 38.61774985      8.94827061       60.12285799      8.74604954      
    2694.500 36.86526504      8.96484765       59.99909513      8.74604579      
    2695.000 38.06488068      8.97763323       60.23246392      8.74604205      
    2695.500 39.98023047      8.98662749       60.34581444      8.74603830      
    2696.000 42.35760242      8.98150038       60.76693227      8.74603456      
    2696.500 44.82104335      8.99007438       60.94621514      8.74603081      
    2697.000 44.56612062      9.00381796       61.24501992      8.74602706      
    2697.500 43.51721433      9.00845351       61.42430279      8.74602332      
    2698.000 42.30525523      9.02562631       61.42430279      8.74601957      
    2698.500 41.78408809      9.02318332       61.48406375      8.74601583      
    2699.000 45.03798816      9.02435117       61.72310757      8.74601208      
    2699.500 50.96638981      9.02389901       62.26095618      8.74600834      
    2700.000 51.97048829      9.02372791       62.58142867      8.74600459      
    2700.500 57.47446076      9.02453955       63.27689243      8.74600085      
    2701.000 66.20564729      9.02255028       64.41235060      8.74599710      
    2701.500 67.38197319      9.02905839       65.00996016      8.74599335      
    2702.000 68.09086939      9.04477662       65.66733068      8.74598961      
    2702.500 67.34855869      9.04392369       64.65139442      8.74598586      
    2703.000 66.98488095      9.04266960       63.03784861      8.74598212      
    2703.500 61.06957796      9.04903062       60.96263410      8.74597837      
    2704.000 52.87791927      9.06431128       59.28277705      8.74597463      
    2704.500 44.89474726      9.07730403       58.02647272      8.74597088      
    2705.000 43.09486314      9.09946467       57.85025264      8.74596713      
    2705.500 44.79707279      9.11860631       58.63238744      8.74596339      
    2706.000 48.70137098      9.13854472       60.12806174      8.74595964      
    2706.500 53.15602908      9.15960681       62.27727695      8.74595590      
    2707.000 55.85466065      9.16458568       63.64434718      8.74595215      
    2707.500 55.64087228      9.16350240       64.53118999      8.74594841      
    2708.000 55.62506431      9.16361779       64.28478788      8.74594466      
    2708.500 53.21053875      9.16416461       63.74225689      8.74594092      
    2709.000 50.59968020      9.16260695       63.44494330      8.74593717      
    2709.500 50.12045011      9.17845078       63.99052049      8.74593342      
    2710.000 50.39863422      9.18555351       65.55928290      8.74592968      
    2710.500 55.38463640      9.18207699       67.61532893      8.74592593      
    2711.000 61.48559201      9.18860740       69.76458756      8.74592219      
    2711.500 66.69554858      9.20570892       71.64342629      8.74591844      
    2712.000 68.03690374      9.20170789       73.85458167      8.74591470      
    2712.500 65.19382442      9.20721205       74.33266932      8.74591095      
    2713.000 58.94560466      9.17029643       71.88247012      8.74590720      
    2713.500 52.79463626      9.12166398       66.86254980      8.74590346      
    2714.000 41.33879568      9.08731071       59.81075697      8.74589971      
    2714.500 31.25098828      9.08406998       54.13346614      8.74589597      
    2715.000 29.83920397      9.06919522       53.17729084      8.74589222      
    2715.500 30.25359419      9.06223901       54.55657371      8.74588848      
    2716.000 32.87348957      9.06447052       55.68725100      8.74588473      
    2716.500 34.21940860      9.06336042       56.64342629      8.74588099      
    2717.000 35.48515617      9.06398031       57.36055777      8.74587724      
    2717.500 36.97034720      9.06376691       57.53984064      8.74587349      
    2718.000 38.58514002      9.06387226       58.01792829      8.74586975      
    2718.500 43.79125024      9.06394389       58.73505976      8.74586600      
    2719.000 44.44454689      9.06371242       59.21314741      8.74586226      
    2719.500 43.99326373      9.06422176       58.49601594      8.74585851      
    2720.000 36.23841644      9.06327642       55.50796813      8.74585477      
    2720.500 28.48155137      9.06516872       52.46015936      8.74585102      
    2721.000 22.75306135      9.05891611       50.90637450      8.74584728      
    2721.500 21.74673524      9.04256771       50.72709163      8.74584353      
    2722.000 21.15435695      9.04455038       50.78685259      8.74583978      
    2722.500 24.11997020      9.04352859       50.96613546      8.74583604      
