~Version Information Block
 VERS.                2.00:     CWLS LOG ASCII STANDARD - VERSION 2.000000
 WRAP.                  NO:     One Line Per Depth Step
#
~Well Information Block
#MNEM.UNIT                     Data                         Information
#----------   ------------------------------------------   ----------------
 STRT.FT                                      250.0000:     START DEPTH
 STOP.FT                                     2900.0000:     STOP DEPTH
 STEP.FT                                        0.5000:     STEP
 NULL.                                       -999.2500:     NULL VALUE
 COMP.                          Kerr-McGee Corporation:     COMPANY
 WELL.                                       Navajo #4:     WELL
 FLD .                                  Dineh-bi-Keyah:     FIELD
 LOC .                             0870' FEL 1720' FNL:     LOCATION
 SEC .                                              32:     SECTION
 TWP .                                             36N:     TOWNSHIP
 RANG.                                             30E:     RANGE
 CNTY.                                          Apache:     COUNTY
 STAT.                                         Arizona:     STATE
 CTRY.                                             USA:     COUNTRY
 SRVC.                                    Schlumberger:     SERVICE COMPANY
 DATE.                                                :     DATE
 API .                                    02-001-20009:     API NUMBER
 UWI .                                    02-001-20009:     UWI NUMBER
 TVD .                                              NO:     TVD flag
 WSTA.                                             OIL:     Well status
#
~Curve Information Block
#MNEM.UNIT       API CODE      Curve Description
#----------    -------------   -------------------
 DEPT.FT                   :   Depth in Feet
 SP  .MV       05 010 01 01:   Spontaneous Potential
 ILD .OHMM     05 120 46 01:   Deep Induction Standard Processed Resistivity
 SN  .OHMM     05 040 16 01:   Short Normal
 CILD.MMHO     05 110 46 01:   Deep Induction Standard Processed Conductivity
#
~Parameter Information Block
#MNEM.UNIT            Value               Description
#----------    --------------------    -------------------
 DATE.                    5/9/2012:    Date As Month-Day-Year
 RUN .                         ONE:    Run Number
 PDAT.                          GL:    Permanent Datum
 EPD .FT                 7361.0000:    Elevation Of Perm. Datum
 LMF .                          KB:    Log Measured From
 FAPD.FT                   13.0000:    Feet Above Perm. Datum
 DMF .                          KB:    Drilling Measured From
 EKB .FT                 7374.0000:    Elevation Of Kelly Bushing
 EDF .FT                 7373.0000:    Elevation Of Derrick Floor
 EGL .FT                 7361.0000:    Elevation Of Ground Level
 TD  .FT                 2898.0000:    Total Depth
 DF  .                     Hermosa:    
 PROJ.                       Rmccs:    
 DD  .FT                 2898.0000:    Depth Driller
 DL  .FT                 2899.0000:    Depth Logger
 BLI .FT                 2898.0000:    Bottom Log Interval
 TLI .FT                  264.0000:    Top Log Interval
 CSIZ.IN                     9 5/8:    Casing Size
 CBD1.                         263:    Casing Bottom (Driller) 1
 CBL1.                         264:    Casing Bottom (Logger) 1
 BS  .IN                     8 3/4:    Bit Size
 DFT .                    GEL-CHEM:    Drilling Fluid Type
 DFV .S                    60.0000:    Drilling Fluid Viscosity
 DFD .LB/G                  8.9000:    Drilling Fluid Density
 DFL .ML                    3.0000:    Drilling Fluid Loss
 DFPH.                      9.0000:    Drilling Fluid Ph
 MSS .                   FLOW LINE:    Mud Sample Source
 RMS .OHMM                  5.1400:    Resistivity Of Mud Sample
 MST .DEGF                 90.0000:    Mud Sample Temperature
 RMF .OHMM                  3.1000:    Mud Filtrate Resistivity
 MFST.DEGF                 70.0000:    Mud Filtrate Sample Temperature
 MFSS.                        CALC:    Mud Filtrate Sample Source
 RMC .OHMM                  0.0000:    Mud Cake Resistivity
 MCST.DEGF                  0.0000:    Mud Cake Sample Temperature
 MCSS.                        CALC:    Mud Cake Sample Source
 RMB .OHMM                  4.6200:    Mud Resistivity At Bht
 BHT .DEGF                 99.0000:    Bottom Hole Temperature
 TCS .                        2 hr:    Time Circulation Stopped
 MRT .DEGF                 99.0000:    Maximum Recorded Temperature
 LUN .                        3860:    Logging Unit Number
 LUL .                        FARM:    Logging Unit Location
 ENGI.                      Brooks:    Engineer'S Name
 WITN.             Mr. Hassenfratz:    Witness' Name
 DGBY.                         slr:    
 WSTA.                         OIL:    
#
~Other Information Block
<DescLogPlotStart>   NEURALOG PLOT DEFINITION
PLOTDEFVERSION: 3
LASFILE: C:\nds\projects\Rmccs\las\0384IEL.las
DEPTHSCALE: 600.000013
RESOLUTION: 200
DEPTHLABELFREQ: 100.000000
HEAVYGRIDFREQ: 50.000000
MEDIUMGRIDFREQ: 50.000000
LIGHTGRIDFREQ: 10.000000
#
#   TRACK 1
#
STARTTRACK: 
 LEFTX: 0.500000 inch
 RIGHTX: 3.000000 inch
 SCALETYPE: Linear
 NUMCHARTDIVISIONS: 10
CURVE: SP    0.000000   100.000000 (255,131,0)    Solid             2     Y    
BACKUP: 0.000000   200.000000 (255,131,0)    Solid             2    
BACKUP: -100.000000 0.000000   (255,131,0)    Solid             2    
ENDTRACK: 
#
#   TRACK 2
#
STARTTRACK: 
 LEFTX: 3.750000 inch
 RIGHTX: 6.250000 inch
 SCALETYPE: Linear
 NUMCHARTDIVISIONS: 10
CURVE: ILD   0.000000   100.000000 (0,0,156)      Solid             2     Y    
BACKUP: 0.000000   1000.000000 (0,0,156)      Solid             2    
BACKUP: -100.000000 0.000000   (0,0,156)      Solid             2    
CURVE: SN    0.000000   100.000000 (255,0,0)      Solid             2     Y    
BACKUP: 0.000000   1000.000000 (255,0,0)      Solid             2    
BACKUP: -100.000000 0.000000   (255,0,0)      Solid             2    
ENDTRACK: 
#
#   TRACK 3
#
STARTTRACK: 
 LEFTX: 6.250000 inch
 RIGHTX: 8.750000 inch
 SCALETYPE: Linear
 NUMCHARTDIVISIONS: 10
CURVE: CILD  400.000000 0.000000   (0,131,0)      Solid             2     N    
ENDTRACK: 
<DescLogPlotEnd>
<DescLog>Induction Electrical
<DescOSVS>BHC/GR
<DescOSVS>CBL
<DescOSVS>FDC/GR
~A DEPTH     SP               ILD              SN               CILD            
# ...
    2675.500 84.29009242      145.10410858     123.22706484     6.39054996      
    2676.000 84.66533226      135.15410490     122.70716915     6.79215254      
    2676.500 84.84636260      124.47002525     121.31025521     7.39201830      
    2677.000 84.94427192      118.37211741     119.55693119     7.99146850      
    2677.500 85.29231807      113.25280332     113.90531197     8.79164317      
    2678.000 85.57490142      111.83900486     105.41446304     9.19322373      
    2678.500 85.82326349      110.14580028     105.48449504     9.59570098      
    2679.000 86.12145187      100.47403471     105.09847000     9.79853296      
    2679.500 86.30659171      97.93926139      105.23728903     9.80000504      
    2680.000 86.43976996      98.71097816      105.25837680     9.74990710      
    2680.500 86.40002473      97.71109302      104.77552234     9.54859570      
    2681.000 86.34917816      108.09650662     103.00497642     9.19677868      
    2681.500 86.51577945      106.37085050     103.79348001     8.79491967      
    2682.000 86.49718962      113.57943934     105.23173002     8.59285361      
    2682.500 86.49590103      119.28240740     106.54109927     8.39062825      
    2683.000 86.51666033      125.04267949     107.86857854     7.98835064      
    2683.500 86.43945669      127.44408035     109.28178374     7.58671211      
    2684.000 86.43340587      128.69720162     109.19488401     7.38606365      
    2684.500 86.52508269      129.42520411     109.26703704     7.38660462      
    2685.000 86.47950326      129.36173016     109.18628185     7.38762260      
    2685.500 86.52615837      128.78885274     109.32024177     7.38844025      
    2686.000 86.43069300      127.02004760     109.07835573     7.78878029      
    2686.500 86.34414550      121.70539671     109.52979861     7.98916044      
    2687.000 86.50604079      117.63497330     106.96260640     8.18990236      
    2687.500 86.64101371      115.27848837     107.31467202     8.79119487      
    2688.000 86.71867788      111.70751151     103.88095864     8.99179688      
    2688.500 86.69227558      109.20384864     96.41780157      8.99148222      
    2689.000 86.70362160      -999.25000000    96.49481884      8.99048466      
    2689.500 86.70256665      -999.25000000    95.89694930      8.98890625      
    2690.000 86.67748472      -999.25000000    95.35407723      9.22781199      
    2690.500 86.46938788      -999.25000000    94.56905412      9.54797190      
    2691.000 86.29895138      -999.25000000    94.06192558      9.98912795      
    2691.500 86.31716150      -999.25000000    93.14385935      10.38961039     
    2692.000 86.23812680      86.41240473      89.73469232      10.58941059     
    2692.500 86.13233378      87.05097503      86.86662212      10.98901099     
    2693.000 86.32416995      85.91287707      83.76381901      11.18881119     
    2693.500 86.27724340      85.62227087      81.14063138      11.38861139     
    2694.000 86.35200759      84.75966537      79.70198625      11.78821179     
    2694.500 86.51445020      84.33309411      78.55377329      11.98801199     
    2695.000 86.48452275      84.02053167      78.24363520      12.18781219     
    2695.500 86.64601318      82.92848586      78.26523257      12.18231513     
    2696.000 86.84887441      81.88795824      77.67221160      12.38327493     
    2696.500 86.95789167      78.83233253      76.60492189      12.78460991     
    2697.000 87.11071768      76.35305493      75.09929008      13.18577120     
    2697.500 87.09552819      73.76073090      72.89960475      13.98679540     
    2698.000 87.10371018      71.09443424      70.65738376      14.78696253     
    2698.500 87.09796352      68.69860040      67.95418835      15.58637661     
    2699.000 87.10362521      65.76363921      65.14814754      16.38673796     
    2699.500 87.09627443      64.24570538      64.11691682      17.58241758     
    2700.000 87.10777740      59.63402678      61.36572054      18.61548682     
    2700.500 87.08514988      48.69393624      58.99494484      19.72651220     
    2701.000 87.20400843      46.80653778      56.73193843      20.57942058     
    2701.500 87.29282350      46.49692643      54.92266213      21.37862138     
    2702.000 87.11587623      46.79208211      52.05998248      21.37862138     
    2702.500 87.07910856      47.06073064      50.16637961      21.37862138     
    2703.000 86.92092236      48.78654817      49.04058605      20.57942058     
    2703.500 86.88655695      51.05767066      48.94677956      19.78021978     
    2704.000 86.99208462      53.67178789      50.54940641      18.58141858     
    2704.500 87.20164177      55.52304566      52.74167137      18.18181818     
    2705.000 87.40093201      56.76588892      54.98896989      17.78221778     
    2705.500 87.53387285      57.28466204      56.33819794      18.18181818     
    2706.000 87.66674149      54.49759378      55.70769160      18.58141858     
    2706.500 87.80201389      52.18895408      53.69389869      19.78021978     
    2707.000 87.93258455      49.72235522      50.89651088      21.01708869     
    2707.500 88.05905627      45.17626053      47.55011932      22.62749852     
    2708.000 87.92572575      41.40487703      44.14951464      25.02913648     
    2708.500 87.88089226      37.21571122      42.23304797      27.42297077     
    2709.000 87.63624797      33.69809345      41.00520554      30.61301388     
    2709.500 87.37398806      32.40542277      39.79863995      33.40385426     
    2710.000 87.39391152      30.28235681      38.87938092      36.58227826     
    2710.500 87.81750390      25.45119940      37.07594603      40.15577955     
    2711.000 88.09560987      22.99177981      35.33851325      43.35664336     
    2711.500 88.38175854      22.68779554      33.39040434      45.75424575     
    2712.000 88.51747703      22.65779068      31.68054761      46.95304695     
    2712.500 88.49222287      22.29384085      30.55699337      45.35464535     
    2713.000 88.50566078      24.10849707      30.33056036      42.95704296     
    2713.500 88.49780412      28.32114423      31.25919661      38.56143856     
    2714.000 88.50460854      35.49742537      33.49979801      34.96503497     
    2714.500 88.48315343      42.86915904      39.82760909      29.37062937     
    2715.000 88.31541636      56.71001587      46.39469473      23.77622378     
    2715.500 88.31554187      70.82295020      78.77511999      18.18181818     
    2716.000 88.48309263      86.33086221      77.35329907      14.18581419     
    2716.500 88.50493098      90.23126522      79.33046941      11.38861139     
    2717.000 88.49839041      90.99079822      79.86233628      11.38861139     
    2717.500 88.50798109      88.67735471      78.42386462      12.18781219     
    2718.000 88.47975227      73.64729459      75.81582540      13.38661339     
    2718.500 88.33003731      70.24048096      74.78292317      14.18581419     
    2719.000 88.20831577      69.23847695      73.13212482      13.84778900     
    2719.500 87.98428404      69.43887776      74.32467031      12.63875474     
    2720.000 87.54076108      73.89779559      73.73184823      11.66393981     
    2720.500 87.06707275      84.80961924      90.84466460      10.06187410     
    2721.000 86.49994214      129.25851703     110.30072251     8.18632468      
    2721.500 85.98230295      139.27855711     127.88715813     6.57259549      
    2722.000 85.61266162      151.30260521     139.70669950     5.36593009      
    2722.500 85.47053742      233.46693387     157.52095759     4.16819476      
    2723.000 85.60509530      235.47094188     159.70382486     3.77756485      
    2723.500 86.01334573      226.09218437     157.09523720     4.19029656      
    2724.000 86.57686588      161.32264529     155.03664910     5.00294551      
    2724.500 87.06787249      143.28657315     141.07145636     6.21261408      
