~Version Information Block
 VERS.                2.00:     CWLS LOG ASCII STANDARD - VERSION 2.000000
 WRAP.                  NO:     One Line Per Depth Step
#
~Well Information Block
#MNEM.UNIT                     Data                         Information
#----------   ------------------------------------------   ----------------
 STRT.FT                                       50.0000:     START DEPTH
 STOP.FT                                     2900.0000:     STOP DEPTH
 STEP.FT                                        0.5000:     STEP
 NULL.                                       -999.2500:     NULL VALUE
 COMP.                          Kerr-McGee Corporation:     COMPANY
 WELL.                                       Navajo #4:     WELL
 FLD .                                  Dineh-bi-Keyah:     FIELD
 LOC .                            870' FEL & 1720' FNL:     LOCATION
 SEC .                                              32:     SECTION
 TWP .                                             36N:     TOWNSHIP
 RANG.                                             30E:     RANGE
 CNTY.                                          Apache:     COUNTY
 STAT.                                         Arizona:     STATE
 CTRY.                                          U.S.A.:     COUNTRY
 SRVC.                                    Schlumberger:     SERVICE COMPANY
 DATE.                                      05/23/2012:     DATE
 API .                                    02-001-20009:     API NUMBER
 UWI .                                    02-001-20009:     UWI NUMBER
 TVD .                                              NO:     TVD flag
 WSTA.                                             OIL:     Well status
#
~Curve Information Block
#MNEM.UNIT       API CODE      Curve Description
#----------    -------------   -------------------
 DEPT.FT                   :   Depth in Feet
 GR  .GAPI     35 310 01 01:   Gamma Ray
 CALI.IN       70 280 01 01:   Caliper
 DT  .US/F     60 520 08 01:   Delta-T
 BIT .IN                   :   Bit size
#
~Parameter Information Block
#MNEM.UNIT            Value               Description
#----------    --------------------    -------------------
 DATE.                   5/23/2012:    Date As Month-Day-Year
 RUN .                         ONE:    Run Number
 PDAT.                          GL:    Permanent Datum
 EPD .FT                 7361.0000:    Elevation Of Perm. Datum
 LMF .                          KB:    Log Measured From
 FAPD.FT                   13.0000:    Feet Above Perm. Datum
 DMF .                          KB:    Drilling Measured From
 EKB .FT                 7374.0000:    Elevation Of Kelly Bushing
 EDF .FT                 7361.0000:    Elevation Of Derrick Floor
 EGL .FT                 7361.0000:    Elevation Of Ground Level
 TD  .FT                 2900.0000:    Total Depth
 DF  .         Pennsylvanian Hermo:    
 PROJ.                       Rmccs:    
 DD  .FT                 2898.0000:    Depth Driller
 DL  .FT                 2898.0000:    Depth Logger
 BLI .FT                 2896.0000:    Bottom Log Interval
 TLI .FT                    0.0000:    Top Log Interval
 CSIZ.IN                     9 5/8:    Casing Size
 CBD1.                         263:    Casing Bottom (Driller) 1
 CBL1.                         263:    Casing Bottom (Logger) 1
 BS  .IN                     8 3/4:    Bit Size
 DFT .                    GEL CHEM:    Drilling Fluid Type
 DFV .S                    60.0000:    Drilling Fluid Viscosity
 DFD .LB/G                  8.9000:    Drilling Fluid Density
 DFL .ML                    3.0000:    Drilling Fluid Loss
 DFPH.                      9.0000:    Drilling Fluid Ph
 MSS .                   Flow line:    Mud Sample Source
 RMS .OHMM                  5.1400:    Resistivity Of Mud Sample
 MST .DEGF                 90.0000:    Mud Sample Temperature
 RMF .OHMM                  3.1000:    Mud Filtrate Resistivity
 MFST.DEGF                 70.0000:    Mud Filtrate Sample Temperature
 MFSS.                        MEAS:    Mud Filtrate Sample Source
 RMB .OHMM                  4.6200:    Mud Resistivity At Bht
 BHT .DEGF                 99.0000:    Bottom Hole Temperature
 TCS .                 5 1/2 hours:    Time Circulation Stopped
 MRT .DEGF                 99.0000:    Maximum Recorded Temperature
 LUN .                        3860:    Logging Unit Number
 LUL .                  Farmington:    Logging Unit Location
 ENGI.                      Brooks:    Engineer'S Name
 WITN.                 Hassenfratz:    Witness' Name
 DGBY.                         slr:    
 WSTA.                         OIL:    
#
~Other Information Block
<DescLogPlotStart>   NEURALOG PLOT DEFINITION
PLOTDEFVERSION: 3
LASFILE: C:\nds\projects\Rmccs\las\0384BHCS_2.las
DEPTHSCALE: 600.000013
RESOLUTION: 200
DEPTHLABELFREQ: 100.000000
HEAVYGRIDFREQ: 50.000000
MEDIUMGRIDFREQ: 50.000000
LIGHTGRIDFREQ: 50.000000
#
#   TRACK 1
#
STARTTRACK: 
 LEFTX: 0.500000 inch
 RIGHTX: 3.000000 inch
 SCALETYPE: Linear
 NUMCHARTDIVISIONS: 10
CURVE: GR    0.000000   160.000000 (0,0,255)      Solid             2     N    
CURVE: CALI  6.000000   16.000000  (0,131,131)    Dot               2     N    
CURVE: BIT   6.000000   16.000000  (255,0,255)    Short_Dash        2     N    
ENDTRACK: 
#
#   TRACK 2
#
STARTTRACK: 
 LEFTX: 3.500000 inch
 RIGHTX: 8.500000 inch
 SCALETYPE: Linear
 NUMCHARTDIVISIONS: 21
CURVE: DT    100.000000 40.000000  (255,0,0)      Solid             2     Y    
BACKUP: 160.000000 100.000000 (255,131,0)    Solid             2    
ENDTRACK: 
<DescLogPlotEnd>
<DescLog>Borehole Compensated Sonic
<DescOSVS>IES, CBL
<DescOSVS>FDC/GR
<DescOSVS>
IAP failed to step between 0932' and 0892'
~A DEPTH     GR               CALI             DT               BIT             
# ...
     594.500 67.57566889      9.47445718       81.20146352      8.76177740      
     595.000 69.92270956      9.36250360       85.05973713      8.76177366      
     595.500 61.65553103      9.32411190       84.85059761      8.76176991      
     596.000 45.80680942      9.23219695       84.85059761      8.76176617      
     596.500 39.76099428      9.13736254       80.00996016      8.76176242      
     597.000 37.13534058      9.12356213       79.59163347      8.76175868      
     597.500 37.98727452      9.12305700       78.93426295      8.76175493      
     598.000 39.19786625      9.12346515       78.21713147      8.76175119      
     598.500 39.35345342      9.12354639       77.61952191      8.76174744      
     599.000 41.20333794      9.12322081       76.96215139      8.76174369      
     599.500 43.87034658      9.12420696       76.83057435      8.76173995      
     600.000 46.10823825      9.12239853       76.58300105      8.76173620      
     600.500 48.57267596      9.13374899       76.28218631      8.76173246      
     601.000 50.48683421      9.14514408       76.10592579      8.76172871      
     601.500 51.80667503      9.14317601       75.97628308      8.76172497      
     602.000 53.33518868      9.14450647       75.86740780      8.76172122      
     602.500 54.39416629      9.14213052       75.85235102      8.76171747      
     603.000 56.46041259      9.12525635       76.61890465      8.76171373      
     603.500 62.45236533      9.12418148       79.44307474      8.76170998      
     604.000 68.38835503      9.11474671       83.14044749      8.76170624      
     604.500 70.18391486      9.09234284       82.90399241      8.76170249      
     605.000 61.18546275      9.04624459       79.49131969      8.76169875      
     605.500 48.57762454      8.97125628       76.41225433      8.76169500      
     606.000 44.63956034      8.87669486       76.40654075      8.76169126      
     606.500 46.01916378      8.95290102       78.07252983      8.76168751      
     607.000 56.41482042      9.18237525       82.98605578      8.76168376      
     607.500 69.46742731      9.22863522       87.89093625      8.76168002      
     608.000 73.79466167      9.14463247       91.30478088      8.76167627      
     608.500 67.30251923      9.01140808       91.54382470      8.76167253      
     609.000 58.35687620      8.90539250       87.65936255      8.76166878      
     609.500 49.37390683      8.82698140       86.52390438      8.76166504      
     610.000 40.39467256      8.79056205       85.98605578      8.76166129      
     610.500 35.61173303      8.76544203       85.38884462      8.76165755      
     611.000 32.23747173      8.76442687       83.59934339      8.76165380      
     611.500 28.87319798      8.76310125       81.07740605      8.76165005      
     612.000 25.37419869      8.76608253       80.67503243      8.76164631      
     612.500 23.08446189      8.75287197       80.40455410      8.76164256      
     613.000 22.19761285      8.75322295       80.37337029      8.76163882      
     613.500 21.32405089      8.76599700       81.16926528      8.76163507      
     614.000 21.55263761      8.76408766       81.23869584      8.76163133      
     614.500 22.82955055      8.76368926       81.74302789      8.76162758      
     615.000 23.47921744      8.77416589       80.78685259      8.76162383      
     615.500 23.29508626      8.78588901       79.77091633      8.76162009      
     616.000 22.50822837      8.78373699       81.08087649      8.76161634      
     616.500 21.18211367      8.78482461       82.83330677      8.76161260      
     617.000 20.27367017      8.78422060       86.05250996      8.76160885      
     617.500 20.56930420      8.78456373       89.51195219      8.76160511      
     618.000 22.49490815      8.78432427       89.81075697      8.76160136      
     618.500 24.05565522      8.78453726       90.04980080      8.76159762      
     619.000 26.14113419      8.78414318       90.44963530      8.76159387      
     619.500 30.47330626      8.78613293       91.96552475      8.76159012      
     620.000 34.63802602      8.80283187       94.92508663      8.76158638      
     620.500 39.10544081      8.80430998       95.33141949      8.76158263      
     621.000 43.07858385      8.80509775       94.69137321      8.76157889      
     621.500 49.08430611      8.80285820       93.33415490      8.76157514      
     622.000 53.90013738      8.81503840       92.59736912      8.76157140      
     622.500 50.05306574      8.82319609       95.27066733      8.76156765      
     623.000 44.41763529      8.80692748       98.05776892      8.76156390      
     623.500 38.76142486      8.79420551       98.11752988      8.76156016      
     624.000 33.97611735      8.78329496       94.89342629      8.76155641      
     624.500 34.73686477      8.78426470       93.15737052      8.76155267      
     625.000 37.50719011      8.78651667       93.15737052      8.76154892      
     625.500 40.24808228      8.80110745       94.89043825      8.76154518      
     626.000 41.57439236      8.81620649       94.95019920      8.76154143      
     626.500 41.61533563      8.84518582       88.79482072      8.76153769      
     627.000 41.80289172      8.86418109       89.15338645      8.76153394      
     627.500 42.30331287      8.88279397       89.45219124      8.76153019      
     628.000 45.78081615      8.88621361       89.99003984      8.76152645      
     628.500 54.38398866      8.90278929       90.40836653      8.76152270      
     629.000 60.63024569      8.90309496       92.41752988      8.76151896      
     629.500 58.25427365      8.88449488       95.60069721      8.76151521      
     630.000 49.78539536      8.86431219       -999.25000000    8.76151147      
     630.500 41.27044328      8.84442389       -999.25000000    8.76150772      
     631.000 32.69460689      8.82410101       -999.25000000    8.76150397      
     631.500 28.96469229      8.80592004       -999.25000000    8.76150023      
     632.000 28.26807696      8.80408360       -999.25000000    8.76149648      
     632.500 28.77007647      8.80438684       -999.25000000    8.76149274      
     633.000 29.36596246      8.80424701       97.10159363      8.76148899      
     633.500 30.05536465      8.80432052       94.29282869      8.76148525      
     634.000 29.99324848      8.80424350       93.99402390      8.76148150      
     634.500 28.22502730      8.80431792       94.87111554      8.76147776      
     635.000 24.05206093      8.80417756       96.20517928      8.76147401      
     635.500 21.98166174      8.80445973       96.32470120      8.76147026      
     636.000 22.06353229      8.80388020       95.96613546      8.76146652      
     636.500 23.69138663      8.80629674       95.65358566      8.76146277      
     637.000 25.85971280      8.82343659       95.31115538      8.76145903      
     637.500 27.90657958      8.85202397       94.30776892      8.76145528      
     638.000 30.04383085      8.87624304       93.00218227      8.76145154      
     638.500 32.08304004      8.91352072       91.84152595      8.76144779      
     639.000 34.54973585      8.92522135       91.82924361      8.76144404      
     639.500 37.83988559      8.92516273       92.46625102      8.76144030      
     640.000 41.15419856      8.90613633       93.46932198      8.76143655      
     640.500 44.09736301      8.84119947       94.47539032      8.76143281      
     641.000 44.90150483      8.80450164       95.48262273      8.76142906      
     641.500 45.25822652      8.77475874       96.32479644      8.76142532      
     642.000 43.85066974      8.74439317       96.56374502      8.76142157      
     642.500 39.79616156      8.74494051       96.50398406      8.76141783      
     643.000 35.78940777      8.74405411       96.14541833      8.76141408      
     643.500 31.86296127      8.74447916       95.90637450      8.76141033      
