~Version Information Block
 VERS.                2.00:     CWLS LOG ASCII STANDARD - VERSION 2.000000
 WRAP.                  NO:     One Line Per Depth Step
#
~Well Information Block
#MNEM.UNIT                     Data                         Information
#----------   ------------------------------------------   ----------------
 STRT.FT                                       50.0000:     START DEPTH
 STOP.FT                                     2900.0000:     STOP DEPTH
 STEP.FT                                        0.5000:     STEP
 NULL.                                       -999.2500:     NULL VALUE
 COMP.                          Kerr-McGee Corporation:     COMPANY
 WELL.                                       Navajo #4:     WELL
 FLD .                                  Dineh-bi-Keyah:     FIELD
 LOC .                            870' FEL & 1720' FNL:     LOCATION
 SEC .                                              32:     SECTION
 TWP .                                             36N:     TOWNSHIP
 RANG.                                             30E:     RANGE
 CNTY.                                          Apache:     COUNTY
 STAT.                                         Arizona:     STATE
 CTRY.                                          U.S.A.:     COUNTRY
 SRVC.                                    Schlumberger:     SERVICE COMPANY
 DATE.                                      05/23/2012:     DATE
 API .                                    02-001-20009:     API NUMBER
 UWI .                                    02-001-20009:     UWI NUMBER
 TVD .                                              NO:     TVD flag
 WSTA.                                             OIL:     Well status
#
~Curve Information Block
#MNEM.UNIT       API CODE      Curve Description
#----------    -------------   -------------------
 DEPT.FT                   :   Depth in Feet
 GR  .GAPI     35 310 01 01:   Gamma Ray
 CALI.IN       70 280 01 01:   Caliper
 DT  .US/F     60 520 08 01:   Delta-T
 BIT .IN                   :   Bit size
#
~Parameter Information Block
#MNEM.UNIT            Value               Description
#----------    --------------------    -------------------
 DATE.                   5/23/2012:    Date As Month-Day-Year
 RUN .                         ONE:    Run Number
 PDAT.                          GL:    Permanent Datum
 EPD .FT                 7361.0000:    Elevation Of Perm. Datum
 LMF .                          KB:    Log Measured From
 FAPD.FT                   13.0000:    Feet Above Perm. Datum
 DMF .                          KB:    Drilling Measured From
 EKB .FT                 7374.0000:    Elevation Of Kelly Bushing
 EDF .FT                 7361.0000:    Elevation Of Derrick Floor
 EGL .FT                 7361.0000:    Elevation Of Ground Level
 TD  .FT                 2900.0000:    Total Depth
 DF  .         Pennsylvanian Hermo:    
 PROJ.                       Rmccs:    
 DD  .FT                 2898.0000:    Depth Driller
 DL  .FT                 2898.0000:    Depth Logger
 BLI .FT                 2896.0000:    Bottom Log Interval
 TLI .FT                    0.0000:    Top Log Interval
 CSIZ.IN                     9 5/8:    Casing Size
 CBD1.                         263:    Casing Bottom (Driller) 1
 CBL1.                         263:    Casing Bottom (Logger) 1
 BS  .IN                     8 3/4:    Bit Size
 DFT .                    GEL CHEM:    Drilling Fluid Type
 DFV .S                    60.0000:    Drilling Fluid Viscosity
 DFD .LB/G                  8.9000:    Drilling Fluid Density
 DFL .ML                    3.0000:    Drilling Fluid Loss
 DFPH.                      9.0000:    Drilling Fluid Ph
 MSS .                   Flow line:    Mud Sample Source
 RMS .OHMM                  5.1400:    Resistivity Of Mud Sample
 MST .DEGF                 90.0000:    Mud Sample Temperature
 RMF .OHMM                  3.1000:    Mud Filtrate Resistivity
 MFST.DEGF                 70.0000:    Mud Filtrate Sample Temperature
 MFSS.                        MEAS:    Mud Filtrate Sample Source
 RMB .OHMM                  4.6200:    Mud Resistivity At Bht
 BHT .DEGF                 99.0000:    Bottom Hole Temperature
 TCS .                 5 1/2 hours:    Time Circulation Stopped
 MRT .DEGF                 99.0000:    Maximum Recorded Temperature
 LUN .                        3860:    Logging Unit Number
 LUL .                  Farmington:    Logging Unit Location
 ENGI.                      Brooks:    Engineer'S Name
 WITN.                 Hassenfratz:    Witness' Name
 DGBY.                         slr:    
 WSTA.                         OIL:    
#
~Other Information Block
<DescLogPlotStart>   NEURALOG PLOT DEFINITION
PLOTDEFVERSION: 3
LASFILE: C:\nds\projects\Rmccs\las\0384BHCS_2.las
DEPTHSCALE: 600.000013
RESOLUTION: 200
DEPTHLABELFREQ: 100.000000
HEAVYGRIDFREQ: 50.000000
MEDIUMGRIDFREQ: 50.000000
LIGHTGRIDFREQ: 50.000000
#
#   TRACK 1
#
STARTTRACK: 
 LEFTX: 0.500000 inch
 RIGHTX: 3.000000 inch
 SCALETYPE: Linear
 NUMCHARTDIVISIONS: 10
CURVE: GR    0.000000   160.000000 (0,0,255)      Solid             2     N    
CURVE: CALI  6.000000   16.000000  (0,131,131)    Dot               2     N    
CURVE: BIT   6.000000   16.000000  (255,0,255)    Short_Dash        2     N    
ENDTRACK: 
#
#   TRACK 2
#
STARTTRACK: 
 LEFTX: 3.500000 inch
 RIGHTX: 8.500000 inch
 SCALETYPE: Linear
 NUMCHARTDIVISIONS: 21
CURVE: DT    100.000000 40.000000  (255,0,0)      Solid             2     Y    
BACKUP: 160.000000 100.000000 (255,131,0)    Solid             2    
ENDTRACK: 
<DescLogPlotEnd>
<DescLog>Borehole Compensated Sonic
<DescOSVS>IES, CBL
<DescOSVS>FDC/GR
<DescOSVS>
IAP failed to step between 0932' and 0892'
~A DEPTH     GR               CALI             DT               BIT             
# ...
    2871.500 46.81489864      8.90883197       57.62499910      8.74471984      
    2872.000 46.13712219      8.92565600       58.40081307      8.74471610      
    2872.500 45.74467562      8.92340815       58.52913084      8.74471235      
    2873.000 46.15118203      8.92455542       58.48403955      8.74470861      
    2873.500 46.69625535      8.92397178       58.01917890      8.74470486      
    2874.000 47.30262538      8.92424401       58.08690340      8.74470111      
    2874.500 47.90721423      8.92424401       58.38547953      8.74469737      
    2875.000 46.23788928      8.92400549       58.61661374      8.74469362      
    2875.500 43.13504387      8.92453529       58.84256090      8.74468988      
    2876.000 41.60488773      8.92351349       58.88580119      8.74468613      
    2876.500 42.36222880      8.92549616       58.99120241      8.74468239      
    2877.000 43.31189513      8.90918597       59.28220225      8.74467864      
    2877.500 44.41598578      8.90286664       59.82221094      8.74467490      
    2878.000 45.44934758      8.90490827       59.51195219      8.74467115      
    2878.500 46.51607629      8.90365771       59.15338645      8.74466740      
    2879.000 47.66103965      8.90473504       59.33266932      8.74466366      
    2879.500 48.23859293      8.90344807       59.63147410      8.74465991      
    2880.000 48.02041660      8.90555621       60.04980080      8.74465617      
    2880.500 46.06480064      8.88915398       60.22908367      8.74465242      
    2881.000 43.35882205      8.88290136       59.94402390      8.74464868      
    2881.500 41.59749868      8.88484750       59.69123506      8.74464493      
    2882.000 41.98288926      8.88374091       59.33266932      8.74464118      
    2882.500 42.69979685      8.88457519       59.33266932      8.74463744      
    2883.000 43.46867251      8.88366422       60.16932271      8.74463369      
    2883.500 44.21563721      8.88501864       60.28884462      8.74462995      
    2884.000 44.97336628      8.88253618       60.64741036      8.74462620      
    2884.500 45.73828281      8.88980301       60.94621514      8.74462246      
    2885.000 46.47902897      8.90421754       61.90239044      8.74461871      
    2885.500 47.25411998      8.91313154       64.59163347      8.74461497      
    2886.000 47.96358737      8.92585767       67.57968127      8.74461122      
    2886.500 49.18837144      8.92338229       71.34462151      8.74460747      
    2887.000 49.78413096      8.92462030       73.49601594      8.74460373      
    2887.500 48.52128845      8.92405543       74.87051793      8.74459998      
    2888.000 44.10058126      8.92414377       76.00597610      8.74459624      
    2888.500 42.83350636      8.92447654       76.60358566      8.74459249      
    2889.000 45.79122744      8.92359200       77.32071713      8.74458875      
    2889.500 49.67034623      8.92544816       -999.25000000    8.74458500      
    2890.000 50.29647401      8.91919555       -999.25000000    8.74458125      
    2890.500 48.52697940      8.90284715       -999.25000000    8.74457751      
    2891.000 45.43288743      8.90479611       -999.25000000    8.74457376      
    2891.500 43.87254331      8.90382816       -999.25000000    8.74457002      
    2892.000 45.34576475      8.90427068       -999.25000000    8.74456627      
    2892.500 49.12573139      8.90423062       -999.25000000    8.74456253      
    2893.000 50.84709571      8.90387062       -999.25000000    8.74455878      
    2893.500 51.86299421      8.90474925       -999.25000000    8.74455504      
    2894.000 51.05347934      8.90289515       -999.25000000    8.74455129      
    2894.500 48.07559571      8.90914777       -999.25000000    8.74454754      
    2895.000 37.00303996      8.92549616       -999.25000000    8.74454380      
    2895.500 21.41122412      8.92351349       -999.25000000    8.74454005      
    2896.000 6.08959774       8.92453529       -999.25000000    8.74453630      
    2896.500 1.10176167       8.92396729       -999.25000000    8.74453256      
    2897.000 0.86437283       8.92427252       -999.25000000    8.74452880      
    2897.500 0.89009579       8.92412319       -999.25000000    8.74452507      
    2898.000 0.83547335       8.92418990       -999.25000000    8.74452128      
    2898.500 0.71416071       8.92415170       -999.25000000    8.74451760      
    2899.000 0.78678424       8.92415170       -999.25000000    8.74451371      
    2899.500 0.77511651       8.92415170       -999.25000000    8.74451103      
    2900.000 0.79816292       8.92415170       -999.25000000    8.74451097      
