~Version Information Block
 VERS.                2.00:     CWLS LOG ASCII STANDARD - VERSION 2.000000
 WRAP.                  NO:     One Line Per Depth Step
#
~Well Information Block
#MNEM.UNIT                     Data                         Information
#----------   ------------------------------------------   ----------------
 STRT.FT                                      250.0000:     START DEPTH
 STOP.FT                                     2900.0000:     STOP DEPTH
 STEP.FT                                        0.5000:     STEP
 NULL.                                       -999.2500:     NULL VALUE
 COMP.                          Kerr-McGee Corporation:     COMPANY
 WELL.                                       Navajo #4:     WELL
 FLD .                                  Dineh-bi-Keyah:     FIELD
 LOC .                             0870' FEL 1720' FNL:     LOCATION
 SEC .                                              32:     SECTION
 TWP .                                             36N:     TOWNSHIP
 RANG.                                             30E:     RANGE
 CNTY.                                          Apache:     COUNTY
 STAT.                                         Arizona:     STATE
 CTRY.                                             USA:     COUNTRY
 SRVC.                                    Schlumberger:     SERVICE COMPANY
 DATE.                                                :     DATE
 API .                                    02-001-20009:     API NUMBER
 UWI .                                    02-001-20009:     UWI NUMBER
 TVD .                                              NO:     TVD flag
 WSTA.                                             OIL:     Well status
#
~Curve Information Block
#MNEM.UNIT       API CODE      Curve Description
#----------    -------------   -------------------
 DEPT.FT                   :   Depth in Feet
 SP  .MV       05 010 01 01:   Spontaneous Potential
 ILD .OHMM     05 120 46 01:   Deep Induction Standard Processed Resistivity
 SN  .OHMM     05 040 16 01:   Short Normal
 CILD.MMHO     05 110 46 01:   Deep Induction Standard Processed Conductivity
#
~Parameter Information Block
#MNEM.UNIT            Value               Description
#----------    --------------------    -------------------
 DATE.                    5/9/2012:    Date As Month-Day-Year
 RUN .                         ONE:    Run Number
 PDAT.                          GL:    Permanent Datum
 EPD .FT                 7361.0000:    Elevation Of Perm. Datum
 LMF .                          KB:    Log Measured From
 FAPD.FT                   13.0000:    Feet Above Perm. Datum
 DMF .                          KB:    Drilling Measured From
 EKB .FT                 7374.0000:    Elevation Of Kelly Bushing
 EDF .FT                 7373.0000:    Elevation Of Derrick Floor
 EGL .FT                 7361.0000:    Elevation Of Ground Level
 TD  .FT                 2898.0000:    Total Depth
 DF  .                     Hermosa:    
 PROJ.                       Rmccs:    
 DD  .FT                 2898.0000:    Depth Driller
 DL  .FT                 2899.0000:    Depth Logger
 BLI .FT                 2898.0000:    Bottom Log Interval
 TLI .FT                  264.0000:    Top Log Interval
 CSIZ.IN                     9 5/8:    Casing Size
 CBD1.                         263:    Casing Bottom (Driller) 1
 CBL1.                         264:    Casing Bottom (Logger) 1
 BS  .IN                     8 3/4:    Bit Size
 DFT .                    GEL-CHEM:    Drilling Fluid Type
 DFV .S                    60.0000:    Drilling Fluid Viscosity
 DFD .LB/G                  8.9000:    Drilling Fluid Density
 DFL .ML                    3.0000:    Drilling Fluid Loss
 DFPH.                      9.0000:    Drilling Fluid Ph
 MSS .                   FLOW LINE:    Mud Sample Source
 RMS .OHMM                  5.1400:    Resistivity Of Mud Sample
 MST .DEGF                 90.0000:    Mud Sample Temperature
 RMF .OHMM                  3.1000:    Mud Filtrate Resistivity
 MFST.DEGF                 70.0000:    Mud Filtrate Sample Temperature
 MFSS.                        CALC:    Mud Filtrate Sample Source
 RMC .OHMM                  0.0000:    Mud Cake Resistivity
 MCST.DEGF                  0.0000:    Mud Cake Sample Temperature
 MCSS.                        CALC:    Mud Cake Sample Source
 RMB .OHMM                  4.6200:    Mud Resistivity At Bht
 BHT .DEGF                 99.0000:    Bottom Hole Temperature
 TCS .                        2 hr:    Time Circulation Stopped
 MRT .DEGF                 99.0000:    Maximum Recorded Temperature
 LUN .                        3860:    Logging Unit Number
 LUL .                        FARM:    Logging Unit Location
 ENGI.                      Brooks:    Engineer'S Name
 WITN.             Mr. Hassenfratz:    Witness' Name
 DGBY.                         slr:    
 WSTA.                         OIL:    
#
~Other Information Block
<DescLogPlotStart>   NEURALOG PLOT DEFINITION
PLOTDEFVERSION: 3
LASFILE: C:\nds\projects\Rmccs\las\0384IEL.las
DEPTHSCALE: 600.000013
RESOLUTION: 200
DEPTHLABELFREQ: 100.000000
HEAVYGRIDFREQ: 50.000000
MEDIUMGRIDFREQ: 50.000000
LIGHTGRIDFREQ: 10.000000
#
#   TRACK 1
#
STARTTRACK: 
 LEFTX: 0.500000 inch
 RIGHTX: 3.000000 inch
 SCALETYPE: Linear
 NUMCHARTDIVISIONS: 10
CURVE: SP    0.000000   100.000000 (255,131,0)    Solid             2     Y    
BACKUP: 0.000000   200.000000 (255,131,0)    Solid             2    
BACKUP: -100.000000 0.000000   (255,131,0)    Solid             2    
ENDTRACK: 
#
#   TRACK 2
#
STARTTRACK: 
 LEFTX: 3.750000 inch
 RIGHTX: 6.250000 inch
 SCALETYPE: Linear
 NUMCHARTDIVISIONS: 10
CURVE: ILD   0.000000   100.000000 (0,0,156)      Solid             2     Y    
BACKUP: 0.000000   1000.000000 (0,0,156)      Solid             2    
BACKUP: -100.000000 0.000000   (0,0,156)      Solid             2    
CURVE: SN    0.000000   100.000000 (255,0,0)      Solid             2     Y    
BACKUP: 0.000000   1000.000000 (255,0,0)      Solid             2    
BACKUP: -100.000000 0.000000   (255,0,0)      Solid             2    
ENDTRACK: 
#
#   TRACK 3
#
STARTTRACK: 
 LEFTX: 6.250000 inch
 RIGHTX: 8.750000 inch
 SCALETYPE: Linear
 NUMCHARTDIVISIONS: 10
CURVE: CILD  400.000000 0.000000   (0,131,0)      Solid             2     N    
ENDTRACK: 
<DescLogPlotEnd>
<DescLog>Induction Electrical
<DescOSVS>BHC/GR
<DescOSVS>CBL
<DescOSVS>FDC/GR
~A DEPTH     SP               ILD              SN               CILD            
# ...
     794.500 38.28668149      345.26421542     145.26180388     2.61783432      
     795.000 38.35257243      344.34308978     145.36138278     2.61686617      
     795.500 38.50461019      357.71543086     145.14046559     2.61280554      
     796.000 38.53610541      361.72344689     146.83550049     2.60776115      
     796.500 38.73088962      363.72745491     147.36251021     2.60250844      
     797.000 38.54015603      369.73947896     147.37026732     2.19780220      
     797.500 38.49307077      366.83366733     145.83169622     2.59740260      
     798.000 38.50098002      365.73146293     145.13831542     2.59740260      
     798.500 38.50231938      351.70340681     145.38321428     2.59740260      
     799.000 38.49234110      347.69539078     145.22190592     2.59740260      
     799.500 38.64162382      333.51210390     145.38786316     2.99700300      
     800.000 38.77148649      323.61852712     144.72788881     2.99700300      
     800.500 38.82885597      315.83185510     143.91690154     3.00518442      
     801.000 39.06747120      305.29855921     141.72517155     3.00236642      
     801.500 38.96961127      305.83362334     141.20033992     3.00286298      
     802.000 38.84158823      303.65481486     141.27595531     3.00781655      
     802.500 38.65530228      305.49233793     141.37875150     3.01350410      
     803.000 38.34436043      305.24925625     140.80702840     3.01658591      
     803.500 38.15304826      297.01428821     139.11642048     3.41580714      
     804.000 37.93831094      298.23988130     139.37792168     3.41056067      
     804.500 37.88580901      284.89641481     139.17683781     3.39660340      
     805.000 38.02788770      282.99215711     139.42723809     3.39660340      
     805.500 38.29905289      281.10518479     138.76882467     3.39660340      
     806.000 38.68331531      277.93191934     137.14197485     3.39660340      
     806.500 39.15789955      273.87593769     137.33258783     3.39660340      
     807.000 39.66837423      269.72709493     137.23238906     3.39660340      
     807.500 39.87299214      267.53507014     137.28871229     3.39660340      
     808.000 40.32612721      267.53507014     137.26062184     3.79620380      
     808.500 40.64481019      253.50701403     137.26637188     3.79620380      
     809.000 40.87202432      260.01781340     137.27587343     3.79620380      
     809.500 40.86231734      279.26297039     138.23137432     4.37482517      
     810.000 40.70958874      298.50812737     137.89933176     3.73226773      
     810.500 40.86388457      317.75328435     140.15509224     2.99700300      
     811.000 40.88130851      339.67935872     141.39097811     2.99700300      
     811.500 40.98867499      305.61122244     141.17799596     2.99700300      
     812.000 41.37770482      299.59919840     142.64411982     3.39660340      
     812.500 41.50170257      303.60721443     143.95068732     2.99700300      
     813.000 41.50228752      303.60721443     145.24684887     2.99700300      
     813.500 41.50268660      321.64328657     146.70942113     2.99700300      
     814.000 41.47511522      327.65531062     148.76087709     2.19780220      
     814.500 41.09418817      457.91583166     151.20427045     1.79820180      
     815.000 40.84374256      477.95591182     154.09635572     1.39860140      
     815.500 40.64577208      476.33266533     155.23527416     1.39860140      
     816.000 40.48708764      462.44488978     156.74975608     1.39860140      
     816.500 40.50524028      431.86372745     158.83354224     1.79820180      
     817.000 40.49506419      427.85571142     159.89213964     2.19780220      
     817.500 40.50321039      413.82765531     161.44353128     2.19780220      
     818.000 40.49457582      400.16032064     161.28196985     2.19780220      
     818.500 40.50806370      391.78356713     161.35952305     2.59740260      
     819.000 40.48457278      365.41082164     161.30885067     2.59740260      
     819.500 40.55644065      341.83509877     161.33561745     3.98241758      
     820.000 40.65354391      328.60005726     161.30967313     3.57735924      
     820.500 40.47963592      315.36501575     161.33643991     3.04881404      
     821.000 40.34848265      301.60320641     161.28238299     3.42075907      
     821.500 40.19215707      298.66733467     161.36534187     3.39738543      
     822.000 40.05286419      295.59118236     161.19073154     2.98292924      
     822.500 39.90626473      307.74883100     162.76620386     2.97838347      
     823.000 39.90865074      329.65931864     163.77074587     2.98419015      
     823.500 39.75578846      357.85857429     166.04552414     2.99690280      
     824.000 39.67585169      386.63040366     167.21798182     2.61143650      
     824.500 39.72833662      415.40223304     169.17092701     2.22098510      
     825.000 39.62802011      431.86372745     173.44835675     1.82065681      
     825.500 39.54966294      460.06012024     176.95982475     1.81125944      
     826.000 39.69822079      473.94789579     179.09839379     1.79711972      
     826.500 39.73288218      480.51450291     183.58851763     1.78513466      
     827.000 39.44820387      479.77838494     187.15255649     1.38071000      
     827.500 39.07153830      482.14728285     192.64336561     1.38335719      
     828.000 38.96742116      482.06666449     194.83635466     1.39860140      
     828.500 38.88086277      482.02257877     196.89995483     1.39860140      
     829.000 38.90027653      482.00755421     199.25827850     1.39860140      
     829.500 38.93437683      481.97524842     203.42718607     1.39860140      
     830.000 39.19111700      481.96984301     206.46542980     1.39860140      
     830.500 39.56438400      481.96776345     209.87292185     1.39860140      
     831.000 39.47844290      481.96392786     211.08668123     0.99900100      
     831.500 39.00909725      481.96596704     215.07107900     0.99900100      
     832.000 38.77795869      481.96039918     217.83164495     0.99900100      
     832.500 38.62154962      481.97586046     221.22359314     0.99900100      
     833.000 38.51491793      481.95113458     221.65434723     0.99900100      
     833.500 38.43947111      482.00379623     223.79981875     0.99900100      
     834.000 38.30791384      481.96191034     223.29772314     0.99900100      
     834.500 38.10760136      481.87841709     223.78225250     0.99900100      
     835.000 37.86045020      480.96660854     221.50212262     1.39860140      
     835.500 37.94786800      482.11193916     219.53198622     1.39860140      
     836.000 38.15482573      479.97273073     216.91161927     1.39860140      
     836.500 38.42931168      475.17537261     213.22949546     1.39860140      
     837.000 38.71495919      476.88675215     210.89126221     1.39860140      
     837.500 39.03258965      458.61388188     207.45790558     1.79820180      
     838.000 39.45850454      433.56223432     203.78929520     1.79820180      
     838.500 39.73535162      433.98635593     201.83329012     2.19780220      
     839.000 39.82539436      431.95963665     201.58118269     1.39860140      
     839.500 39.95023850      431.95489557     199.82027880     1.39860140      
     840.000 39.71141184      451.15918426     199.29214164     1.39860140      
     840.500 39.43322704      467.88909996     199.65378897     1.39860140      
     841.000 39.03695107      482.00363650     197.54955906     0.99900100      
     841.500 38.06790615      484.05800865     199.63084436     0.99900100      
     842.000 37.35993349      483.96793587     199.09783525     0.99900100      
     842.500 36.71136214      483.96793587     200.93154947     0.99900100      
     843.000 36.35153364      481.96392786     199.85281367     0.99900100      
     843.500 36.09343136      479.95991984     198.76344311     0.99900100      
