~Version Information Block
 VERS.                2.00:     CWLS LOG ASCII STANDARD - VERSION 2.000000
 WRAP.                  NO:     One Line Per Depth Step
#
~Well Information Block
#MNEM.UNIT                     Data                         Information
#----------   ------------------------------------------   ----------------
 STRT.FT                                       50.0000:     START DEPTH
 STOP.FT                                     2900.0000:     STOP DEPTH
 STEP.FT                                        0.5000:     STEP
 NULL.                                       -999.2500:     NULL VALUE
 COMP.                          Kerr-McGee Corporation:     COMPANY
 WELL.                                       Navajo #4:     WELL
 FLD .                                  Dineh-bi-Keyah:     FIELD
 LOC .                            870' FEL & 1720' FNL:     LOCATION
 SEC .                                              32:     SECTION
 TWP .                                             36N:     TOWNSHIP
 RANG.                                             30E:     RANGE
 CNTY.                                          Apache:     COUNTY
 STAT.                                         Arizona:     STATE
 CTRY.                                          U.S.A.:     COUNTRY
 SRVC.                                    Schlumberger:     SERVICE COMPANY
 DATE.                                      05/23/2012:     DATE
 API .                                    02-001-20009:     API NUMBER
 UWI .                                    02-001-20009:     UWI NUMBER
 TVD .                                              NO:     TVD flag
 WSTA.                                             OIL:     Well status
#
~Curve Information Block
#MNEM.UNIT       API CODE      Curve Description
#----------    -------------   -------------------
 DEPT.FT                   :   Depth in Feet
 GR  .GAPI     35 310 01 01:   Gamma Ray
 CALI.IN       70 280 01 01:   Caliper
 DT  .US/F     60 520 08 01:   Delta-T
 BIT .IN                   :   Bit size
#
~Parameter Information Block
#MNEM.UNIT            Value               Description
#----------    --------------------    -------------------
 DATE.                   5/23/2012:    Date As Month-Day-Year
 RUN .                         ONE:    Run Number
 PDAT.                          GL:    Permanent Datum
 EPD .FT                 7361.0000:    Elevation Of Perm. Datum
 LMF .                          KB:    Log Measured From
 FAPD.FT                   13.0000:    Feet Above Perm. Datum
 DMF .                          KB:    Drilling Measured From
 EKB .FT                 7374.0000:    Elevation Of Kelly Bushing
 EDF .FT                 7361.0000:    Elevation Of Derrick Floor
 EGL .FT                 7361.0000:    Elevation Of Ground Level
 TD  .FT                 2900.0000:    Total Depth
 DF  .         Pennsylvanian Hermo:    
 PROJ.                       Rmccs:    
 DD  .FT                 2898.0000:    Depth Driller
 DL  .FT                 2898.0000:    Depth Logger
 BLI .FT                 2896.0000:    Bottom Log Interval
 TLI .FT                    0.0000:    Top Log Interval
 CSIZ.IN                     9 5/8:    Casing Size
 CBD1.                         263:    Casing Bottom (Driller) 1
 CBL1.                         263:    Casing Bottom (Logger) 1
 BS  .IN                     8 3/4:    Bit Size
 DFT .                    GEL CHEM:    Drilling Fluid Type
 DFV .S                    60.0000:    Drilling Fluid Viscosity
 DFD .LB/G                  8.9000:    Drilling Fluid Density
 DFL .ML                    3.0000:    Drilling Fluid Loss
 DFPH.                      9.0000:    Drilling Fluid Ph
 MSS .                   Flow line:    Mud Sample Source
 RMS .OHMM                  5.1400:    Resistivity Of Mud Sample
 MST .DEGF                 90.0000:    Mud Sample Temperature
 RMF .OHMM                  3.1000:    Mud Filtrate Resistivity
 MFST.DEGF                 70.0000:    Mud Filtrate Sample Temperature
 MFSS.                        MEAS:    Mud Filtrate Sample Source
 RMB .OHMM                  4.6200:    Mud Resistivity At Bht
 BHT .DEGF                 99.0000:    Bottom Hole Temperature
 TCS .                 5 1/2 hours:    Time Circulation Stopped
 MRT .DEGF                 99.0000:    Maximum Recorded Temperature
 LUN .                        3860:    Logging Unit Number
 LUL .                  Farmington:    Logging Unit Location
 ENGI.                      Brooks:    Engineer'S Name
 WITN.                 Hassenfratz:    Witness' Name
 DGBY.                         slr:    
 WSTA.                         OIL:    
#
~Other Information Block
<DescLogPlotStart>   NEURALOG PLOT DEFINITION
PLOTDEFVERSION: 3
LASFILE: C:\nds\projects\Rmccs\las\0384BHCS_2.las
DEPTHSCALE: 600.000013
RESOLUTION: 200
DEPTHLABELFREQ: 100.000000
HEAVYGRIDFREQ: 50.000000
MEDIUMGRIDFREQ: 50.000000
LIGHTGRIDFREQ: 50.000000
#
#   TRACK 1
#
STARTTRACK: 
 LEFTX: 0.500000 inch
 RIGHTX: 3.000000 inch
 SCALETYPE: Linear
 NUMCHARTDIVISIONS: 10
CURVE: GR    0.000000   160.000000 (0,0,255)      Solid             2     N    
CURVE: CALI  6.000000   16.000000  (0,131,131)    Dot               2     N    
CURVE: BIT   6.000000   16.000000  (255,0,255)    Short_Dash        2     N    
ENDTRACK: 
#
#   TRACK 2
#
STARTTRACK: 
 LEFTX: 3.500000 inch
 RIGHTX: 8.500000 inch
 SCALETYPE: Linear
 NUMCHARTDIVISIONS: 21
CURVE: DT    100.000000 40.000000  (255,0,0)      Solid             2     Y    
BACKUP: 160.000000 100.000000 (255,131,0)    Solid             2    
ENDTRACK: 
<DescLogPlotEnd>
<DescLog>Borehole Compensated Sonic
<DescOSVS>IES, CBL
<DescOSVS>FDC/GR
<DescOSVS>
IAP failed to step between 0932' and 0892'
~A DEPTH     GR               CALI             DT               BIT             
# ...
     941.000 38.48699999      9.19762174       88.39341583      8.75918169      
     941.500 38.50784445      9.14112481       88.02817922      8.75917794      
     942.000 37.94009121      9.12212127       87.72494370      8.75917420      
     942.500 36.42531775      9.12479270       87.24256747      8.75917045      
     943.000 35.30731577      9.12825517       87.00107567      8.75916671      
     943.500 34.70055667      9.13856078       87.23819604      8.75916296      
     944.000 34.83542763      9.14521068       87.65425015      8.75915922      
     944.500 35.24174262      9.14229573       88.31015363      8.75915547      
     945.000 35.49829559      9.14551454       88.72675225      8.75915172      
     945.500 36.68515951      9.13808273       89.44472193      8.75914798      
     946.000 37.61683587      9.12334110       88.84836431      8.75914423      
     946.500 38.32883523      9.12265505       88.60360485      8.75914049      
     947.000 41.16965311      9.13904634       88.37554643      8.75913674      
     947.500 41.93727492      9.14389813       88.43476940      8.75913300      
     948.000 42.01661768      9.15799159       88.97011914      8.75912925      
     948.500 41.25368350      9.16548712       89.14418856      8.75912550      
     949.000 41.85094363      9.16288801       89.34957098      8.75912176      
     949.500 43.84340417      9.16455518       89.01571661      8.75911801      
     950.000 49.49036675      9.15973621       88.12092607      8.75911427      
     950.500 51.54284568      9.15138918       87.56597925      8.75911052      
     951.000 51.16181330      9.14634895       87.16828867      8.75910678      
     951.500 51.04287257      9.13869265       87.17777494      8.75910303      
     952.000 50.50105840      9.12078527       87.42031873      8.75909929      
     952.500 50.04465370      9.08035964       88.01792829      8.75909554      
     953.000 49.24575544      9.00924890       88.37649402      8.75909179      
     953.500 46.69295803      8.94718595       89.27290837      8.75908805      
     954.000 43.22324927      8.90822859       88.97410359      8.75908430      
     954.500 42.28510315      8.88526182       88.79482072      8.75908056      
     955.000 41.66093084      8.85689528       88.49601594      8.75907681      
     955.500 41.31711160      8.83082581       88.73505976      8.75907307      
     956.000 41.41753439      8.81701052       89.15338645      8.75906932      
     956.500 41.95667071      8.80514109       89.63147410      8.75906557      
     957.000 41.96955532      8.79895831       89.99003984      8.75906183      
     957.500 42.01583431      8.78410148       89.75099602      8.75905808      
     958.000 39.55890085      8.77006736       89.33266932      8.75905434      
     958.500 35.77570850      8.76263403       89.33266932      8.75905059      
     959.000 34.67993660      8.76513106       89.09362550      8.75904685      
     959.500 33.77540987      8.76395813       89.03386454      8.75904310      
     960.000 32.59314221      8.76431649       88.41183423      8.75903936      
     960.500 31.63860554      8.76452856       87.30987927      8.75903561      
     961.000 33.06906709      8.76345237       85.93021699      8.75903186      
     961.500 35.78348500      8.76832770       84.95886313      8.75902812      
     962.000 38.22994273      8.79964039       83.87011284      8.75902437      
     962.500 40.91069913      8.81891713       82.83639208      8.75902063      
     963.000 43.01353520      8.84172462       82.96143922      8.75901688      
     963.500 47.94848622      8.89036382       83.59561753      8.75901314      
     964.000 52.11614682      8.94107623       85.08964143      8.75900939      
     964.500 52.66383594      8.95823426       85.92629482      8.75900564      
     965.000 53.63109661      8.97945796       86.58366534      8.75900190      
     965.500 53.86546766      8.99900239       86.70318725      8.75899815      
     966.000 54.25591023      9.00858885       86.94223108      8.75899441      
     966.500 53.39512657      9.04239587       87.24103586      8.75899066      
     967.000 52.05625121      9.08564551       87.71912351      8.75898692      
     967.500 50.94579227      9.10881544       87.71912351      8.75898317      
     968.000 49.70336380      9.13996904       87.89840637      8.75897943      
     968.500 48.57717459      9.14373299       87.59960159      8.75897568      
     969.000 46.07391276      9.15780259       87.06175299      8.75897193      
     969.500 43.56248033      9.17867420       86.46414343      8.75896819      
     970.000 44.68609446      9.18988975       85.56772908      8.75896444      
     970.500 46.43523320      9.20340418       85.62749004      8.75896070      
     971.000 46.80463586      9.20826476       85.80677291      8.75895695      
     971.500 46.39092598      9.22479175       87.55833507      8.75895321      
     972.000 44.50441537      9.22345224       89.87773631      8.75894946      
     972.500 43.67396197      9.22246133       91.71128533      8.75894571      
     973.000 43.35743699      9.22858725       93.00548871      8.75894197      
     973.500 42.98261496      9.24402027       93.82610940      8.75893822      
     974.000 43.23897041      9.24673064       93.75730160      8.75893448      
     974.500 43.69282206      9.26931193       93.63465271      8.75893073      
     975.000 43.97929148      9.28770812       93.39565845      8.75892699      
     975.500 44.28515664      9.30894108       93.39641434      8.75892324      
     976.000 45.31689215      9.33739475       93.27689243      8.75891950      
     976.500 47.71802416      9.36248119       93.21713147      8.75891575      
     977.000 49.03085481      9.39132240       93.09760956      8.75891200      
     977.500 49.64500606      9.40187163       93.03784861      8.75890826      
     978.000 50.11716526      9.41884956       93.09760956      8.75890451      
     978.500 49.51602012      9.42330872       93.15737052      8.75890077      
     979.000 48.88832719      9.43744884       93.15737052      8.75889702      
     979.500 47.82027816      9.44564721       93.21713147      8.75889328      
     980.000 46.07059279      9.44996373       93.23266932      8.75888953      
     980.500 44.13928662      9.45817465       93.25693227      8.75888578      
     981.000 43.17617300      9.46271120       93.27689243      8.75888204      
     981.500 44.33334713      9.46320169       93.27689243      8.75887829      
     982.000 46.13461136      9.46320116       93.09760956      8.75887455      
     982.500 48.09364445      9.46293074       92.97808765      8.75887080      
     983.000 48.66103033      9.46345288       92.97808765      8.75886706      
     983.500 48.36740369      9.46245573       93.09760956      8.75886331      
     984.000 47.37357428      9.46435201       93.09760956      8.75885957      
     984.500 46.86497108      9.44819097       92.91832669      8.75885582      
     985.000 46.77017357      9.44159757       92.67928287      8.75885207      
     985.500 46.88541179      9.44429434       92.56304781      8.75884833      
     986.000 47.44919230      9.45174684       92.32071713      8.75884458      
     986.500 47.74354815      9.44813202       92.32071713      8.75884084      
     987.000 46.99950210      9.46476757       92.55976096      8.75883709      
     987.500 45.44086002      9.45209850       92.79880478      8.75883335      
     988.000 44.85706311      9.46473992       92.91832669      8.75882960      
     988.500 45.34149076      9.44618848       92.97808765      8.75882585      
     989.000 45.69551665      9.38736366       93.09760956      8.75882211      
     989.500 46.46781530      9.34451641       92.85856574      8.75881836      
     990.000 44.56060234      9.33129242       92.90159363      8.75881462      
