~Version Information Block
 VERS.                2.00:     CWLS LOG ASCII STANDARD - VERSION 2.000000
 WRAP.                  NO:     One Line Per Depth Step
#
~Well Information Block
#MNEM.UNIT                     Data                         Information
#----------   ------------------------------------------   ----------------
 STRT.FT                                      250.0000:     START DEPTH
 STOP.FT                                     2900.0000:     STOP DEPTH
 STEP.FT                                        0.5000:     STEP
 NULL.                                       -999.2500:     NULL VALUE
 COMP.                          Kerr-McGee Corporation:     COMPANY
 WELL.                                       Navajo #4:     WELL
 FLD .                                  Dineh-bi-Keyah:     FIELD
 LOC .                             0870' FEL 1720' FNL:     LOCATION
 SEC .                                              32:     SECTION
 TWP .                                             36N:     TOWNSHIP
 RANG.                                             30E:     RANGE
 CNTY.                                          Apache:     COUNTY
 STAT.                                         Arizona:     STATE
 CTRY.                                             USA:     COUNTRY
 SRVC.                                    Schlumberger:     SERVICE COMPANY
 DATE.                                                :     DATE
 API .                                    02-001-20009:     API NUMBER
 UWI .                                    02-001-20009:     UWI NUMBER
 TVD .                                              NO:     TVD flag
 WSTA.                                             OIL:     Well status
#
~Curve Information Block
#MNEM.UNIT       API CODE      Curve Description
#----------    -------------   -------------------
 DEPT.FT                   :   Depth in Feet
 SP  .MV       05 010 01 01:   Spontaneous Potential
 ILD .OHMM     05 120 46 01:   Deep Induction Standard Processed Resistivity
 SN  .OHMM     05 040 16 01:   Short Normal
 CILD.MMHO     05 110 46 01:   Deep Induction Standard Processed Conductivity
#
~Parameter Information Block
#MNEM.UNIT            Value               Description
#----------    --------------------    -------------------
 DATE.                    5/9/2012:    Date As Month-Day-Year
 RUN .                         ONE:    Run Number
 PDAT.                          GL:    Permanent Datum
 EPD .FT                 7361.0000:    Elevation Of Perm. Datum
 LMF .                          KB:    Log Measured From
 FAPD.FT                   13.0000:    Feet Above Perm. Datum
 DMF .                          KB:    Drilling Measured From
 EKB .FT                 7374.0000:    Elevation Of Kelly Bushing
 EDF .FT                 7373.0000:    Elevation Of Derrick Floor
 EGL .FT                 7361.0000:    Elevation Of Ground Level
 TD  .FT                 2898.0000:    Total Depth
 DF  .                     Hermosa:    
 PROJ.                       Rmccs:    
 DD  .FT                 2898.0000:    Depth Driller
 DL  .FT                 2899.0000:    Depth Logger
 BLI .FT                 2898.0000:    Bottom Log Interval
 TLI .FT                  264.0000:    Top Log Interval
 CSIZ.IN                     9 5/8:    Casing Size
 CBD1.                         263:    Casing Bottom (Driller) 1
 CBL1.                         264:    Casing Bottom (Logger) 1
 BS  .IN                     8 3/4:    Bit Size
 DFT .                    GEL-CHEM:    Drilling Fluid Type
 DFV .S                    60.0000:    Drilling Fluid Viscosity
 DFD .LB/G                  8.9000:    Drilling Fluid Density
 DFL .ML                    3.0000:    Drilling Fluid Loss
 DFPH.                      9.0000:    Drilling Fluid Ph
 MSS .                   FLOW LINE:    Mud Sample Source
 RMS .OHMM                  5.1400:    Resistivity Of Mud Sample
 MST .DEGF                 90.0000:    Mud Sample Temperature
 RMF .OHMM                  3.1000:    Mud Filtrate Resistivity
 MFST.DEGF                 70.0000:    Mud Filtrate Sample Temperature
 MFSS.                        CALC:    Mud Filtrate Sample Source
 RMC .OHMM                  0.0000:    Mud Cake Resistivity
 MCST.DEGF                  0.0000:    Mud Cake Sample Temperature
 MCSS.                        CALC:    Mud Cake Sample Source
 RMB .OHMM                  4.6200:    Mud Resistivity At Bht
 BHT .DEGF                 99.0000:    Bottom Hole Temperature
 TCS .                        2 hr:    Time Circulation Stopped
 MRT .DEGF                 99.0000:    Maximum Recorded Temperature
 LUN .                        3860:    Logging Unit Number
 LUL .                        FARM:    Logging Unit Location
 ENGI.                      Brooks:    Engineer'S Name
 WITN.             Mr. Hassenfratz:    Witness' Name
 DGBY.                         slr:    
 WSTA.                         OIL:    
#
~Other Information Block
<DescLogPlotStart>   NEURALOG PLOT DEFINITION
PLOTDEFVERSION: 3
LASFILE: C:\nds\projects\Rmccs\las\0384IEL.las
DEPTHSCALE: 600.000013
RESOLUTION: 200
DEPTHLABELFREQ: 100.000000
HEAVYGRIDFREQ: 50.000000
MEDIUMGRIDFREQ: 50.000000
LIGHTGRIDFREQ: 10.000000
#
#   TRACK 1
#
STARTTRACK: 
 LEFTX: 0.500000 inch
 RIGHTX: 3.000000 inch
 SCALETYPE: Linear
 NUMCHARTDIVISIONS: 10
CURVE: SP    0.000000   100.000000 (255,131,0)    Solid             2     Y    
BACKUP: 0.000000   200.000000 (255,131,0)    Solid             2    
BACKUP: -100.000000 0.000000   (255,131,0)    Solid             2    
ENDTRACK: 
#
#   TRACK 2
#
STARTTRACK: 
 LEFTX: 3.750000 inch
 RIGHTX: 6.250000 inch
 SCALETYPE: Linear
 NUMCHARTDIVISIONS: 10
CURVE: ILD   0.000000   100.000000 (0,0,156)      Solid             2     Y    
BACKUP: 0.000000   1000.000000 (0,0,156)      Solid             2    
BACKUP: -100.000000 0.000000   (0,0,156)      Solid             2    
CURVE: SN    0.000000   100.000000 (255,0,0)      Solid             2     Y    
BACKUP: 0.000000   1000.000000 (255,0,0)      Solid             2    
BACKUP: -100.000000 0.000000   (255,0,0)      Solid             2    
ENDTRACK: 
#
#   TRACK 3
#
STARTTRACK: 
 LEFTX: 6.250000 inch
 RIGHTX: 8.750000 inch
 SCALETYPE: Linear
 NUMCHARTDIVISIONS: 10
CURVE: CILD  400.000000 0.000000   (0,131,0)      Solid             2     N    
ENDTRACK: 
<DescLogPlotEnd>
<DescLog>Induction Electrical
<DescOSVS>BHC/GR
<DescOSVS>CBL
<DescOSVS>FDC/GR
~A DEPTH     SP               ILD              SN               CILD            
# ...
    2873.500 181.34948653     81.58817635      127.31529954     13.38661339     
    2874.000 181.42317801     76.07715431      125.53828714     14.18609770     
    2874.500 181.37787665     70.56613226      124.14573572     14.78114048     
    2875.000 181.41719191     66.38276553      123.01281209     15.57554938     
    2875.500 181.36711632     66.03206413      127.26293109     16.97185880     
    2876.000 181.69819360     62.72545090      124.74439793     17.57097720     
    2876.500 182.07532427     58.65178168      120.92938153     18.98104772     
    2877.000 182.61051101     54.39089164      117.19367928     20.19982958     
    2877.500 183.05746828     52.72714794      -999.25000000    21.57842158     
    2878.000 182.96566297     51.33818286      -999.25000000    23.77622378     
    2878.500 183.04442086     48.56127423      -999.25000000    25.37462537     
    2879.000 182.69108719     41.62093579      -999.25000000    27.37262737     
    2879.500 182.59106166     40.21820922      -999.25000000    28.17182817     
    2880.000 182.46614851     36.27888818      93.29488305      27.37262737     
    2880.500 182.07185632     30.16080121      95.43066464      13.38661339     
    2881.000 181.86100544     23.87701633      92.88706098      -999.25000000   
    2881.500 181.68846214     21.90265786      92.78588156      -999.25000000   
    2882.000 181.39963379     21.21555405      90.73476216      -999.25000000   
    2882.500 181.33275068     18.84040257      88.76863057      -999.25000000   
    2883.000 180.70302386     17.15295138      87.26742056      -999.25000000   
    2883.500 180.25091218     15.65074823      86.36429317      -999.25000000   
    2884.000 179.37999537     13.75350216      82.75053090      -999.25000000   
    2884.500 178.93543512     12.33618685      78.28005831      -999.25000000   
    2885.000 178.01523438     14.65897714      73.36848752      -999.25000000   
    2885.500 176.34737535     18.12570585      67.01098611      -999.25000000   
    2886.000 174.73979314     18.92897387      61.90865149      -999.25000000   
    2886.500 172.82140688     14.25081481      43.67749563      -999.25000000   
    2887.000 168.59554778     10.85817389      32.12327042      -999.25000000   
    2887.500 163.40000000     7.06151299       24.99848205      -999.25000000   
    2888.000 155.00000000     -999.25000000    20.16240750      -999.25000000   
    2888.500 142.20000000     -999.25000000    14.76484050      -999.25000000   
    2889.000 101.00000000     -999.25000000    9.24580938       -999.25000000   
    2889.500 87.40000000      -999.25000000    4.28249053       -999.25000000   
    2890.000 10.60000000      -999.25000000    3.23801452       -999.25000000   
    2890.500 7.40000000       -999.25000000    2.80899699       -999.25000000   
    2891.000 18.60000000      -999.25000000    2.52118875       -999.25000000   
    2891.500 24.60000000      -999.25000000    4.61418011       -999.25000000   
    2892.000 67.89000000      -999.25000000    23.21432532      -999.25000000   
    2892.500 98.60000000      -999.25000000    38.99837607      -999.25000000   
    2893.000 106.93866667     -999.25000000    59.11823647      -999.25000000   
    2893.500 114.04066667     -999.25000000    78.45691383      -999.25000000   
    2894.000 119.80000000     -999.25000000    83.66733467      -999.25000000   
    2894.500 124.60000000     -999.25000000    100.85170341     -999.25000000   
    2895.000 129.40000000     -999.25000000    117.23446894     -999.25000000   
    2895.500 132.60000000     -999.25000000    130.26052104     -999.25000000   
    2896.000 135.40000000     -999.25000000    142.28456914     -999.25000000   
    2896.500 137.68600000     -999.25000000    147.29458918     -999.25000000   
    2897.000 138.60000000     -999.25000000    157.31462926     -999.25000000   
    2897.500 138.20000000     -999.25000000    162.32464930     -999.25000000   
    2898.000 138.20000000     -999.25000000    173.34669339     -999.25000000   
    2898.500 137.80000000     -999.25000000    179.35871743     -999.25000000   
    2899.000 137.40000000     -999.25000000    187.37474950     -999.25000000   
    2899.500 136.10094807     -999.25000000    80.36072144      -999.25000000   
    2900.000 135.72178950     -999.25000000    80.46092184      -999.25000000   
