~Version Information Block
 VERS.                2.00:     CWLS LOG ASCII STANDARD - VERSION 2.000000
 WRAP.                  NO:     One Line Per Depth Step
#
~Well Information Block
#MNEM.UNIT                     Data                         Information
#----------   ------------------------------------------   ----------------
 STRT.FT                                       50.0000:     START DEPTH
 STOP.FT                                     2900.0000:     STOP DEPTH
 STEP.FT                                        0.5000:     STEP
 NULL.                                       -999.2500:     NULL VALUE
 COMP.                          Kerr-McGee Corporation:     COMPANY
 WELL.                                       Navajo #4:     WELL
 FLD .                                  Dineh-bi-Keyah:     FIELD
 LOC .                            870' FEL & 1720' FNL:     LOCATION
 SEC .                                              32:     SECTION
 TWP .                                             36N:     TOWNSHIP
 RANG.                                             30E:     RANGE
 CNTY.                                          Apache:     COUNTY
 STAT.                                         Arizona:     STATE
 CTRY.                                          U.S.A.:     COUNTRY
 SRVC.                                    Schlumberger:     SERVICE COMPANY
 DATE.                                      05/23/2012:     DATE
 API .                                    02-001-20009:     API NUMBER
 UWI .                                    02-001-20009:     UWI NUMBER
 TVD .                                              NO:     TVD flag
 WSTA.                                             OIL:     Well status
#
~Curve Information Block
#MNEM.UNIT       API CODE      Curve Description
#----------    -------------   -------------------
 DEPT.FT                   :   Depth in Feet
 GR  .GAPI     35 310 01 01:   Gamma Ray
 CALI.IN       70 280 01 01:   Caliper
 DT  .US/F     60 520 08 01:   Delta-T
 BIT .IN                   :   Bit size
#
~Parameter Information Block
#MNEM.UNIT            Value               Description
#----------    --------------------    -------------------
 DATE.                   5/23/2012:    Date As Month-Day-Year
 RUN .                         ONE:    Run Number
 PDAT.                          GL:    Permanent Datum
 EPD .FT                 7361.0000:    Elevation Of Perm. Datum
 LMF .                          KB:    Log Measured From
 FAPD.FT                   13.0000:    Feet Above Perm. Datum
 DMF .                          KB:    Drilling Measured From
 EKB .FT                 7374.0000:    Elevation Of Kelly Bushing
 EDF .FT                 7361.0000:    Elevation Of Derrick Floor
 EGL .FT                 7361.0000:    Elevation Of Ground Level
 TD  .FT                 2900.0000:    Total Depth
 DF  .         Pennsylvanian Hermo:    
 PROJ.                       Rmccs:    
 DD  .FT                 2898.0000:    Depth Driller
 DL  .FT                 2898.0000:    Depth Logger
 BLI .FT                 2896.0000:    Bottom Log Interval
 TLI .FT                    0.0000:    Top Log Interval
 CSIZ.IN                     9 5/8:    Casing Size
 CBD1.                         263:    Casing Bottom (Driller) 1
 CBL1.                         263:    Casing Bottom (Logger) 1
 BS  .IN                     8 3/4:    Bit Size
 DFT .                    GEL CHEM:    Drilling Fluid Type
 DFV .S                    60.0000:    Drilling Fluid Viscosity
 DFD .LB/G                  8.9000:    Drilling Fluid Density
 DFL .ML                    3.0000:    Drilling Fluid Loss
 DFPH.                      9.0000:    Drilling Fluid Ph
 MSS .                   Flow line:    Mud Sample Source
 RMS .OHMM                  5.1400:    Resistivity Of Mud Sample
 MST .DEGF                 90.0000:    Mud Sample Temperature
 RMF .OHMM                  3.1000:    Mud Filtrate Resistivity
 MFST.DEGF                 70.0000:    Mud Filtrate Sample Temperature
 MFSS.                        MEAS:    Mud Filtrate Sample Source
 RMB .OHMM                  4.6200:    Mud Resistivity At Bht
 BHT .DEGF                 99.0000:    Bottom Hole Temperature
 TCS .                 5 1/2 hours:    Time Circulation Stopped
 MRT .DEGF                 99.0000:    Maximum Recorded Temperature
 LUN .                        3860:    Logging Unit Number
 LUL .                  Farmington:    Logging Unit Location
 ENGI.                      Brooks:    Engineer'S Name
 WITN.                 Hassenfratz:    Witness' Name
 DGBY.                         slr:    
 WSTA.                         OIL:    
#
~Other Information Block
<DescLogPlotStart>   NEURALOG PLOT DEFINITION
PLOTDEFVERSION: 3
LASFILE: C:\nds\projects\Rmccs\las\0384BHCS_2.las
DEPTHSCALE: 600.000013
RESOLUTION: 200
DEPTHLABELFREQ: 100.000000
HEAVYGRIDFREQ: 50.000000
MEDIUMGRIDFREQ: 50.000000
LIGHTGRIDFREQ: 50.000000
#
#   TRACK 1
#
STARTTRACK: 
 LEFTX: 0.500000 inch
 RIGHTX: 3.000000 inch
 SCALETYPE: Linear
 NUMCHARTDIVISIONS: 10
CURVE: GR    0.000000   160.000000 (0,0,255)      Solid             2     N    
CURVE: CALI  6.000000   16.000000  (0,131,131)    Dot               2     N    
CURVE: BIT   6.000000   16.000000  (255,0,255)    Short_Dash        2     N    
ENDTRACK: 
#
#   TRACK 2
#
STARTTRACK: 
 LEFTX: 3.500000 inch
 RIGHTX: 8.500000 inch
 SCALETYPE: Linear
 NUMCHARTDIVISIONS: 21
CURVE: DT    100.000000 40.000000  (255,0,0)      Solid             2     Y    
BACKUP: 160.000000 100.000000 (255,131,0)    Solid             2    
ENDTRACK: 
<DescLogPlotEnd>
<DescLog>Borehole Compensated Sonic
<DescOSVS>IES, CBL
<DescOSVS>FDC/GR
<DescOSVS>
IAP failed to step between 0932' and 0892'
~A DEPTH     GR               CALI             DT               BIT             
# ...
     446.000 81.31980319      10.24151697      120.94621514     8.76288985      
     446.500 82.11347267      10.22155689      120.94621514     8.76288611      
     447.000 83.07319557      9.72095808       121.12549801     8.76288236      
     447.500 84.83780328      9.48303393       121.24501992     8.76287862      
     448.000 85.35527416      9.24351297       126.26494024     8.76287487      
     448.500 89.35472427      9.15939291       131.82270916     8.76287113      
     449.000 94.44938688      9.24570959       132.00199203     8.76286738      
     449.500 96.03664540      9.25249155       134.09362550     8.76286364      
     450.000 95.81074779      9.21409629       132.55236956     8.76285989      
     450.500 93.96333399      9.12620686       131.76294821     8.76285614      
     451.000 90.39981935      9.06825576       131.67330677     8.76285240      
     451.500 85.30924391      9.00829919       131.67330677     8.76284865      
     452.000 80.41861999      8.92869712       133.43130142     8.76284491      
     452.500 74.45174047      8.79914480       134.75993645     8.76284116      
     453.000 73.22494470      8.79227285       134.49827908     8.76283742      
     453.500 73.97674766      8.76389314       133.22541994     8.76283367      
     454.000 74.91912814      8.97472222       133.46838471     8.76282992      
     454.500 76.61285200      9.22748624       133.85989589     8.76282618      
     455.000 77.49773477      9.62953628       134.51871704     8.76282243      
     455.500 77.43809601      10.16584804      -999.25000000    8.76281869      
     456.000 77.18725278      10.44268678      -999.25000000    8.76281494      
     456.500 75.99403164      10.67594473      -999.25000000    8.76281120      
     457.000 73.97796328      10.61522223      -999.25000000    8.76280745      
     457.500 72.27265571      10.58799567      -999.25000000    8.76280371      
     458.000 71.05561054      10.52791705      -999.25000000    8.76279996      
     458.500 70.19143536      10.46058053      -999.25000000    8.76279621      
     459.000 70.16635634      10.41731541      -999.25000000    8.76279247      
     459.500 70.45130719      10.42134649      -999.25000000    8.76278872      
     460.000 77.73115902      10.36292558      -999.25000000    8.76278498      
     460.500 83.53885917      10.26431532      -999.25000000    8.76278123      
     461.000 84.34736182      10.19411156      -999.25000000    8.76277749      
     461.500 86.94286748      10.22360643      -999.25000000    8.76277374      
     462.000 90.51489022      10.26091939      -999.25000000    8.76276999      
     462.500 89.77664080      10.41677691      -999.25000000    8.76276625      
     463.000 83.22772641      10.59523911      -999.25000000    8.76276250      
     463.500 75.15349926      10.30113360      -999.25000000    8.76275876      
     464.000 72.95076808      11.13628848      -999.25000000    8.76275501      
     464.500 72.35067958      12.21885864      -999.25000000    8.76275127      
     465.000 71.69238145      12.89288626      -999.25000000    8.76274752      
     465.500 70.96099706      12.81535619      -999.25000000    8.76274378      
     466.000 70.27462394      14.05900955      -999.25000000    8.76274003      
     466.500 69.48610853      13.96192912      -999.25000000    8.76273628      
     467.000 69.11162632      14.06186063      -999.25000000    8.76273254      
     467.500 69.12171130      12.66621819      -999.25000000    8.76272879      
     468.000 69.23167111      11.05988024      -999.25000000    8.76272505      
     468.500 69.24061800      11.05988024      -999.25000000    8.76272130      
     469.000 69.11214980      11.70718563      -999.25000000    8.76271756      
     469.500 68.94331392      12.43712575      -999.25000000    8.76271381      
     470.000 68.53919091      13.23752495      -999.25000000    8.76271006      
     470.500 68.51629203      14.99201597      -999.25000000    8.76270632      
     471.000 68.46130911      14.83233533      -999.25000000    8.76270257      
     471.500 68.92904828      14.71397206      -999.25000000    8.76269883      
     472.000 69.99867559      14.69146717      -999.25000000    8.76269508      
     472.500 70.33925399      14.78572724      -999.25000000    8.76269134      
     473.000 70.47810331      14.72427106      -999.25000000    8.76268759      
     473.500 70.11229346      13.18142256      -999.25000000    8.76268385      
     474.000 69.60627384      13.40704933      -999.25000000    8.76268010      
     474.500 68.95800958      14.27206013      -999.25000000    8.76267635      
     475.000 66.92701239      14.55306149      -999.25000000    8.76267261      
     475.500 65.35747321      14.69944599      -999.25000000    8.76266886      
     476.000 64.34207995      14.50265694      -999.25000000    8.76266512      
     476.500 63.64193708      13.33674952      -999.25000000    8.76266137      
     477.000 64.84422253      13.68445894      -999.25000000    8.76265763      
     477.500 65.71252010      14.31212098      -999.25000000    8.76265388      
     478.000 66.42057381      13.23928887      -999.25000000    8.76265013      
     478.500 66.51600488      12.70182309      -999.25000000    8.76264639      
     479.000 66.72706102      12.79263932      -999.25000000    8.76264264      
     479.500 65.23144792      14.35180981      -999.25000000    8.76263890      
     480.000 63.97948451      15.04422171      -999.25000000    8.76263515      
     480.500 64.10734856      15.05725354      -999.25000000    8.76263141      
     481.000 65.83475601      13.66860927      -999.25000000    8.76262766      
     481.500 67.39991100      12.77923794      -999.25000000    8.76262392      
     482.000 68.29156395      12.24721519      -999.25000000    8.76262017      
     482.500 69.23635809      12.32473818      -999.25000000    8.76261642      
     483.000 70.04681213      13.73893895      -999.25000000    8.76261268      
     483.500 70.94316650      13.57508748      -999.25000000    8.76260893      
     484.000 71.69469993      13.42194061      -999.25000000    8.76260519      
     484.500 72.32117655      12.88616029      -999.25000000    8.76260144      
     485.000 72.29795648      13.31935530      107.64940239     8.76259770      
     485.500 72.24902089      13.93296878      108.06772908     8.76259395      
     486.000 70.59709147      13.96707257      109.14342629     8.76259020      
     486.500 69.06674959      13.98957506      110.05776892     8.76258646      
     487.000 68.81435664      14.02117232      112.71835384     8.76258271      
     487.500 69.66267002      14.09220832      115.18547580     8.76257897      
     488.000 70.43481989      14.15264135      115.96624600     8.76257522      
     488.500 71.17281514      13.88528740      116.30654325     8.76257148      
     489.000 70.70801701      13.43173635      116.62340956     8.76256773      
     489.500 74.28228055      13.64168464      118.30531542     8.76256399      
     490.000 80.73100382      14.65105499      120.50819751     8.76256024      
     490.500 80.40539904      15.04754618      122.39890984     8.76255649      
     491.000 80.68755545      14.97751558      123.35461753     8.76255275      
     491.500 80.59468619      14.96578366      123.53330235     8.76254900      
     492.000 76.71291387      14.91668673      123.41412519     8.76254526      
     492.500 73.09347396      15.05996531      122.17444553     8.76254151      
     493.000 72.57956822      14.86143534      118.88961815     8.76253777      
     493.500 73.08638948      14.05098306      115.60143296     8.76253402      
     494.000 73.27791361      14.17729206      112.31327700     8.76253027      
     494.500 72.91521379      14.26213067      111.13063829     8.76252653      
     495.000 73.02845428      14.32632826      110.36852590     8.76252278      
