~Version Information Block
 VERS.                2.00:     CWLS LOG ASCII STANDARD - VERSION 2.000000
 WRAP.                  NO:     One Line Per Depth Step
#
~Well Information Block
#MNEM.UNIT                     Data                         Information
#----------   ------------------------------------------   ----------------
 STRT.FT                                       50.0000:     START DEPTH
 STOP.FT                                     2900.0000:     STOP DEPTH
 STEP.FT                                        0.5000:     STEP
 NULL.                                       -999.2500:     NULL VALUE
 COMP.                          Kerr-McGee Corporation:     COMPANY
 WELL.                                       Navajo #4:     WELL
 FLD .                                  Dineh-bi-Keyah:     FIELD
 LOC .                            870' FEL & 1720' FNL:     LOCATION
 SEC .                                              32:     SECTION
 TWP .                                             36N:     TOWNSHIP
 RANG.                                             30E:     RANGE
 CNTY.                                          Apache:     COUNTY
 STAT.                                         Arizona:     STATE
 CTRY.                                          U.S.A.:     COUNTRY
 SRVC.                                    Schlumberger:     SERVICE COMPANY
 DATE.                                      05/23/2012:     DATE
 API .                                    02-001-20009:     API NUMBER
 UWI .                                    02-001-20009:     UWI NUMBER
 TVD .                                              NO:     TVD flag
 WSTA.                                             OIL:     Well status
#
~Curve Information Block
#MNEM.UNIT       API CODE      Curve Description
#----------    -------------   -------------------
 DEPT.FT                   :   Depth in Feet
 GR  .GAPI     35 310 01 01:   Gamma Ray
 CALI.IN       70 280 01 01:   Caliper
 DT  .US/F     60 520 08 01:   Delta-T
 BIT .IN                   :   Bit size
#
~Parameter Information Block
#MNEM.UNIT            Value               Description
#----------    --------------------    -------------------
 DATE.                   5/23/2012:    Date As Month-Day-Year
 RUN .                         ONE:    Run Number
 PDAT.                          GL:    Permanent Datum
 EPD .FT                 7361.0000:    Elevation Of Perm. Datum
 LMF .                          KB:    Log Measured From
 FAPD.FT                   13.0000:    Feet Above Perm. Datum
 DMF .                          KB:    Drilling Measured From
 EKB .FT                 7374.0000:    Elevation Of Kelly Bushing
 EDF .FT                 7361.0000:    Elevation Of Derrick Floor
 EGL .FT                 7361.0000:    Elevation Of Ground Level
 TD  .FT                 2900.0000:    Total Depth
 DF  .         Pennsylvanian Hermo:    
 PROJ.                       Rmccs:    
 DD  .FT                 2898.0000:    Depth Driller
 DL  .FT                 2898.0000:    Depth Logger
 BLI .FT                 2896.0000:    Bottom Log Interval
 TLI .FT                    0.0000:    Top Log Interval
 CSIZ.IN                     9 5/8:    Casing Size
 CBD1.                         263:    Casing Bottom (Driller) 1
 CBL1.                         263:    Casing Bottom (Logger) 1
 BS  .IN                     8 3/4:    Bit Size
 DFT .                    GEL CHEM:    Drilling Fluid Type
 DFV .S                    60.0000:    Drilling Fluid Viscosity
 DFD .LB/G                  8.9000:    Drilling Fluid Density
 DFL .ML                    3.0000:    Drilling Fluid Loss
 DFPH.                      9.0000:    Drilling Fluid Ph
 MSS .                   Flow line:    Mud Sample Source
 RMS .OHMM                  5.1400:    Resistivity Of Mud Sample
 MST .DEGF                 90.0000:    Mud Sample Temperature
 RMF .OHMM                  3.1000:    Mud Filtrate Resistivity
 MFST.DEGF                 70.0000:    Mud Filtrate Sample Temperature
 MFSS.                        MEAS:    Mud Filtrate Sample Source
 RMB .OHMM                  4.6200:    Mud Resistivity At Bht
 BHT .DEGF                 99.0000:    Bottom Hole Temperature
 TCS .                 5 1/2 hours:    Time Circulation Stopped
 MRT .DEGF                 99.0000:    Maximum Recorded Temperature
 LUN .                        3860:    Logging Unit Number
 LUL .                  Farmington:    Logging Unit Location
 ENGI.                      Brooks:    Engineer'S Name
 WITN.                 Hassenfratz:    Witness' Name
 DGBY.                         slr:    
 WSTA.                         OIL:    
#
~Other Information Block
<DescLogPlotStart>   NEURALOG PLOT DEFINITION
PLOTDEFVERSION: 3
LASFILE: C:\nds\projects\Rmccs\las\0384BHCS_2.las
DEPTHSCALE: 600.000013
RESOLUTION: 200
DEPTHLABELFREQ: 100.000000
HEAVYGRIDFREQ: 50.000000
MEDIUMGRIDFREQ: 50.000000
LIGHTGRIDFREQ: 50.000000
#
#   TRACK 1
#
STARTTRACK: 
 LEFTX: 0.500000 inch
 RIGHTX: 3.000000 inch
 SCALETYPE: Linear
 NUMCHARTDIVISIONS: 10
CURVE: GR    0.000000   160.000000 (0,0,255)      Solid             2     N    
CURVE: CALI  6.000000   16.000000  (0,131,131)    Dot               2     N    
CURVE: BIT   6.000000   16.000000  (255,0,255)    Short_Dash        2     N    
ENDTRACK: 
#
#   TRACK 2
#
STARTTRACK: 
 LEFTX: 3.500000 inch
 RIGHTX: 8.500000 inch
 SCALETYPE: Linear
 NUMCHARTDIVISIONS: 21
CURVE: DT    100.000000 40.000000  (255,0,0)      Solid             2     Y    
BACKUP: 160.000000 100.000000 (255,131,0)    Solid             2    
ENDTRACK: 
<DescLogPlotEnd>
<DescLog>Borehole Compensated Sonic
<DescOSVS>IES, CBL
<DescOSVS>FDC/GR
<DescOSVS>
IAP failed to step between 0932' and 0892'
~A DEPTH     GR               CALI             DT               BIT             
# ...
    1634.000 36.07796781      9.57224368       56.46414343      8.75399026      
    1634.500 37.94528689      9.55559570       54.31274900      8.75398651      
    1635.000 39.53168937      9.58159655       54.49203187      8.75398277      
    1635.500 41.89707516      9.55397522       55.07559761      8.75397902      
    1636.000 44.65330087      9.52150429       55.56772908      8.75397527      
    1636.500 47.58142774      9.48312132       55.80677291      8.75397153      
    1637.000 50.43060801      9.45520614       55.80677291      8.75396778      
    1637.500 54.47470334      9.44413276       56.58366534      8.75396404      
    1638.000 60.25334918      9.43815599       57.53984064      8.75396029      
    1638.500 61.60930674      9.42197407       58.85458167      8.75395655      
    1639.000 60.96636408      9.42080476       59.81075697      8.75395280      
    1639.500 59.65327864      9.39513127       60.28884462      8.75394906      
    1640.000 58.14801879      9.38530921       60.58764940      8.75394531      
    1640.500 57.17125683      9.36336904       60.68864542      8.75394156      
    1641.000 57.26215281      9.34046356       60.80756972      8.75393782      
    1641.500 57.74551372      9.34456309       60.88645418      8.75393407      
    1642.000 57.90065460      9.34239565       60.94621514      8.75393033      
    1642.500 57.66542796      9.34371150       61.00597610      8.75392658      
    1643.000 56.78207539      9.34288353       61.24501992      8.75392284      
    1643.500 55.36318543      9.34363021       61.48406375      8.75391909      
    1644.000 55.48802551      9.34272604       61.48406375      8.75391534      
    1644.500 54.96881713      9.35688450       61.00597610      8.75391160      
    1645.000 53.79012917      9.38007264       60.16932271      8.75390785      
    1645.500 52.32658070      9.38329329       59.13868403      8.75390411      
    1646.000 51.75587411      9.38459049       58.54258185      8.75390036      
    1646.500 52.82314113      9.37828295       58.30883918      8.75389662      
    1647.000 53.93177645      9.36020027       58.61389983      8.75389287      
    1647.500 55.12971731      9.31908342       58.79851773      8.75388913      
    1648.000 56.25000102      9.27195288       58.32112632      8.75388538      
    1648.500 57.49490632      9.26391577       57.77928471      8.75388163      
    1649.000 58.91170501      9.26273583       57.23223375      8.75387789      
    1649.500 60.84427170      9.26615343       57.04186132      8.75387414      
    1650.000 62.82656759      9.27606005       57.41971012      8.75387040      
    1650.500 63.73891655      9.28591636       58.16336535      8.75386665      
    1651.000 63.30101673      9.29693971       59.23774582      8.75386291      
    1651.500 61.85941741      9.30441222       59.36472279      8.75385916      
    1652.000 60.43668325      9.30206214       59.43715100      8.75385541      
    1652.500 60.98113320      9.31784664       59.62936976      8.75385167      
    1653.000 62.21694622      9.32828314       59.63755503      8.75384792      
    1653.500 62.75777698      9.34898791       59.46048782      8.75384418      
    1654.000 62.57658220      9.36449211       59.39890449      8.75384043      
    1654.500 62.50974093      9.36245957       59.75350929      8.75383669      
    1655.000 62.36162476      9.36415054       60.34714444      8.75383294      
    1655.500 62.30692348      9.36167754       60.83765321      8.75382920      
    1656.000 62.10955710      9.36842702       60.58176177      8.75382545      
    1656.500 62.66690348      9.38406574       59.92462377      8.75382170      
    1657.000 63.98005568      9.38306213       59.09048450      8.75381796      
    1657.500 65.15400160      9.38197987       58.61609862      8.75381421      
    1658.000 66.41061911      9.40027266       58.43920143      8.75381047      
    1658.500 67.17145943      9.44528454       58.43846886      8.75380672      
    1659.000 66.33898708      9.47700056       58.49459314      8.75380298      
    1659.500 65.22354603      9.50273585       58.66965966      8.75379923      
    1660.000 64.28757561      9.54255905       58.84636618      8.75379548      
    1660.500 63.34046150      9.57769918       58.87733479      8.75379174      
    1661.000 63.06316782      9.60951175       58.90538922      8.75378799      
    1661.500 63.10930641      9.64615564       58.66591021      8.75378425      
    1662.000 63.49639512      9.70826460       58.66592601      8.75378050      
    1662.500 63.46562495      9.77759708       59.74653035      8.75377676      
    1663.000 65.46127317      9.82443663       61.06763871      8.75377301      
    1663.500 67.95468639      9.85754902       62.81099743      8.75376927      
    1664.000 65.84414680      9.87456767       63.91148447      8.75376552      
    1664.500 63.39916816      9.84483364       63.25167125      8.75376177      
    1665.000 61.24422080      9.84564078       62.32071713      8.75375803      
    1665.500 62.64220446      9.87746580       61.42430279      8.75375428      
    1666.000 65.39312483      9.93029070       62.60697211      8.75375054      
    1666.500 67.95416354      9.99003761       64.59163347      8.75374679      
    1667.000 70.52641235      10.20953223      67.56533865      8.75374305      
    1667.500 70.61534847      10.33883211      70.32868526      8.75373930      
    1668.000 68.36794542      10.64547581      72.65936255      8.75373555      
    1668.500 65.84404204      10.95470915      73.73505976      8.75373181      
    1669.000 63.31201762      10.87966139      75.24484360      8.75372806      
    1669.500 61.61426639      11.05221785      76.03084290      8.75372432      
    1670.000 61.43652416      11.96047548      76.92184100      8.75372057      
    1670.500 61.28935772      11.92832816      78.85772438      8.75371683      
    1671.000 64.17872420      11.98841314      80.19622129      8.75371308      
    1671.500 66.28136449      11.51818368      80.05331077      8.75370934      
    1672.000 66.56423779      11.16404399      77.58162007      8.75370559      
    1672.500 62.49700615      10.87672202      74.68842491      8.75370184      
    1673.000 54.86667852      9.96858705       68.89442231      8.75369810      
    1673.500 48.42238775      9.80637346       60.88645418      8.75369435      
    1674.000 45.32175475      9.64357429       58.61553785      8.75369061      
    1674.500 44.77203948      9.64578367       56.70318725      8.75368686      
    1675.000 43.62754565      9.59507860       57.50996016      8.75368312      
    1675.500 43.59864888      9.58205204       60.40836653      8.75367937      
    1676.000 43.51001287      9.56688538       60.22908367      8.75367562      
    1676.500 43.79669964      9.55993295       57.71912351      8.75367188      
    1677.000 44.62463109      9.56418996       57.18127490      8.75366813      
    1677.500 44.45898548      9.56049329       56.94223108      8.75366439      
    1678.000 44.77621222      9.56873562       57.06175299      8.75366064      
    1678.500 45.78980814      9.58246111       57.18127490      8.75365690      
    1679.000 45.89307006      9.59760001       57.65936255      8.75365315      
    1679.500 47.34371978      9.60180786       57.95816733      8.75364941      
    1680.000 48.98127586      9.59409839       58.37649402      8.75364566      
    1680.500 50.78720891      9.58803805       58.55577689      8.75364191      
    1681.000 51.59805484      9.58740719       58.31673307      8.75363817      
    1681.500 51.82515509      9.60505447       58.01792829      8.75363442      
    1682.000 55.28109808      9.60007000       57.89840637      8.75363068      
    1682.500 58.98418455      9.60935334       58.31673307      8.75362693      
    1683.000 62.71867115      9.62134578       59.27290837      8.75362319      
