~Version Information Block
 VERS.                2.00:     CWLS LOG ASCII STANDARD - VERSION 2.000000
 WRAP.                  NO:     One Line Per Depth Step
#
~Well Information Block
#MNEM.UNIT                     Data                         Information
#----------   ------------------------------------------   ----------------
 STRT.FT                                      250.0000:     START DEPTH
 STOP.FT                                     2900.0000:     STOP DEPTH
 STEP.FT                                        0.5000:     STEP
 NULL.                                       -999.2500:     NULL VALUE
 COMP.                          Kerr-McGee Corporation:     COMPANY
 WELL.                                       Navajo #4:     WELL
 FLD .                                  Dineh-bi-Keyah:     FIELD
 LOC .                             0870' FEL 1720' FNL:     LOCATION
 SEC .                                              32:     SECTION
 TWP .                                             36N:     TOWNSHIP
 RANG.                                             30E:     RANGE
 CNTY.                                          Apache:     COUNTY
 STAT.                                         Arizona:     STATE
 CTRY.                                             USA:     COUNTRY
 SRVC.                                    Schlumberger:     SERVICE COMPANY
 DATE.                                                :     DATE
 API .                                    02-001-20009:     API NUMBER
 UWI .                                    02-001-20009:     UWI NUMBER
 TVD .                                              NO:     TVD flag
 WSTA.                                             OIL:     Well status
#
~Curve Information Block
#MNEM.UNIT       API CODE      Curve Description
#----------    -------------   -------------------
 DEPT.FT                   :   Depth in Feet
 SP  .MV       05 010 01 01:   Spontaneous Potential
 ILD .OHMM     05 120 46 01:   Deep Induction Standard Processed Resistivity
 SN  .OHMM     05 040 16 01:   Short Normal
 CILD.MMHO     05 110 46 01:   Deep Induction Standard Processed Conductivity
#
~Parameter Information Block
#MNEM.UNIT            Value               Description
#----------    --------------------    -------------------
 DATE.                    5/9/2012:    Date As Month-Day-Year
 RUN .                         ONE:    Run Number
 PDAT.                          GL:    Permanent Datum
 EPD .FT                 7361.0000:    Elevation Of Perm. Datum
 LMF .                          KB:    Log Measured From
 FAPD.FT                   13.0000:    Feet Above Perm. Datum
 DMF .                          KB:    Drilling Measured From
 EKB .FT                 7374.0000:    Elevation Of Kelly Bushing
 EDF .FT                 7373.0000:    Elevation Of Derrick Floor
 EGL .FT                 7361.0000:    Elevation Of Ground Level
 TD  .FT                 2898.0000:    Total Depth
 DF  .                     Hermosa:    
 PROJ.                       Rmccs:    
 DD  .FT                 2898.0000:    Depth Driller
 DL  .FT                 2899.0000:    Depth Logger
 BLI .FT                 2898.0000:    Bottom Log Interval
 TLI .FT                  264.0000:    Top Log Interval
 CSIZ.IN                     9 5/8:    Casing Size
 CBD1.                         263:    Casing Bottom (Driller) 1
 CBL1.                         264:    Casing Bottom (Logger) 1
 BS  .IN                     8 3/4:    Bit Size
 DFT .                    GEL-CHEM:    Drilling Fluid Type
 DFV .S                    60.0000:    Drilling Fluid Viscosity
 DFD .LB/G                  8.9000:    Drilling Fluid Density
 DFL .ML                    3.0000:    Drilling Fluid Loss
 DFPH.                      9.0000:    Drilling Fluid Ph
 MSS .                   FLOW LINE:    Mud Sample Source
 RMS .OHMM                  5.1400:    Resistivity Of Mud Sample
 MST .DEGF                 90.0000:    Mud Sample Temperature
 RMF .OHMM                  3.1000:    Mud Filtrate Resistivity
 MFST.DEGF                 70.0000:    Mud Filtrate Sample Temperature
 MFSS.                        CALC:    Mud Filtrate Sample Source
 RMC .OHMM                  0.0000:    Mud Cake Resistivity
 MCST.DEGF                  0.0000:    Mud Cake Sample Temperature
 MCSS.                        CALC:    Mud Cake Sample Source
 RMB .OHMM                  4.6200:    Mud Resistivity At Bht
 BHT .DEGF                 99.0000:    Bottom Hole Temperature
 TCS .                        2 hr:    Time Circulation Stopped
 MRT .DEGF                 99.0000:    Maximum Recorded Temperature
 LUN .                        3860:    Logging Unit Number
 LUL .                        FARM:    Logging Unit Location
 ENGI.                      Brooks:    Engineer'S Name
 WITN.             Mr. Hassenfratz:    Witness' Name
 DGBY.                         slr:    
 WSTA.                         OIL:    
#
~Other Information Block
<DescLogPlotStart>   NEURALOG PLOT DEFINITION
PLOTDEFVERSION: 3
LASFILE: C:\nds\projects\Rmccs\las\0384IEL.las
DEPTHSCALE: 600.000013
RESOLUTION: 200
DEPTHLABELFREQ: 100.000000
HEAVYGRIDFREQ: 50.000000
MEDIUMGRIDFREQ: 50.000000
LIGHTGRIDFREQ: 10.000000
#
#   TRACK 1
#
STARTTRACK: 
 LEFTX: 0.500000 inch
 RIGHTX: 3.000000 inch
 SCALETYPE: Linear
 NUMCHARTDIVISIONS: 10
CURVE: SP    0.000000   100.000000 (255,131,0)    Solid             2     Y    
BACKUP: 0.000000   200.000000 (255,131,0)    Solid             2    
BACKUP: -100.000000 0.000000   (255,131,0)    Solid             2    
ENDTRACK: 
#
#   TRACK 2
#
STARTTRACK: 
 LEFTX: 3.750000 inch
 RIGHTX: 6.250000 inch
 SCALETYPE: Linear
 NUMCHARTDIVISIONS: 10
CURVE: ILD   0.000000   100.000000 (0,0,156)      Solid             2     Y    
BACKUP: 0.000000   1000.000000 (0,0,156)      Solid             2    
BACKUP: -100.000000 0.000000   (0,0,156)      Solid             2    
CURVE: SN    0.000000   100.000000 (255,0,0)      Solid             2     Y    
BACKUP: 0.000000   1000.000000 (255,0,0)      Solid             2    
BACKUP: -100.000000 0.000000   (255,0,0)      Solid             2    
ENDTRACK: 
#
#   TRACK 3
#
STARTTRACK: 
 LEFTX: 6.250000 inch
 RIGHTX: 8.750000 inch
 SCALETYPE: Linear
 NUMCHARTDIVISIONS: 10
CURVE: CILD  400.000000 0.000000   (0,131,0)      Solid             2     N    
ENDTRACK: 
<DescLogPlotEnd>
<DescLog>Induction Electrical
<DescOSVS>BHC/GR
<DescOSVS>CBL
<DescOSVS>FDC/GR
~A DEPTH     SP               ILD              SN               CILD            
# ...
    2527.000 85.37011153      61.48715479      58.38964090      15.55664167     
    2527.500 85.35103021      54.41788994      55.71803798      17.95968416     
    2528.000 85.31039136      47.37588927      51.44684528      20.16236355     
    2528.500 85.10577069      40.60325322      47.02850174      22.16753334     
    2529.000 84.88096494      38.75836459      43.59378399      24.37283859     
    2529.500 84.87026826      38.39584221      42.17244669      26.17788225     
    2530.000 84.64136925      38.21888742      41.32422427      26.58082449     
    2530.500 84.58356411      37.84018907      41.30636650      26.57851197     
    2531.000 84.50621806      37.65935724      41.14870395      27.37316430     
    2531.500 84.47322492      36.95318351      42.10134535      29.16715195     
    2532.000 84.10541687      35.77653823      43.39185647      29.96442540     
    2532.500 83.80521261      34.04698840      44.16378894      30.96350303     
    2533.000 83.30278754      30.97166117      44.28433182      33.76623377     
    2533.500 82.91095890      28.05172052      42.57976858      36.56343656     
    2534.000 82.40036153      25.39509555      40.26154550      39.16083916     
    2534.500 82.12447057      24.32372575      36.77407569      41.35864136     
    2535.000 81.43046796      23.36223828      33.03828906      42.95704296     
    2535.500 80.51039226      23.45529823      31.08854684      43.75624376     
    2536.000 79.15455719      23.82461329      30.43509448      42.35764236     
    2536.500 77.48399168      26.83356607      31.48311904      40.35964036     
    2537.000 75.47071273      31.43623272      32.39149705      37.16283716     
    2537.500 73.41585002      35.49536351      35.60901231      33.56643357     
    2538.000 71.05207618      39.84068049      38.90782623      29.17082917     
    2538.500 69.23688590      43.94716624      42.58382041      25.37462537     
    2539.000 67.36529860      47.94113631      48.40619585      22.57742258     
    2539.500 66.06067734      49.65528209      51.68118673      20.97902098     
    2540.000 65.69653475      48.37771857      54.38016949      22.27772228     
    2540.500 65.81772314      46.65970998      52.36947853      25.84306272     
    2541.000 65.99998762      37.13696104      50.44673862      29.94977278     
    2541.500 67.60271317      28.52700715      45.60164846      35.35721646     
    2542.000 69.28776428      25.07518838      40.55886058      41.16710816     
    2542.500 71.00746252      22.88454657      35.10691029      46.77932718     
    2543.000 72.23121234      20.11072320      32.14251555      52.19307624     
    2543.500 72.91432709      18.68315367      30.22367511      55.80374801     
    2544.000 72.87870867      18.68381406      29.02482303      57.20759413     
    2544.500 72.92237153      18.41630815      28.17821812      54.40373309     
    2545.000 72.83784091      21.23174160      29.11494771      49.79513634     
    2545.500 72.71294730      22.76445427      30.27332678      44.18441562     
    2546.000 73.24150369      29.51785835      33.52698724      38.37452768     
    2546.500 74.34620626      38.02969517      38.03031301      32.16504199     
    2547.000 76.23708088      46.09195230      45.12637388      26.15508723     
    2547.500 78.09492562      54.02677352      56.91521372      21.54600731     
    2548.000 79.94067478      60.20720366      70.70566617      18.13995471     
    2548.500 81.43758870      60.00520261      69.45291382      16.58341658     
    2549.000 83.01174599      59.41648837      62.28413624      16.78321678     
    2549.500 84.31903848      59.39493330      52.19025405      17.78221778     
    2550.000 84.96558900      42.76099554      47.69663802      19.63041943     
    2550.500 85.56943474      39.88767364      46.78815258      21.56188776     
    2551.000 85.94115922      38.21239318      46.54733972      24.17582418     
    2551.500 85.89218693      37.37951936      46.37608984      25.77422577     
    2552.000 85.91191765      38.01645597      46.05581327      26.97302697     
    2552.500 85.90284226      39.09721864      45.23777829      26.57342657     
    2553.000 85.89847508      39.81781102      43.96402203      26.17382617     
    2553.500 86.01380410      40.05745891      42.97460686      25.37462537     
    2554.000 85.85106617      40.45846828      42.40731010      25.37462537     
    2554.500 85.68695303      40.82070345      43.00043369      25.37462537     
    2555.000 85.70605326      42.69838565      44.23277527      24.17582418     
    2555.500 85.69678545      45.97772947      45.37334725      22.57742258     
    2556.000 85.70140698      47.96202155      47.66501987      21.39115027     
    2556.500 85.70042678      48.54547843      49.22550966      20.56251646     
    2557.000 85.69853819      48.91855025      49.71148493      20.13380059     
    2557.500 85.70462324      48.65200233      50.14934273      20.91393046     
    2558.000 85.69294460      46.62123772      50.08628785      21.70552340     
    2558.500 85.71694787      44.98466876      49.47459654      22.90975881     
    2559.000 85.54584897      42.66665399      46.70145675      23.72346656     
    2559.500 85.49946565      40.08192018      45.11001584      24.53891039     
    2560.000 85.41854341      38.54653178      44.71735717      25.34717610     
    2560.500 85.21129294      37.32732946      44.57788497      26.49547672     
    2561.000 85.03320014      36.52356795      44.99172871      27.73297829     
    2561.500 84.91538345      34.17269330      45.52955373      28.92566523     
    2562.000 84.70895232      33.60890605      45.94615834      30.13141117     
    2562.500 84.44091946      33.62713187      45.51138652      31.35113195     
    2563.000 84.11401651      34.05280196      44.47834822      30.97815620     
    2563.500 83.82152240      35.95109302      43.02935649      29.80263536     
    2564.000 83.57671589      40.27970951      42.15680819      27.77222777     
    2564.500 83.28087429      42.58740118      42.19719065      26.17382617     
    2565.000 83.08532199      47.82995466      44.56697986      24.57542458     
    2565.500 83.09131004      52.62407059      48.47696346      22.57742258     
    2566.000 83.24591224      64.50758971      53.48411288      20.57942058     
    2566.500 83.30581850      74.71360041      60.69666618      17.78221778     
    2567.000 83.30466981      76.25670186      66.52075391      14.98501499     
    2567.500 83.24597665      75.43871776      70.74998534      13.38661339     
    2568.000 83.11598585      73.90834078      70.89136421      13.38661339     
    2568.500 83.49630336      68.90047581      70.65867686      14.58541459     
    2569.000 83.93182652      64.52153420      67.25522863      16.18381618     
    2569.500 84.67002294      60.06455879      63.46667768      17.78221778     
    2570.000 85.07429401      56.25544469      61.93415924      17.78221778     
    2570.500 85.34589042      55.03405651      60.42404847      18.47752248     
    2571.000 85.60377477      52.05719238      58.77874321      18.98101898     
    2571.500 85.73444800      50.66288558      59.31777551      19.78021978     
    2572.000 85.50205989      51.37506283      60.60640527      19.38061938     
    2572.500 85.26967127      52.91561403      61.69894992      18.98101898     
    2573.000 85.22602314      53.34686860      63.13334888      18.98101898     
    2573.500 85.26568871      53.70577030      63.89914657      19.38061938     
    2574.000 85.50783995      51.00927285      64.38889355      20.17982018     
    2574.500 85.71640217      49.65925866      64.93768957      20.57942058     
    2575.000 85.83035804      49.21122863      65.63126253      19.98001998     
    2575.500 85.93781183      52.30720391      67.03406814      18.98101898     
    2576.000 85.83281621      56.51330302      69.23847695      17.78221778     
