~Version Information Block
 VERS.                2.00:     CWLS LOG ASCII STANDARD - VERSION 2.000000
 WRAP.                  NO:     One Line Per Depth Step
#
~Well Information Block
#MNEM.UNIT                     Data                         Information
#----------   ------------------------------------------   ----------------
 STRT.FT                                      250.0000:     START DEPTH
 STOP.FT                                     2900.0000:     STOP DEPTH
 STEP.FT                                        0.5000:     STEP
 NULL.                                       -999.2500:     NULL VALUE
 COMP.                          Kerr-McGee Corporation:     COMPANY
 WELL.                                       Navajo #4:     WELL
 FLD .                                  Dineh-bi-Keyah:     FIELD
 LOC .                             0870' FEL 1720' FNL:     LOCATION
 SEC .                                              32:     SECTION
 TWP .                                             36N:     TOWNSHIP
 RANG.                                             30E:     RANGE
 CNTY.                                          Apache:     COUNTY
 STAT.                                         Arizona:     STATE
 CTRY.                                             USA:     COUNTRY
 SRVC.                                    Schlumberger:     SERVICE COMPANY
 DATE.                                                :     DATE
 API .                                    02-001-20009:     API NUMBER
 UWI .                                    02-001-20009:     UWI NUMBER
 TVD .                                              NO:     TVD flag
 WSTA.                                             OIL:     Well status
#
~Curve Information Block
#MNEM.UNIT       API CODE      Curve Description
#----------    -------------   -------------------
 DEPT.FT                   :   Depth in Feet
 SP  .MV       05 010 01 01:   Spontaneous Potential
 ILD .OHMM     05 120 46 01:   Deep Induction Standard Processed Resistivity
 SN  .OHMM     05 040 16 01:   Short Normal
 CILD.MMHO     05 110 46 01:   Deep Induction Standard Processed Conductivity
#
~Parameter Information Block
#MNEM.UNIT            Value               Description
#----------    --------------------    -------------------
 DATE.                    5/9/2012:    Date As Month-Day-Year
 RUN .                         ONE:    Run Number
 PDAT.                          GL:    Permanent Datum
 EPD .FT                 7361.0000:    Elevation Of Perm. Datum
 LMF .                          KB:    Log Measured From
 FAPD.FT                   13.0000:    Feet Above Perm. Datum
 DMF .                          KB:    Drilling Measured From
 EKB .FT                 7374.0000:    Elevation Of Kelly Bushing
 EDF .FT                 7373.0000:    Elevation Of Derrick Floor
 EGL .FT                 7361.0000:    Elevation Of Ground Level
 TD  .FT                 2898.0000:    Total Depth
 DF  .                     Hermosa:    
 PROJ.                       Rmccs:    
 DD  .FT                 2898.0000:    Depth Driller
 DL  .FT                 2899.0000:    Depth Logger
 BLI .FT                 2898.0000:    Bottom Log Interval
 TLI .FT                  264.0000:    Top Log Interval
 CSIZ.IN                     9 5/8:    Casing Size
 CBD1.                         263:    Casing Bottom (Driller) 1
 CBL1.                         264:    Casing Bottom (Logger) 1
 BS  .IN                     8 3/4:    Bit Size
 DFT .                    GEL-CHEM:    Drilling Fluid Type
 DFV .S                    60.0000:    Drilling Fluid Viscosity
 DFD .LB/G                  8.9000:    Drilling Fluid Density
 DFL .ML                    3.0000:    Drilling Fluid Loss
 DFPH.                      9.0000:    Drilling Fluid Ph
 MSS .                   FLOW LINE:    Mud Sample Source
 RMS .OHMM                  5.1400:    Resistivity Of Mud Sample
 MST .DEGF                 90.0000:    Mud Sample Temperature
 RMF .OHMM                  3.1000:    Mud Filtrate Resistivity
 MFST.DEGF                 70.0000:    Mud Filtrate Sample Temperature
 MFSS.                        CALC:    Mud Filtrate Sample Source
 RMC .OHMM                  0.0000:    Mud Cake Resistivity
 MCST.DEGF                  0.0000:    Mud Cake Sample Temperature
 MCSS.                        CALC:    Mud Cake Sample Source
 RMB .OHMM                  4.6200:    Mud Resistivity At Bht
 BHT .DEGF                 99.0000:    Bottom Hole Temperature
 TCS .                        2 hr:    Time Circulation Stopped
 MRT .DEGF                 99.0000:    Maximum Recorded Temperature
 LUN .                        3860:    Logging Unit Number
 LUL .                        FARM:    Logging Unit Location
 ENGI.                      Brooks:    Engineer'S Name
 WITN.             Mr. Hassenfratz:    Witness' Name
 DGBY.                         slr:    
 WSTA.                         OIL:    
#
~Other Information Block
<DescLogPlotStart>   NEURALOG PLOT DEFINITION
PLOTDEFVERSION: 3
LASFILE: C:\nds\projects\Rmccs\las\0384IEL.las
DEPTHSCALE: 600.000013
RESOLUTION: 200
DEPTHLABELFREQ: 100.000000
HEAVYGRIDFREQ: 50.000000
MEDIUMGRIDFREQ: 50.000000
LIGHTGRIDFREQ: 10.000000
#
#   TRACK 1
#
STARTTRACK: 
 LEFTX: 0.500000 inch
 RIGHTX: 3.000000 inch
 SCALETYPE: Linear
 NUMCHARTDIVISIONS: 10
CURVE: SP    0.000000   100.000000 (255,131,0)    Solid             2     Y    
BACKUP: 0.000000   200.000000 (255,131,0)    Solid             2    
BACKUP: -100.000000 0.000000   (255,131,0)    Solid             2    
ENDTRACK: 
#
#   TRACK 2
#
STARTTRACK: 
 LEFTX: 3.750000 inch
 RIGHTX: 6.250000 inch
 SCALETYPE: Linear
 NUMCHARTDIVISIONS: 10
CURVE: ILD   0.000000   100.000000 (0,0,156)      Solid             2     Y    
BACKUP: 0.000000   1000.000000 (0,0,156)      Solid             2    
BACKUP: -100.000000 0.000000   (0,0,156)      Solid             2    
CURVE: SN    0.000000   100.000000 (255,0,0)      Solid             2     Y    
BACKUP: 0.000000   1000.000000 (255,0,0)      Solid             2    
BACKUP: -100.000000 0.000000   (255,0,0)      Solid             2    
ENDTRACK: 
#
#   TRACK 3
#
STARTTRACK: 
 LEFTX: 6.250000 inch
 RIGHTX: 8.750000 inch
 SCALETYPE: Linear
 NUMCHARTDIVISIONS: 10
CURVE: CILD  400.000000 0.000000   (0,131,0)      Solid             2     N    
ENDTRACK: 
<DescLogPlotEnd>
<DescLog>Induction Electrical
<DescOSVS>BHC/GR
<DescOSVS>CBL
<DescOSVS>FDC/GR
~A DEPTH     SP               ILD              SN               CILD            
# ...
    1636.000 73.69256322      305.85023616     103.98535061     4.19580420      
    1636.500 73.57424940      269.31863727     109.17066805     3.39660340      
    1637.000 73.30407801      229.45891784     111.88207091     3.79620380      
    1637.500 72.89700973      187.37474950     108.69304107     4.95090912      
    1638.000 72.50516162      143.28657315     104.66999971     6.17145627      
    1638.500 71.99031686      100.12124248     89.76874263      7.78238440      
    1639.000 71.71557732      98.02129259      92.79313492      8.98497849      
    1639.500 71.04197610      95.92134269      87.24405735      10.18540894     
    1640.000 70.71906357      93.82139279      82.97955749      11.78876124     
    1640.500 70.65892383      78.58853998      79.81785329      12.87022974     
    1641.000 70.54810449      66.41634738      76.89013295      14.09605359     
    1641.500 70.55079646      63.91874700      73.96095511      14.98501499     
    1642.000 70.71450116      58.69059998      71.31129197      16.18381618     
    1642.500 70.55994678      58.32119548      69.87146964      16.58341658     
    1643.000 70.42679702      58.39897800      68.42187960      16.98301698     
    1643.500 70.31074290      60.48239447      67.22367608      16.98301698     
    1644.000 70.13149398      60.92104970      66.40506926      16.98301698     
    1644.500 70.14254157      65.02746990      65.83607330      16.18381618     
    1645.000 70.32031327      68.09211776      66.55436478      15.78421578     
    1645.500 70.76423188      70.54256909      68.30842513      15.38461538     
    1646.000 71.13183868      76.42789205      70.32367867      14.58541459     
    1646.500 71.92223391      84.01358206      73.72238493      13.78621379     
    1647.000 72.56249355      91.24824700      75.84794283      12.58741259     
    1647.500 72.83112912      96.68243293      78.30366715      11.38861139     
    1648.000 72.97181565      101.92720127     80.73546468      10.18981019     
    1648.500 73.10286288      103.38712674     83.06860701      9.79020979      
    1649.000 73.10698355      109.44747377     85.95127259      9.39060939      
    1649.500 73.08769859      113.46768706     88.71384933      9.39060939      
    1650.000 73.26187149      115.45461668     90.31503128      9.27156260      
    1650.500 73.41454691      115.43354937     92.38933970      9.11124625      
    1651.000 73.47189879      113.40690227     93.65642674      8.99100899      
    1651.500 73.50607948      109.37108775     93.22389125      8.99100899      
    1652.000 73.49562146      107.05731053     92.06405355      9.59040959      
    1652.500 73.51491743      99.49374858      91.08934731      9.79020979      
    1653.000 73.68741403      96.05177904      90.04621828      10.18988613     
    1653.500 73.68811489      94.32034975      89.34219799      10.38890969     
    1654.000 73.79966676      93.27426504      88.56826230      10.98956472     
    1654.500 73.90690899      91.73423627      88.03016670      10.99011507     
    1655.000 73.97599720      91.28731084      87.72467927      10.99138666     
    1655.500 74.23208425      90.43938734      87.48500896      10.59207737     
    1656.000 74.51351626      90.16000780      87.65561561      9.99126969      
    1656.500 74.95628482      91.30357150      88.62391259      9.79142160      
    1657.000 75.20983063      90.69814984      89.78771439      9.79020979      
    1657.500 75.41091790      110.99300823     91.64085933      9.79020979      
    1658.000 75.79404745      113.40228197     93.01820902      8.99100899      
    1658.500 75.91411360      118.70242837     95.06167997      8.79120879      
    1659.000 75.89271148      123.04885596     96.80936955      8.39160839      
    1659.500 75.92467369      127.06440153     96.70901019      8.19180819      
    1660.000 76.05451921      125.19505143     96.18454779      8.19180819      
    1660.500 75.97833368      121.01516699     94.77977118      8.19180819      
    1661.000 75.89579943      117.38803811     93.25118911      8.59140859      
    1661.500 75.90914274      109.41255969     90.82362152      9.19080919      
    1662.000 75.88220128      104.51456379     88.33221377      10.38961039     
    1662.500 76.00654994      91.22370815      84.50528818      11.18881119     
    1663.000 76.09871935      88.85979444      80.03702280      11.98801199     
    1663.500 76.20655006      86.07214429      74.36124939      12.18781219     
    1664.000 76.52066544      84.26853707      68.80183563      12.78721279     
    1664.500 76.66957805      77.17758594      64.37637440      13.38661339     
    1665.000 76.72223988      70.45938030      62.11891196      14.98501499     
    1665.500 76.59262928      63.74117466      61.19055269      16.78321678     
    1666.000 76.49664237      57.02296901      57.55066215      18.58141858     
    1666.500 76.48818013      50.30476337      53.73584749      20.77922078     
    1667.000 76.60378900      43.58655773      50.32449282      22.97702298     
    1667.500 76.69976617      37.39638705      45.36964707      26.57342657     
    1668.000 76.79535293      32.69376496      40.98210788      29.77022977     
    1668.500 76.90983991      31.08486203      37.76051033      32.76723277     
    1669.000 76.97866080      29.32445343      35.32644602      36.76323676     
    1669.500 77.22071925      25.23518988      33.75813962      39.56043956     
    1670.000 77.37686252      24.09227726      32.62229407      41.35864136     
    1670.500 77.47592856      23.77001884      31.50446024      42.95704296     
    1671.000 77.50313138      25.84857470      30.70490542      42.15784216     
    1671.500 77.50602699      27.46085560      30.53786912      39.76023976     
    1672.000 77.48190018      33.33019324      31.30905163      36.36363636     
    1672.500 77.32882925      38.75983810      34.76992244      31.56843157     
    1673.000 77.21163619      43.09246895      36.98709434      27.57242757     
    1673.500 76.98413860      59.62809307      41.49981358      23.37662338     
    1674.000 76.60676199      58.19381334      47.13316203      19.38061938     
    1674.500 76.20022620      65.55570524      53.56301275      14.98501499     
    1675.000 75.80332951      117.60905975     61.66815003      11.18881119     
    1675.500 75.38549767      105.00008673     72.59961715      8.19180819      
    1676.000 74.79731118      164.48057637     77.38573833      7.19280719      
    1676.500 74.21644928      167.02785282     79.72764127      6.59340659      
    1677.000 73.71177677      142.09937538     81.12820245      7.19280719      
    1677.500 73.07240443      124.91421747     81.67429535      7.79220779      
    1678.000 72.67871108      119.24691185     81.65503488      8.39160839      
    1678.500 72.52273865      117.31877453     81.66899770      8.79120879      
    1679.000 72.78002726      115.23046092     81.67566649      8.99100899      
    1679.500 73.20408850      111.22244489     81.47018511      8.99100899      
    1680.000 73.74354261      105.21042084     81.07667532      9.39060939      
    1680.500 74.33653127      98.47354709      80.71372853      9.78577585      
    1681.000 74.89268137      92.37194389      79.51864316      10.38466810     
    1681.500 75.14247381      85.87174349      77.87161545      11.38602546     
    1682.000 75.28428181      80.40480962      74.40416648      12.78769069     
    1682.500 75.51745271      74.55577822      71.58804241      14.18854982     
    1683.000 75.66930591      68.34599567      69.21856127      15.78790201     
    1683.500 75.80666964      62.43113537      62.86226505      17.98659682     
    1684.000 75.91130459      55.46827703      59.47452184      19.18081918     
    1684.500 75.91150352      48.44488359      55.80295256      20.57942058     
    1685.000 76.09052155      46.97395977      54.05654050      21.57842158     
