~Version Information Block
 VERS.                2.00:     CWLS LOG ASCII STANDARD - VERSION 2.000000
 WRAP.                  NO:     One Line Per Depth Step
#
~Well Information Block
#MNEM.UNIT                     Data                         Information
#----------   ------------------------------------------   ----------------
 STRT.FT                                      250.0000:     START DEPTH
 STOP.FT                                     2900.0000:     STOP DEPTH
 STEP.FT                                        0.5000:     STEP
 NULL.                                       -999.2500:     NULL VALUE
 COMP.                          Kerr-McGee Corporation:     COMPANY
 WELL.                                       Navajo #4:     WELL
 FLD .                                  Dineh-bi-Keyah:     FIELD
 LOC .                             0870' FEL 1720' FNL:     LOCATION
 SEC .                                              32:     SECTION
 TWP .                                             36N:     TOWNSHIP
 RANG.                                             30E:     RANGE
 CNTY.                                          Apache:     COUNTY
 STAT.                                         Arizona:     STATE
 CTRY.                                             USA:     COUNTRY
 SRVC.                                    Schlumberger:     SERVICE COMPANY
 DATE.                                                :     DATE
 API .                                    02-001-20009:     API NUMBER
 UWI .                                    02-001-20009:     UWI NUMBER
 TVD .                                              NO:     TVD flag
 WSTA.                                             OIL:     Well status
#
~Curve Information Block
#MNEM.UNIT       API CODE      Curve Description
#----------    -------------   -------------------
 DEPT.FT                   :   Depth in Feet
 SP  .MV       05 010 01 01:   Spontaneous Potential
 ILD .OHMM     05 120 46 01:   Deep Induction Standard Processed Resistivity
 SN  .OHMM     05 040 16 01:   Short Normal
 CILD.MMHO     05 110 46 01:   Deep Induction Standard Processed Conductivity
#
~Parameter Information Block
#MNEM.UNIT            Value               Description
#----------    --------------------    -------------------
 DATE.                    5/9/2012:    Date As Month-Day-Year
 RUN .                         ONE:    Run Number
 PDAT.                          GL:    Permanent Datum
 EPD .FT                 7361.0000:    Elevation Of Perm. Datum
 LMF .                          KB:    Log Measured From
 FAPD.FT                   13.0000:    Feet Above Perm. Datum
 DMF .                          KB:    Drilling Measured From
 EKB .FT                 7374.0000:    Elevation Of Kelly Bushing
 EDF .FT                 7373.0000:    Elevation Of Derrick Floor
 EGL .FT                 7361.0000:    Elevation Of Ground Level
 TD  .FT                 2898.0000:    Total Depth
 DF  .                     Hermosa:    
 PROJ.                       Rmccs:    
 DD  .FT                 2898.0000:    Depth Driller
 DL  .FT                 2899.0000:    Depth Logger
 BLI .FT                 2898.0000:    Bottom Log Interval
 TLI .FT                  264.0000:    Top Log Interval
 CSIZ.IN                     9 5/8:    Casing Size
 CBD1.                         263:    Casing Bottom (Driller) 1
 CBL1.                         264:    Casing Bottom (Logger) 1
 BS  .IN                     8 3/4:    Bit Size
 DFT .                    GEL-CHEM:    Drilling Fluid Type
 DFV .S                    60.0000:    Drilling Fluid Viscosity
 DFD .LB/G                  8.9000:    Drilling Fluid Density
 DFL .ML                    3.0000:    Drilling Fluid Loss
 DFPH.                      9.0000:    Drilling Fluid Ph
 MSS .                   FLOW LINE:    Mud Sample Source
 RMS .OHMM                  5.1400:    Resistivity Of Mud Sample
 MST .DEGF                 90.0000:    Mud Sample Temperature
 RMF .OHMM                  3.1000:    Mud Filtrate Resistivity
 MFST.DEGF                 70.0000:    Mud Filtrate Sample Temperature
 MFSS.                        CALC:    Mud Filtrate Sample Source
 RMC .OHMM                  0.0000:    Mud Cake Resistivity
 MCST.DEGF                  0.0000:    Mud Cake Sample Temperature
 MCSS.                        CALC:    Mud Cake Sample Source
 RMB .OHMM                  4.6200:    Mud Resistivity At Bht
 BHT .DEGF                 99.0000:    Bottom Hole Temperature
 TCS .                        2 hr:    Time Circulation Stopped
 MRT .DEGF                 99.0000:    Maximum Recorded Temperature
 LUN .                        3860:    Logging Unit Number
 LUL .                        FARM:    Logging Unit Location
 ENGI.                      Brooks:    Engineer'S Name
 WITN.             Mr. Hassenfratz:    Witness' Name
 DGBY.                         slr:    
 WSTA.                         OIL:    
#
~Other Information Block
<DescLogPlotStart>   NEURALOG PLOT DEFINITION
PLOTDEFVERSION: 3
LASFILE: C:\nds\projects\Rmccs\las\0384IEL.las
DEPTHSCALE: 600.000013
RESOLUTION: 200
DEPTHLABELFREQ: 100.000000
HEAVYGRIDFREQ: 50.000000
MEDIUMGRIDFREQ: 50.000000
LIGHTGRIDFREQ: 10.000000
#
#   TRACK 1
#
STARTTRACK: 
 LEFTX: 0.500000 inch
 RIGHTX: 3.000000 inch
 SCALETYPE: Linear
 NUMCHARTDIVISIONS: 10
CURVE: SP    0.000000   100.000000 (255,131,0)    Solid             2     Y    
BACKUP: 0.000000   200.000000 (255,131,0)    Solid             2    
BACKUP: -100.000000 0.000000   (255,131,0)    Solid             2    
ENDTRACK: 
#
#   TRACK 2
#
STARTTRACK: 
 LEFTX: 3.750000 inch
 RIGHTX: 6.250000 inch
 SCALETYPE: Linear
 NUMCHARTDIVISIONS: 10
CURVE: ILD   0.000000   100.000000 (0,0,156)      Solid             2     Y    
BACKUP: 0.000000   1000.000000 (0,0,156)      Solid             2    
BACKUP: -100.000000 0.000000   (0,0,156)      Solid             2    
CURVE: SN    0.000000   100.000000 (255,0,0)      Solid             2     Y    
BACKUP: 0.000000   1000.000000 (255,0,0)      Solid             2    
BACKUP: -100.000000 0.000000   (255,0,0)      Solid             2    
ENDTRACK: 
#
#   TRACK 3
#
STARTTRACK: 
 LEFTX: 6.250000 inch
 RIGHTX: 8.750000 inch
 SCALETYPE: Linear
 NUMCHARTDIVISIONS: 10
CURVE: CILD  400.000000 0.000000   (0,131,0)      Solid             2     N    
ENDTRACK: 
<DescLogPlotEnd>
<DescLog>Induction Electrical
<DescOSVS>BHC/GR
<DescOSVS>CBL
<DescOSVS>FDC/GR
~A DEPTH     SP               ILD              SN               CILD            
# ...
    1834.000 77.89680290      93.96514489      72.66391923      10.78921079     
    1834.500 77.89839151      93.00023883      72.26545216      11.18881119     
    1835.000 77.90667836      92.20835781      71.55956552      11.98801199     
    1835.500 77.88369688      79.23750520      70.68255807      13.38661339     
    1836.000 77.95697627      68.49382734      69.36854877      14.58541459     
    1836.500 78.09827215      69.43571673      67.94338606      15.58441558     
    1837.000 78.19841110      67.71910586      66.44985752      15.78421578     
    1837.500 78.30916749      66.88536006      65.86682772      15.38461538     
    1838.000 78.30904249      66.53306613      65.81658801      15.18481518     
    1838.500 78.19879149      68.09869739      67.23103082      14.98501499     
    1839.000 78.09845909      74.76202405      68.45359027      14.38561439     
    1839.500 78.00772842      81.42535070      70.74236141      13.78621379     
    1840.000 77.88411048      88.08867735      74.67900022      12.28771229     
    1840.500 77.90778956      104.15831663     77.98586405      10.28971029     
    1841.000 77.89910154      128.25651303     81.97439898      8.79120879      
    1841.500 77.88467754      146.29258517     85.94957820      7.19280719      
    1842.000 77.71749193      176.35270541     89.44786721      6.39360639      
    1842.500 77.69180891      205.41082164     92.54366833      5.59440559      
    1843.000 77.56726572      204.40881764     97.62253354      5.18043166      
    1843.500 77.40315093      196.39278557     98.75646866      5.17983430      
    1844.000 77.19266151      181.36272545     98.91261820      5.37997476      
    1844.500 77.07356169      154.30861723     98.93686362      5.98177437      
    1845.000 76.91835666      134.26853707     97.45635742      6.78474371      
    1845.500 76.89929802      122.24448898     93.08126771      7.78809835      
    1846.000 76.89036414      92.48496994      87.33857859      8.99110776      
    1846.500 76.99406622      90.78156313      84.84917516      10.19208075     
    1847.000 77.13300872      89.07815631      80.63909575      11.39014093     
    1847.500 77.27222590      87.57515030      76.79337661      11.98699918     
    1848.000 77.31303909      85.57114228      74.32442990      12.58538480     
    1848.500 77.20997331      80.06012024      72.87968535      12.78769779     
    1849.000 76.98657775      75.65130261      72.20869788      13.39849152     
    1849.500 76.90857350      70.98563250      71.40872672      14.41622262     
    1850.000 76.98892318      68.87566785      70.31318578      15.36550261     
    1850.500 77.04654056      66.73108937      68.54431376      16.35455886     
    1851.000 77.24590232      64.03789625      64.90896526      16.58341658     
    1851.500 77.45194946      62.71535002      62.94549880      16.18381618     
    1852.000 77.64870586      61.28336063      61.57042789      15.78421578     
    1852.500 77.75466005      67.08606307      60.99310699      15.78421578     
    1853.000 77.92102771      66.36342864      62.79867075      14.98501499     
    1853.500 77.85037907      73.64729459      65.28202213      14.58541459     
    1854.000 77.68366518      75.38543754      69.95012628      12.98701299     
    1854.500 77.71799957      78.85771543      74.00849457      10.98901099     
    1855.000 77.54901155      82.06412826      78.01396641      9.39060939      
    1855.500 77.48540347      139.27855711     81.00413003      8.19180819      
    1856.000 77.51148206      133.26653307     82.40629969      7.79220779      
    1856.500 77.48457265      117.19964930     82.41455782      8.59140859      
    1857.000 77.65048978      94.26553106      80.77121967      9.79020979      
    1857.500 77.71581370      80.06012024      79.08426207      11.38861139     
    1858.000 77.68937565      76.45290581      75.15225988      12.58741259     
    1858.500 77.71643019      75.45090180      70.80494919      13.37416864     
    1859.000 77.65138708      75.05010020      67.01873681      13.76690183     
    1859.500 77.47539482      73.64729459      64.04842733      14.16228341     
    1860.000 77.33840297      69.31863727      62.86145638      14.60837921     
    1860.500 77.17204469      65.13426854      62.26810769      15.43738556     
    1861.000 77.05191528      60.94989980      62.16216393      16.60620459     
    1861.500 76.85105997      58.19703273      62.48530590      18.62340318     
    1862.000 76.63983912      48.54086427      61.48915288      20.63434371     
    1862.500 76.49090264      44.12605769      59.44653414      22.57742258     
    1863.000 76.47238390      42.10445257      55.86280718      24.17582418     
    1863.500 76.21743591      42.41402529      52.71781967      24.57542458     
    1864.000 76.14259406      42.82679748      50.65557245      24.17582418     
    1864.500 76.33367255      45.14584204      50.23173686      22.57742258     
    1865.000 76.83307013      50.48866646      50.85640516      21.77822178     
    1865.500 77.22637926      56.54026559      52.22105729      20.57942058     
    1866.000 77.55178010      62.70646104      57.05384253      18.18181818     
    1866.500 77.84799579      90.96666392      66.05629927      14.98501499     
    1867.000 77.95925492      119.19862946     76.64496362      9.39060939      
    1867.500 78.11085927      147.31196167     88.03177737      6.99300699      
    1868.000 78.09726111      180.96096893     92.57236257      5.79420579      
    1868.500 78.10369180      154.13891846     93.33852508      6.59340659      
    1869.000 78.09970374      113.22645291     90.97528150      7.79220779      
    1869.500 78.10503399      -999.25000000    87.25535133      10.18981019     
    1870.000 78.18408694      -999.25000000    83.23591081      11.61838162     
    1870.500 78.28844745      -999.25000000    77.51425793      13.44355644     
    1871.000 78.30519584      -999.25000000    70.58736390      14.98501499     
    1871.500 78.29332157      64.82965932      65.95396483      15.38461538     
    1872.000 78.31364941      64.62925852      62.75844331      15.38461538     
    1872.500 78.24895769      64.82965932      61.02565256      15.38461538     
    1873.000 78.08861266      65.64842664      60.61805765      14.98501499     
    1873.500 78.10195528      76.23659223      61.85098716      14.18581419     
    1874.000 78.10383669      85.70468318      63.24292475      13.38661339     
    1874.500 78.08535513      91.54270696      66.16751627      12.18781219     
    1875.000 78.15480298      93.55380954      68.68906041      10.58941059     
    1875.500 78.30048095      94.76026839      70.51307455      10.18981019     
    1876.000 78.34447648      94.98876157      71.61185290      10.18981019     
    1876.500 78.51518171      88.44290970      70.64280138      11.38861139     
    1877.000 78.49681167      80.41115675      68.34363347      12.58741259     
    1877.500 78.49719447      72.39104700      64.08674159      14.98501499     
    1878.000 78.51523383      63.31736887      59.37031457      17.86580997     
    1878.500 78.34586823      54.24133076      54.78101461      21.85629998     
    1879.000 78.29940309      45.14332231      47.94999283      25.03979693     
    1879.500 78.15863850      37.27257519      45.03846471      29.02760703     
    1880.000 78.08032892      32.45627218      42.39188537      31.52366662     
    1880.500 78.11662152      31.27587391      39.29217738      33.56220078     
    1881.000 77.95604419      30.93636498      37.86724628      34.25069600     
    1881.500 77.84405113      31.42281152      37.22725460      33.47448252     
    1882.000 77.68346096      31.89377714      37.56673043      32.16783217     
    1882.500 77.71983993      34.14980788      38.71102669      30.16983017     
    1883.000 77.54221498      42.86273216      39.66984468      28.17182817     
