~Version Information Block
 VERS.                2.00:     CWLS LOG ASCII STANDARD - VERSION 2.000000
 WRAP.                  NO:     One Line Per Depth Step
#
~Well Information Block
#MNEM.UNIT                     Data                         Information
#----------   ------------------------------------------   ----------------
 STRT.FT                                      250.0000:     START DEPTH
 STOP.FT                                     2900.0000:     STOP DEPTH
 STEP.FT                                        0.5000:     STEP
 NULL.                                       -999.2500:     NULL VALUE
 COMP.                          Kerr-McGee Corporation:     COMPANY
 WELL.                                       Navajo #4:     WELL
 FLD .                                  Dineh-bi-Keyah:     FIELD
 LOC .                             0870' FEL 1720' FNL:     LOCATION
 SEC .                                              32:     SECTION
 TWP .                                             36N:     TOWNSHIP
 RANG.                                             30E:     RANGE
 CNTY.                                          Apache:     COUNTY
 STAT.                                         Arizona:     STATE
 CTRY.                                             USA:     COUNTRY
 SRVC.                                    Schlumberger:     SERVICE COMPANY
 DATE.                                                :     DATE
 API .                                    02-001-20009:     API NUMBER
 UWI .                                    02-001-20009:     UWI NUMBER
 TVD .                                              NO:     TVD flag
 WSTA.                                             OIL:     Well status
#
~Curve Information Block
#MNEM.UNIT       API CODE      Curve Description
#----------    -------------   -------------------
 DEPT.FT                   :   Depth in Feet
 SP  .MV       05 010 01 01:   Spontaneous Potential
 ILD .OHMM     05 120 46 01:   Deep Induction Standard Processed Resistivity
 SN  .OHMM     05 040 16 01:   Short Normal
 CILD.MMHO     05 110 46 01:   Deep Induction Standard Processed Conductivity
#
~Parameter Information Block
#MNEM.UNIT            Value               Description
#----------    --------------------    -------------------
 DATE.                    5/9/2012:    Date As Month-Day-Year
 RUN .                         ONE:    Run Number
 PDAT.                          GL:    Permanent Datum
 EPD .FT                 7361.0000:    Elevation Of Perm. Datum
 LMF .                          KB:    Log Measured From
 FAPD.FT                   13.0000:    Feet Above Perm. Datum
 DMF .                          KB:    Drilling Measured From
 EKB .FT                 7374.0000:    Elevation Of Kelly Bushing
 EDF .FT                 7373.0000:    Elevation Of Derrick Floor
 EGL .FT                 7361.0000:    Elevation Of Ground Level
 TD  .FT                 2898.0000:    Total Depth
 DF  .                     Hermosa:    
 PROJ.                       Rmccs:    
 DD  .FT                 2898.0000:    Depth Driller
 DL  .FT                 2899.0000:    Depth Logger
 BLI .FT                 2898.0000:    Bottom Log Interval
 TLI .FT                  264.0000:    Top Log Interval
 CSIZ.IN                     9 5/8:    Casing Size
 CBD1.                         263:    Casing Bottom (Driller) 1
 CBL1.                         264:    Casing Bottom (Logger) 1
 BS  .IN                     8 3/4:    Bit Size
 DFT .                    GEL-CHEM:    Drilling Fluid Type
 DFV .S                    60.0000:    Drilling Fluid Viscosity
 DFD .LB/G                  8.9000:    Drilling Fluid Density
 DFL .ML                    3.0000:    Drilling Fluid Loss
 DFPH.                      9.0000:    Drilling Fluid Ph
 MSS .                   FLOW LINE:    Mud Sample Source
 RMS .OHMM                  5.1400:    Resistivity Of Mud Sample
 MST .DEGF                 90.0000:    Mud Sample Temperature
 RMF .OHMM                  3.1000:    Mud Filtrate Resistivity
 MFST.DEGF                 70.0000:    Mud Filtrate Sample Temperature
 MFSS.                        CALC:    Mud Filtrate Sample Source
 RMC .OHMM                  0.0000:    Mud Cake Resistivity
 MCST.DEGF                  0.0000:    Mud Cake Sample Temperature
 MCSS.                        CALC:    Mud Cake Sample Source
 RMB .OHMM                  4.6200:    Mud Resistivity At Bht
 BHT .DEGF                 99.0000:    Bottom Hole Temperature
 TCS .                        2 hr:    Time Circulation Stopped
 MRT .DEGF                 99.0000:    Maximum Recorded Temperature
 LUN .                        3860:    Logging Unit Number
 LUL .                        FARM:    Logging Unit Location
 ENGI.                      Brooks:    Engineer'S Name
 WITN.             Mr. Hassenfratz:    Witness' Name
 DGBY.                         slr:    
 WSTA.                         OIL:    
#
~Other Information Block
<DescLogPlotStart>   NEURALOG PLOT DEFINITION
PLOTDEFVERSION: 3
LASFILE: C:\nds\projects\Rmccs\las\0384IEL.las
DEPTHSCALE: 600.000013
RESOLUTION: 200
DEPTHLABELFREQ: 100.000000
HEAVYGRIDFREQ: 50.000000
MEDIUMGRIDFREQ: 50.000000
LIGHTGRIDFREQ: 10.000000
#
#   TRACK 1
#
STARTTRACK: 
 LEFTX: 0.500000 inch
 RIGHTX: 3.000000 inch
 SCALETYPE: Linear
 NUMCHARTDIVISIONS: 10
CURVE: SP    0.000000   100.000000 (255,131,0)    Solid             2     Y    
BACKUP: 0.000000   200.000000 (255,131,0)    Solid             2    
BACKUP: -100.000000 0.000000   (255,131,0)    Solid             2    
ENDTRACK: 
#
#   TRACK 2
#
STARTTRACK: 
 LEFTX: 3.750000 inch
 RIGHTX: 6.250000 inch
 SCALETYPE: Linear
 NUMCHARTDIVISIONS: 10
CURVE: ILD   0.000000   100.000000 (0,0,156)      Solid             2     Y    
BACKUP: 0.000000   1000.000000 (0,0,156)      Solid             2    
BACKUP: -100.000000 0.000000   (0,0,156)      Solid             2    
CURVE: SN    0.000000   100.000000 (255,0,0)      Solid             2     Y    
BACKUP: 0.000000   1000.000000 (255,0,0)      Solid             2    
BACKUP: -100.000000 0.000000   (255,0,0)      Solid             2    
ENDTRACK: 
#
#   TRACK 3
#
STARTTRACK: 
 LEFTX: 6.250000 inch
 RIGHTX: 8.750000 inch
 SCALETYPE: Linear
 NUMCHARTDIVISIONS: 10
CURVE: CILD  400.000000 0.000000   (0,131,0)      Solid             2     N    
ENDTRACK: 
<DescLogPlotEnd>
<DescLog>Induction Electrical
<DescOSVS>BHC/GR
<DescOSVS>CBL
<DescOSVS>FDC/GR
~A DEPTH     SP               ILD              SN               CILD            
# ...
     943.000 38.77413422      455.82812471     164.20272817     1.39860140      
     943.500 38.05116432      471.22425499     166.95124249     1.39860140      
     944.000 37.74385049      470.80222597     168.78269097     1.41159116      
     944.500 37.72325488      479.59031850     170.86083092     1.39749883      
     945.000 37.95872978      481.77355063     171.87199882     1.38380807      
     945.500 38.14940653      483.94852233     173.79160985     1.37300115      
     946.000 38.31886479      484.08052596     176.01192238     0.96749208      
     946.500 38.25868375      482.12182445     177.33746420     0.96647916      
     947.000 38.04023923      481.96392786     178.82448687     0.97164788      
     947.500 37.89614145      477.95591182     179.55409418     1.38218440      
     948.000 37.77821939      473.94789579     179.25966119     1.39860140      
     948.500 37.49588295      467.93587174     179.50849956     1.39860140      
     949.000 37.11805332      455.91182365     178.93321321     1.39860140      
     949.500 36.73674453      404.30279278     176.84139283     2.53741473      
     950.000 36.22222699      362.26640473     174.23516908     3.00093995      
     950.500 36.19321485      320.23001668     172.43131677     3.46446516      
     951.000 36.07402017      269.53907816     170.75640636     3.79620380      
     951.500 35.68748969      263.52705411     169.19183248     3.79620380      
     952.000 35.34332797      261.52304609     169.39468101     3.80706840      
     952.500 35.24900033      280.82832331     169.18908990     3.41764192      
     953.000 35.67311240      343.68737475     170.72838809     3.03053724      
     953.500 36.36317467      367.07414830     172.83900846     2.63959297      
     954.000 37.05090155      407.27454910     175.05011518     2.64248927      
     954.500 37.50169191      447.47494990     179.95261402     2.23646255      
     955.000 37.91485061      471.94388778     185.33880318     1.42291070      
     955.500 38.25875844      475.95190381     191.06029352     1.39860140      
     956.000 39.06253548      479.95991984     195.24102746     0.99900100      
     956.500 39.72100060      479.95991984     199.42964746     1.39860140      
     957.000 40.25468293      479.95991984     203.54770439     0.99900100      
     957.500 40.54175353      481.96392786     205.82061511     0.99900100      
     958.000 40.48912035      481.96392786     207.99270304     0.99900100      
     958.500 40.47573161      481.97624164     209.83856935     0.99900100      
     959.000 40.23022083      481.89842474     211.51309781     0.99900100      
     959.500 40.06512673      481.25176793     211.36086656     1.02344759      
     960.000 39.95365481      480.48557334     211.38441367     1.03483467      
     960.500 39.95878804      479.48595687     211.16152770     0.64071621      
     961.000 40.11545703      480.28294779     208.65096253     1.03999977      
     961.500 40.65488500      477.67706427     206.76974889     1.03165877      
     962.000 41.07111463      478.29491469     199.99533289     1.01786028      
     962.500 41.96977626      465.39392452     191.26033183     1.60290014      
     963.000 42.94249694      433.90169858     179.35871743     2.19012395      
     963.500 43.54941236      374.63342234     171.34268537     2.99700300      
     964.000 44.23685014      297.61388664     161.32264529     3.79620380      
     964.500 44.81233760      228.28004165     153.30661323     4.19580420      
     965.000 45.51199734      208.73962444     145.29058116     4.99500500      
     965.500 45.92097114      191.68592943     139.27855711     5.39460539      
     966.000 46.07886445      179.83783528     133.26653307     5.79420579      
     966.500 45.77550838      175.72090694     129.25851703     5.79420579      
     967.000 46.09335233      171.55825046     125.21186019     5.79420579      
     967.500 47.02544052      167.46498715     122.81752874     6.22864969      
     968.000 48.09151362      165.37340778     120.08487621     6.22504527      
     968.500 49.21453401      165.36601555     120.59323389     6.22060813      
     969.000 49.19971089      163.30328432     117.23690672     6.71695487      
     969.500 47.84097603      165.24013785     113.57140848     6.91468060      
     970.000 46.23712329      165.07031493     111.46829381     7.00266544      
     970.500 44.58324633      160.62424900     107.55957894     6.99796335      
     971.000 43.91995170      151.30427480     105.71203725     6.99300699      
     971.500 43.09036103      149.10708974     105.17889120     6.99300699      
     972.000 42.91481921      149.37447188     104.75759489     6.99300699      
     972.500 42.66248897      149.18098949     103.17092159     6.99300699      
     973.000 42.09039680      150.36037373     102.07270371     6.99300699      
     973.500 41.41967567      151.89795978     101.14760389     6.99300699      
     974.000 40.81600675      153.48036434     101.08275758     6.99300699      
     974.500 40.29189165      153.21914818     101.49690403     6.99300699      
     975.000 40.03126743      153.36489712     99.03792601      6.98437964      
     975.500 39.88273349      152.94948326     97.39182520      6.97837041      
     976.000 39.94275908      150.73134058     97.06805830      6.97380325      
     976.500 40.24609983      148.75594449     96.50399399      7.37302448      
     977.000 40.35866054      147.23478059     96.08915244      7.37601195      
     977.500 40.50469270      147.29289310     95.71900410      7.38161469      
     978.000 40.50660179      147.05195800     95.65336780      7.38741707      
     978.500 40.45745144      148.37369111     95.31081283      7.39146108      
     979.000 40.26699662      151.40460358     95.30649595      7.39260739      
     979.500 40.12819289      152.72122311     94.99018988      7.39260739      
     980.000 39.95075126      153.43599552     94.86089516      7.39260739      
     980.500 39.89546015      153.37623987     94.90105710      7.39260739      
     981.000 39.90142386      152.81230506     94.88231698      7.39260739      
     981.500 39.89715370      151.27276324     94.89043880      7.39260739      
     982.000 39.90247813      151.16493220     95.01663421      7.39260739      
     982.500 39.89322584      153.51242499     95.27110980      6.99300699      
     983.000 39.93584590      152.84712657     95.24077092      6.99300699      
     983.500 40.26508148      151.36793142     95.08736875      6.99300699      
     984.000 40.40472329      149.42381638     94.94767020      6.99300699      
     984.500 40.30480691      146.70739534     94.87120958      6.99300699      
     985.000 40.16500932      143.71431290     94.89774772      6.99300699      
     985.500 39.93771374      140.61346454     94.88113983      6.59340659      
     986.000 39.89197247      138.74455495     94.89179648      6.59340659      
     986.500 39.90937738      137.10712377     94.87881683      6.97416442      
     987.000 39.88984882      137.25125027     94.92466376      6.98810225      
     987.500 39.92386146      137.99214439     95.24874795      7.00069023      
     988.000 39.83698898      141.21491689     95.40837427      6.60714036      
     988.500 39.71807613      145.17383612     95.74579500      6.60740550      
     989.000 39.50274336      149.57777180     96.66567434      6.60524737      
     989.500 39.37542722      157.04888600     97.94700884      6.34172757      
     990.000 38.98091788      163.04356104     -999.25000000    6.02513158      
     990.500 38.24909517      171.09923062     -999.25000000    5.83330096      
     991.000 37.69701827      179.48775751     -999.25000000    5.44923469      
     991.500 37.28547440      190.82255172     -999.25000000    5.05563831      
     992.000 37.06953062      205.14689399     106.25448152     4.64903380      
