~Version Information Block
 VERS.                2.00:     CWLS LOG ASCII STANDARD - VERSION 2.000000
 WRAP.                  NO:     One Line Per Depth Step
#
~Well Information Block
#MNEM.UNIT                     Data                         Information
#----------   ------------------------------------------   ----------------
 STRT.FT                                       50.0000:     START DEPTH
 STOP.FT                                     2900.0000:     STOP DEPTH
 STEP.FT                                        0.5000:     STEP
 NULL.                                       -999.2500:     NULL VALUE
 COMP.                          Kerr-McGee Corporation:     COMPANY
 WELL.                                       Navajo #4:     WELL
 FLD .                                  Dineh-bi-Keyah:     FIELD
 LOC .                            870' FEL & 1720' FNL:     LOCATION
 SEC .                                              32:     SECTION
 TWP .                                             36N:     TOWNSHIP
 RANG.                                             30E:     RANGE
 CNTY.                                          Apache:     COUNTY
 STAT.                                         Arizona:     STATE
 CTRY.                                          U.S.A.:     COUNTRY
 SRVC.                                    Schlumberger:     SERVICE COMPANY
 DATE.                                      05/23/2012:     DATE
 API .                                    02-001-20009:     API NUMBER
 UWI .                                    02-001-20009:     UWI NUMBER
 TVD .                                              NO:     TVD flag
 WSTA.                                             OIL:     Well status
#
~Curve Information Block
#MNEM.UNIT       API CODE      Curve Description
#----------    -------------   -------------------
 DEPT.FT                   :   Depth in Feet
 GR  .GAPI     35 310 01 01:   Gamma Ray
 CALI.IN       70 280 01 01:   Caliper
 DT  .US/F     60 520 08 01:   Delta-T
 BIT .IN                   :   Bit size
#
~Parameter Information Block
#MNEM.UNIT            Value               Description
#----------    --------------------    -------------------
 DATE.                   5/23/2012:    Date As Month-Day-Year
 RUN .                         ONE:    Run Number
 PDAT.                          GL:    Permanent Datum
 EPD .FT                 7361.0000:    Elevation Of Perm. Datum
 LMF .                          KB:    Log Measured From
 FAPD.FT                   13.0000:    Feet Above Perm. Datum
 DMF .                          KB:    Drilling Measured From
 EKB .FT                 7374.0000:    Elevation Of Kelly Bushing
 EDF .FT                 7361.0000:    Elevation Of Derrick Floor
 EGL .FT                 7361.0000:    Elevation Of Ground Level
 TD  .FT                 2900.0000:    Total Depth
 DF  .         Pennsylvanian Hermo:    
 PROJ.                       Rmccs:    
 DD  .FT                 2898.0000:    Depth Driller
 DL  .FT                 2898.0000:    Depth Logger
 BLI .FT                 2896.0000:    Bottom Log Interval
 TLI .FT                    0.0000:    Top Log Interval
 CSIZ.IN                     9 5/8:    Casing Size
 CBD1.                         263:    Casing Bottom (Driller) 1
 CBL1.                         263:    Casing Bottom (Logger) 1
 BS  .IN                     8 3/4:    Bit Size
 DFT .                    GEL CHEM:    Drilling Fluid Type
 DFV .S                    60.0000:    Drilling Fluid Viscosity
 DFD .LB/G                  8.9000:    Drilling Fluid Density
 DFL .ML                    3.0000:    Drilling Fluid Loss
 DFPH.                      9.0000:    Drilling Fluid Ph
 MSS .                   Flow line:    Mud Sample Source
 RMS .OHMM                  5.1400:    Resistivity Of Mud Sample
 MST .DEGF                 90.0000:    Mud Sample Temperature
 RMF .OHMM                  3.1000:    Mud Filtrate Resistivity
 MFST.DEGF                 70.0000:    Mud Filtrate Sample Temperature
 MFSS.                        MEAS:    Mud Filtrate Sample Source
 RMB .OHMM                  4.6200:    Mud Resistivity At Bht
 BHT .DEGF                 99.0000:    Bottom Hole Temperature
 TCS .                 5 1/2 hours:    Time Circulation Stopped
 MRT .DEGF                 99.0000:    Maximum Recorded Temperature
 LUN .                        3860:    Logging Unit Number
 LUL .                  Farmington:    Logging Unit Location
 ENGI.                      Brooks:    Engineer'S Name
 WITN.                 Hassenfratz:    Witness' Name
 DGBY.                         slr:    
 WSTA.                         OIL:    
#
~Other Information Block
<DescLogPlotStart>   NEURALOG PLOT DEFINITION
PLOTDEFVERSION: 3
LASFILE: C:\nds\projects\Rmccs\las\0384BHCS_2.las
DEPTHSCALE: 600.000013
RESOLUTION: 200
DEPTHLABELFREQ: 100.000000
HEAVYGRIDFREQ: 50.000000
MEDIUMGRIDFREQ: 50.000000
LIGHTGRIDFREQ: 50.000000
#
#   TRACK 1
#
STARTTRACK: 
 LEFTX: 0.500000 inch
 RIGHTX: 3.000000 inch
 SCALETYPE: Linear
 NUMCHARTDIVISIONS: 10
CURVE: GR    0.000000   160.000000 (0,0,255)      Solid             2     N    
CURVE: CALI  6.000000   16.000000  (0,131,131)    Dot               2     N    
CURVE: BIT   6.000000   16.000000  (255,0,255)    Short_Dash        2     N    
ENDTRACK: 
#
#   TRACK 2
#
STARTTRACK: 
 LEFTX: 3.500000 inch
 RIGHTX: 8.500000 inch
 SCALETYPE: Linear
 NUMCHARTDIVISIONS: 21
CURVE: DT    100.000000 40.000000  (255,0,0)      Solid             2     Y    
BACKUP: 160.000000 100.000000 (255,131,0)    Solid             2    
ENDTRACK: 
<DescLogPlotEnd>
<DescLog>Borehole Compensated Sonic
<DescOSVS>IES, CBL
<DescOSVS>FDC/GR
<DescOSVS>
IAP failed to step between 0932' and 0892'
~A DEPTH     GR               CALI             DT               BIT             
# ...
    1287.500 63.61034799      10.42127851      74.91178048      8.75658597      
    1288.000 63.73091812      10.42100699      74.89473954      8.75658223      
    1288.500 62.62814835      10.42152114      74.04265853      8.75657848      
    1289.000 60.77868208      10.42062482      73.25636290      8.75657474      
    1289.500 58.22325858      10.42234232      71.99153858      8.75657099      
    1290.000 57.98810195      10.40650326      72.16161178      8.75656724      
    1290.500 59.02051458      10.39930531      73.05357061      8.75656350      
    1291.000 62.82520996      10.40308990      74.57207861      8.75655975      
    1291.500 69.62933931      10.39589195      75.42737504      8.75655601      
    1292.000 76.09767841      10.38005289      76.15355298      8.75655226      
    1292.500 82.66686643      10.38177039      75.28298338      8.75654852      
    1293.000 85.18610868      10.38087407      73.13745020      8.75654477      
    1293.500 82.61121111      10.38138822      71.10557769      8.75654103      
    1294.000 80.48049370      10.38111670      69.69103586      8.75653728      
    1294.500 78.71734626      10.38126603      68.11752988      8.75653353      
    1295.000 80.51478702      10.38119932      68.38047809      8.75652979      
    1295.500 82.40705934      10.38127573      68.95418327      8.75652604      
    1296.000 85.13901420      10.38120902      71.28486056      8.75652230      
    1296.500 86.27215975      10.38143026      71.88247012      8.75651855      
    1297.000 84.46051111      10.38124944      70.88855484      8.75651481      
    1297.500 82.33406962      10.38176153      70.08357421      8.75651106      
    1298.000 81.01181564      10.38100853      69.28449505      8.75650731      
    1298.500 81.12006458      10.38238686      69.58839279      8.75650357      
    1299.000 81.84957669      10.36728894      71.02757890      8.75649982      
    1299.500 82.61724928      10.35905853      71.79858488      8.75649608      
    1300.000 82.89854677      10.35012532      71.61453474      8.75649233      
    1300.500 82.69126581      10.26599027      71.54669224      8.75648859      
    1301.000 81.69361702      10.15463512      69.79083665      8.75648484      
    1301.500 77.16502702      10.13894524      67.87848606      8.75648110      
    1302.000 73.21958882      10.11489441      67.40039841      8.75647735      
    1302.500 68.95276292      10.09833322      66.56374502      8.75647360      
    1303.000 66.07873753      10.07435811      65.96613546      8.75646986      
    1303.500 65.79805083      10.06320776      65.72709163      8.75646611      
    1304.000 66.00851770      10.04277320      65.96613546      8.75646237      
    1304.500 67.80369670      10.00524428      66.26494024      8.75645862      
    1305.000 69.22546811      9.99703131       66.38446215      8.75645488      
    1305.500 70.84257869      9.98046188       66.38446215      8.75645113      
    1306.000 72.03320100      9.98266438       66.20517928      8.75644738      
    1306.500 73.07841935      9.98164849       66.02589641      8.75644364      
    1307.000 72.72657077      9.98212277       66.14541833      8.75643989      
    1307.500 74.29441894      9.98209228       66.86254980      8.75643615      
    1308.000 77.06687828      9.98187643       68.59561753      8.75643240      
    1308.500 77.48588396      9.98268088       70.02988048      8.75642866      
    1309.000 77.08568391      9.96867115       70.56772908      8.75642491      
    1309.500 71.91556562      9.95549811       70.44820717      8.75642117      
    1310.000 67.42026030      9.94245419       69.19322709      8.75641742      
    1310.500 63.95439221      9.92836303       68.44053785      8.75641367      
    1311.000 63.01873188      9.91677122       67.87848606      8.75640993      
    1311.500 62.66687582      9.89734808       67.87848606      8.75640618      
    1312.000 62.16544687      9.87748577       67.93824701      8.75640244      
    1312.500 61.87939678      9.85661533       67.99273659      8.75639869      
    1313.000 61.64411917      9.82871897       68.17212182      8.75639495      
    1313.500 61.51709871      9.80182066       68.35319685      8.75639120      
    1314.000 61.14740395      9.77942661       68.41652748      8.75638746      
    1314.500 61.54388400      9.78471802       68.41931079      8.75638371      
    1315.000 61.64833306      9.76672742       68.48095573      8.75637996      
    1315.500 63.63614403      9.76140778       68.66095507      8.75637622      
    1316.000 67.42473286      9.76275473       69.01870101      8.75637247      
    1316.500 70.92330512      9.76218912       69.49203187      8.75636873      
    1317.000 72.16730003      9.76233680       69.67131474      8.75636498      
    1317.500 66.36004845      9.76271394       69.43227092      8.75636124      
    1318.000 59.64390522      9.76169017       69.25298805      8.75635749      
    1318.500 61.04814261      9.76368581       69.49203187      8.75635374      
    1319.000 69.65651335      9.75953083       69.97011952      8.75635000      
    1319.500 79.00846569      9.78265540       70.56772908      8.75634625      
    1320.000 84.52257682      9.80416638       70.23904382      8.75634251      
    1320.500 85.41975430      9.80231803       69.64442231      8.75633876      
    1321.000 84.04733387      9.80026639       68.71513944      8.75633502      
    1321.500 79.49657072      9.82191405       68.65537849      8.75633127      
    1322.000 81.70525504      9.85700946       69.91035857      8.75632753      
    1322.500 86.11682609      9.88517455       71.88396414      8.75632378      
    1323.000 90.57183872      9.94474051       74.63147410      8.75632003      
    1323.500 91.85926374      9.97809510       75.70717131      8.75631629      
    1324.000 92.51286981      9.98261957       75.52788845      8.75631254      
    1324.500 89.55114396      9.98263869       73.85458167      8.75630880      
    1325.000 86.62679222      9.98281866       73.64541833      8.75630505      
    1325.500 89.93872690      10.03954575      73.67529880      8.75630131      
    1326.000 91.69721252      10.06304935      73.55577689      8.75629756      
    1326.500 92.76904282      10.07753072      73.55577689      8.75629381      
    1327.000 93.34231911      10.07788814      74.15338645      8.75629007      
    1327.500 93.73673019      10.06223293      74.51195219      8.75628632      
    1328.000 92.96230376      10.04326520      74.33266932      8.75628258      
    1328.500 88.39229948      10.01871010      73.01792829      8.75627883      
    1329.000 83.70119504      10.01376148      70.74701195      8.75627509      
    1329.500 78.56364296      10.02080313      68.17729084      8.75627134      
    1330.000 75.70837048      10.02309732      68.74501992      8.75626760      
    1330.500 76.43830569      10.00793572      69.33964143      8.75626385      
    1331.000 77.85875038      9.99595706       70.56772908      8.75626010      
    1331.500 82.23225817      9.98090976       71.34462151      8.75625636      
    1332.000 86.03903758      9.98290390       71.44145727      8.75625261      
    1332.500 86.23739139      9.98050322       71.32915300      8.75624887      
    1333.000 85.04720083      9.99709697       71.39618448      8.75624512      
    1333.500 83.82624961      10.00334423      71.46282926      8.75624138      
    1334.000 82.89475778      9.98882709       70.56526144      8.75623763      
    1334.500 82.86735920      9.97391392       68.71952261      8.75623388      
    1335.000 82.92950345      9.97799872       69.28115916      8.75623014      
    1335.500 83.51516000      9.98048765       70.92629482      8.75622639      
    1336.000 85.09984909      10.00303235      73.43625498      8.75622265      
    1336.500 87.36629507      10.01969277      74.39243028      8.75621890      
