~Version Information Block
 VERS.                2.00:     CWLS LOG ASCII STANDARD - VERSION 2.000000
 WRAP.                  NO:     One Line Per Depth Step
#
~Well Information Block
#MNEM.UNIT                     Data                         Information
#----------   ------------------------------------------   ----------------
 STRT.FT                                       50.0000:     START DEPTH
 STOP.FT                                     2900.0000:     STOP DEPTH
 STEP.FT                                        0.5000:     STEP
 NULL.                                       -999.2500:     NULL VALUE
 COMP.                          Kerr-McGee Corporation:     COMPANY
 WELL.                                       Navajo #4:     WELL
 FLD .                                  Dineh-bi-Keyah:     FIELD
 LOC .                            870' FEL & 1720' FNL:     LOCATION
 SEC .                                              32:     SECTION
 TWP .                                             36N:     TOWNSHIP
 RANG.                                             30E:     RANGE
 CNTY.                                          Apache:     COUNTY
 STAT.                                         Arizona:     STATE
 CTRY.                                          U.S.A.:     COUNTRY
 SRVC.                                    Schlumberger:     SERVICE COMPANY
 DATE.                                      05/23/2012:     DATE
 API .                                    02-001-20009:     API NUMBER
 UWI .                                    02-001-20009:     UWI NUMBER
 TVD .                                              NO:     TVD flag
 WSTA.                                             OIL:     Well status
#
~Curve Information Block
#MNEM.UNIT       API CODE      Curve Description
#----------    -------------   -------------------
 DEPT.FT                   :   Depth in Feet
 GR  .GAPI     35 310 01 01:   Gamma Ray
 CALI.IN       70 280 01 01:   Caliper
 DT  .US/F     60 520 08 01:   Delta-T
 BIT .IN                   :   Bit size
#
~Parameter Information Block
#MNEM.UNIT            Value               Description
#----------    --------------------    -------------------
 DATE.                   5/23/2012:    Date As Month-Day-Year
 RUN .                         ONE:    Run Number
 PDAT.                          GL:    Permanent Datum
 EPD .FT                 7361.0000:    Elevation Of Perm. Datum
 LMF .                          KB:    Log Measured From
 FAPD.FT                   13.0000:    Feet Above Perm. Datum
 DMF .                          KB:    Drilling Measured From
 EKB .FT                 7374.0000:    Elevation Of Kelly Bushing
 EDF .FT                 7361.0000:    Elevation Of Derrick Floor
 EGL .FT                 7361.0000:    Elevation Of Ground Level
 TD  .FT                 2900.0000:    Total Depth
 DF  .         Pennsylvanian Hermo:    
 PROJ.                       Rmccs:    
 DD  .FT                 2898.0000:    Depth Driller
 DL  .FT                 2898.0000:    Depth Logger
 BLI .FT                 2896.0000:    Bottom Log Interval
 TLI .FT                    0.0000:    Top Log Interval
 CSIZ.IN                     9 5/8:    Casing Size
 CBD1.                         263:    Casing Bottom (Driller) 1
 CBL1.                         263:    Casing Bottom (Logger) 1
 BS  .IN                     8 3/4:    Bit Size
 DFT .                    GEL CHEM:    Drilling Fluid Type
 DFV .S                    60.0000:    Drilling Fluid Viscosity
 DFD .LB/G                  8.9000:    Drilling Fluid Density
 DFL .ML                    3.0000:    Drilling Fluid Loss
 DFPH.                      9.0000:    Drilling Fluid Ph
 MSS .                   Flow line:    Mud Sample Source
 RMS .OHMM                  5.1400:    Resistivity Of Mud Sample
 MST .DEGF                 90.0000:    Mud Sample Temperature
 RMF .OHMM                  3.1000:    Mud Filtrate Resistivity
 MFST.DEGF                 70.0000:    Mud Filtrate Sample Temperature
 MFSS.                        MEAS:    Mud Filtrate Sample Source
 RMB .OHMM                  4.6200:    Mud Resistivity At Bht
 BHT .DEGF                 99.0000:    Bottom Hole Temperature
 TCS .                 5 1/2 hours:    Time Circulation Stopped
 MRT .DEGF                 99.0000:    Maximum Recorded Temperature
 LUN .                        3860:    Logging Unit Number
 LUL .                  Farmington:    Logging Unit Location
 ENGI.                      Brooks:    Engineer'S Name
 WITN.                 Hassenfratz:    Witness' Name
 DGBY.                         slr:    
 WSTA.                         OIL:    
#
~Other Information Block
<DescLogPlotStart>   NEURALOG PLOT DEFINITION
PLOTDEFVERSION: 3
LASFILE: C:\nds\projects\Rmccs\las\0384BHCS_2.las
DEPTHSCALE: 600.000013
RESOLUTION: 200
DEPTHLABELFREQ: 100.000000
HEAVYGRIDFREQ: 50.000000
MEDIUMGRIDFREQ: 50.000000
LIGHTGRIDFREQ: 50.000000
#
#   TRACK 1
#
STARTTRACK: 
 LEFTX: 0.500000 inch
 RIGHTX: 3.000000 inch
 SCALETYPE: Linear
 NUMCHARTDIVISIONS: 10
CURVE: GR    0.000000   160.000000 (0,0,255)      Solid             2     N    
CURVE: CALI  6.000000   16.000000  (0,131,131)    Dot               2     N    
CURVE: BIT   6.000000   16.000000  (255,0,255)    Short_Dash        2     N    
ENDTRACK: 
#
#   TRACK 2
#
STARTTRACK: 
 LEFTX: 3.500000 inch
 RIGHTX: 8.500000 inch
 SCALETYPE: Linear
 NUMCHARTDIVISIONS: 21
CURVE: DT    100.000000 40.000000  (255,0,0)      Solid             2     Y    
BACKUP: 160.000000 100.000000 (255,131,0)    Solid             2    
ENDTRACK: 
<DescLogPlotEnd>
<DescLog>Borehole Compensated Sonic
<DescOSVS>IES, CBL
<DescOSVS>FDC/GR
<DescOSVS>
IAP failed to step between 0932' and 0892'
~A DEPTH     GR               CALI             DT               BIT             
# ...
    2525.000 34.96295008      9.42467358       55.74701195      8.74731556      
    2525.500 39.63801840      9.43174182       58.58980061      8.74731181      
    2526.000 44.20112418      9.43852251       59.35155739      8.74730807      
    2526.500 49.13183544      9.40702665       60.87377561      8.74730432      
    2527.000 52.62807859      9.39277877       62.64141758      8.74730058      
    2527.500 54.27533779      9.38228113       63.82594615      8.74729683      
    2528.000 55.61897079      9.38327311       65.26402915      8.74729309      
    2528.500 56.72838569      9.38415129       65.81445715      8.74728934      
    2529.000 58.00535901      9.37370340       65.90637450      8.74728559      
    2529.500 58.57453643      9.36015381       65.42828685      8.74728185      
    2530.000 58.45071691      9.34561026       64.59163347      8.74727810      
    2530.500 57.74383290      9.34306779       64.35258964      8.74727436      
    2531.000 56.41912862      9.34167178       62.55976096      8.74727061      
    2531.500 53.09794482      9.32548080       60.64741036      8.74726687      
    2532.000 50.69231000      9.32112288       59.51195219      8.74726312      
    2532.500 51.89136893      9.30581867       60.82818725      8.74725937      
    2533.000 54.75693281      9.30094413       63.53800249      8.74725563      
    2533.500 56.72593676      9.28618861       66.65825716      8.74725188      
    2534.000 55.62027848      9.27425607       68.87750200      8.74724814      
    2534.500 51.62460594      9.25270778       68.70398197      8.74724439      
    2535.000 47.59800241      9.24091675       67.56320594      8.74724065      
    2535.500 43.58181005      9.22450470       65.10197760      8.74723690      
    2536.000 39.75793491      9.20237929       62.81939663      8.74723316      
    2536.500 36.00117420      9.18656433       59.63987513      8.74722941      
    2537.000 34.64247782      9.17319308       56.94223108      8.74722566      
    2537.500 34.36769042      9.16235902       54.91035857      8.74722192      
    2538.000 34.26838958      9.16405669       53.77490040      8.74721817      
    2538.500 34.63772216      9.16322594       53.89442231      8.74721443      
    2539.000 35.96428746      9.16388538       54.19322709      8.74721068      
    2539.500 37.24412850      9.17160453       54.73107570      8.74720694      
    2540.000 41.67598851      9.18378644       55.33167331      8.74720319      
    2540.500 44.09139469      9.19468064       56.69930279      8.74719944      
    2541.000 43.62720770      9.20551380       58.79482072      8.74719570      
    2541.500 41.79021108      9.22080590       60.64741036      8.74719195      
    2542.000 39.07443614      9.23399175       62.08167331      8.74718821      
    2542.500 36.59443676      9.27481136       63.57569721      8.74718446      
    2543.000 34.27098334      9.30233904       64.35258964      8.74718072      
    2543.500 34.28378841      9.30384217       65.54780876      8.74717697      
    2544.000 36.59360630      9.30225340       66.44422311      8.74717323      
    2544.500 38.71208098      9.31310194       65.98854582      8.74716948      
    2545.000 39.78520130      9.32491175       63.39641434      8.74716573      
    2545.500 38.71076526      9.32200711       59.03386454      8.74716199      
    2546.000 35.97647568      9.33208462       54.97011952      8.74715824      
    2546.500 36.71328005      9.35712593       52.46015936      8.74715450      
    2547.000 40.85584801      9.40926337       52.89521912      8.74715075      
    2547.500 47.41283526      9.43542917       55.32868526      8.74714701      
    2548.000 53.99372939      9.47164051       58.61553785      8.74714326      
    2548.500 56.72534452      9.48634496       61.96215139      8.74713951      
    2549.000 57.60204235      9.50070922       64.29282869      8.74713577      
    2549.500 56.85488244      9.50380168       65.12948207      8.74713202      
    2550.000 53.27545163      9.50283906       64.53314641      8.74712828      
    2550.500 51.88512733      9.50331161       62.63542769      8.74712453      
    2551.000 51.89589652      9.50296667       61.24501992      8.74712079      
    2551.500 54.25365709      9.50320607       62.03745020      8.74711704      
    2552.000 58.02215390      9.50281864       63.27689243      8.74711330      
    2552.500 59.50299154      9.50339446       64.41235060      8.74710955      
    2553.000 59.51893913      9.50235581       65.12948207      8.74710580      
    2553.500 56.65620383      9.50433848       64.54621514      8.74710206      
    2554.000 52.33812400      9.48799008       63.03784861      8.74709831      
    2554.500 47.82152580      9.48173746       61.72310757      8.74709457      
    2555.000 44.06312366      9.48366347       60.76693227      8.74709082      
    2555.500 43.40887260      9.48276992       60.46812749      8.74708708      
    2556.000 42.08071112      9.48326405       60.10956175      8.74708333      
    2556.500 41.41362496      9.48311834       59.45219124      8.74707958      
    2557.000 44.88405038      9.48301004       58.91434263      8.74707584      
    2557.500 49.01590769      9.48342785       58.91434263      8.74707209      
    2558.000 53.98358815      9.48277097       59.51195219      8.74706835      
    2558.500 55.10642371      9.48168131       60.16932271      8.74706460      
    2559.000 52.51212332      9.43779241       60.70717131      8.74706086      
    2559.500 50.62777729      9.39579344       59.39243028      8.74705711      
    2560.000 49.14325910      9.36946572       56.97439065      8.74705337      
    2560.500 48.05479902      9.35721570       54.92058273      8.74704962      
    2561.000 46.34342511      9.34182913       54.64791298      8.74704587      
    2561.500 45.62330458      9.34516717       54.55977015      8.74704213      
    2562.000 50.53301777      9.32754238       54.52495879      8.74703838      
    2562.500 55.01804092      9.32328527       58.45115095      8.74703464      
    2563.000 54.15439556      9.31919676       61.60998288      8.74703089      
    2563.500 50.29747130      9.30133072       63.64358691      8.74702715      
    2564.000 39.72916542      9.30523490       62.68167331      8.74702340      
    2564.500 31.04872093      9.28883406       60.34860558      8.74701965      
    2565.000 31.21547998      9.27857480       57.53984064      8.74701591      
    2565.500 31.89005252      9.25831587       55.92629482      8.74701216      
    2566.000 33.62602850      9.23909870       55.92629482      8.74700842      
    2566.500 34.88426295      9.21741263       55.92629482      8.74700467      
    2567.000 36.41514999      9.20347135       55.92629482      8.74700093      
    2567.500 37.76909462      9.19036291       56.64342629      8.74699718      
    2568.000 39.33288787      9.16481424       57.59960159      8.74699344      
    2568.500 40.23406908      9.13165832       59.09362550      8.74698969      
    2569.000 40.29162156      9.10232342       60.58764940      8.74698594      
    2569.500 40.57913974      9.09922252       61.12549801      8.74698220      
    2570.000 40.66258145      9.08328146       59.99153386      8.74697845      
    2570.500 43.16892014      9.07215557       58.69382470      8.74697471      
    2571.000 54.18119860      9.05301414       57.53984064      8.74697096      
    2571.500 56.50369235      9.04353146       57.65936255      8.74696722      
    2572.000 54.66412997      9.04311289       58.07768924      8.74696347      
    2572.500 51.59168086      9.05850012       58.49601594      8.74695972      
    2573.000 50.43138182      9.06570359       58.55577689      8.74695598      
    2573.500 49.39213853      9.06257763       59.03386454      8.74695223      
    2574.000 49.36471149      9.06567019       59.69123506      8.74694849      
