~Version Information Block
 VERS.                2.00:     CWLS LOG ASCII STANDARD - VERSION 2.000000
 WRAP.                  NO:     One Line Per Depth Step
#
~Well Information Block
#MNEM.UNIT                     Data                         Information
#----------   ------------------------------------------   ----------------
 STRT.FT                                      250.0000:     START DEPTH
 STOP.FT                                     2900.0000:     STOP DEPTH
 STEP.FT                                        0.5000:     STEP
 NULL.                                       -999.2500:     NULL VALUE
 COMP.                          Kerr-McGee Corporation:     COMPANY
 WELL.                                       Navajo #4:     WELL
 FLD .                                  Dineh-bi-Keyah:     FIELD
 LOC .                             0870' FEL 1720' FNL:     LOCATION
 SEC .                                              32:     SECTION
 TWP .                                             36N:     TOWNSHIP
 RANG.                                             30E:     RANGE
 CNTY.                                          Apache:     COUNTY
 STAT.                                         Arizona:     STATE
 CTRY.                                             USA:     COUNTRY
 SRVC.                                    Schlumberger:     SERVICE COMPANY
 DATE.                                                :     DATE
 API .                                    02-001-20009:     API NUMBER
 UWI .                                    02-001-20009:     UWI NUMBER
 TVD .                                              NO:     TVD flag
 WSTA.                                             OIL:     Well status
#
~Curve Information Block
#MNEM.UNIT       API CODE      Curve Description
#----------    -------------   -------------------
 DEPT.FT                   :   Depth in Feet
 SP  .MV       05 010 01 01:   Spontaneous Potential
 ILD .OHMM     05 120 46 01:   Deep Induction Standard Processed Resistivity
 SN  .OHMM     05 040 16 01:   Short Normal
 CILD.MMHO     05 110 46 01:   Deep Induction Standard Processed Conductivity
#
~Parameter Information Block
#MNEM.UNIT            Value               Description
#----------    --------------------    -------------------
 DATE.                    5/9/2012:    Date As Month-Day-Year
 RUN .                         ONE:    Run Number
 PDAT.                          GL:    Permanent Datum
 EPD .FT                 7361.0000:    Elevation Of Perm. Datum
 LMF .                          KB:    Log Measured From
 FAPD.FT                   13.0000:    Feet Above Perm. Datum
 DMF .                          KB:    Drilling Measured From
 EKB .FT                 7374.0000:    Elevation Of Kelly Bushing
 EDF .FT                 7373.0000:    Elevation Of Derrick Floor
 EGL .FT                 7361.0000:    Elevation Of Ground Level
 TD  .FT                 2898.0000:    Total Depth
 DF  .                     Hermosa:    
 PROJ.                       Rmccs:    
 DD  .FT                 2898.0000:    Depth Driller
 DL  .FT                 2899.0000:    Depth Logger
 BLI .FT                 2898.0000:    Bottom Log Interval
 TLI .FT                  264.0000:    Top Log Interval
 CSIZ.IN                     9 5/8:    Casing Size
 CBD1.                         263:    Casing Bottom (Driller) 1
 CBL1.                         264:    Casing Bottom (Logger) 1
 BS  .IN                     8 3/4:    Bit Size
 DFT .                    GEL-CHEM:    Drilling Fluid Type
 DFV .S                    60.0000:    Drilling Fluid Viscosity
 DFD .LB/G                  8.9000:    Drilling Fluid Density
 DFL .ML                    3.0000:    Drilling Fluid Loss
 DFPH.                      9.0000:    Drilling Fluid Ph
 MSS .                   FLOW LINE:    Mud Sample Source
 RMS .OHMM                  5.1400:    Resistivity Of Mud Sample
 MST .DEGF                 90.0000:    Mud Sample Temperature
 RMF .OHMM                  3.1000:    Mud Filtrate Resistivity
 MFST.DEGF                 70.0000:    Mud Filtrate Sample Temperature
 MFSS.                        CALC:    Mud Filtrate Sample Source
 RMC .OHMM                  0.0000:    Mud Cake Resistivity
 MCST.DEGF                  0.0000:    Mud Cake Sample Temperature
 MCSS.                        CALC:    Mud Cake Sample Source
 RMB .OHMM                  4.6200:    Mud Resistivity At Bht
 BHT .DEGF                 99.0000:    Bottom Hole Temperature
 TCS .                        2 hr:    Time Circulation Stopped
 MRT .DEGF                 99.0000:    Maximum Recorded Temperature
 LUN .                        3860:    Logging Unit Number
 LUL .                        FARM:    Logging Unit Location
 ENGI.                      Brooks:    Engineer'S Name
 WITN.             Mr. Hassenfratz:    Witness' Name
 DGBY.                         slr:    
 WSTA.                         OIL:    
#
~Other Information Block
<DescLogPlotStart>   NEURALOG PLOT DEFINITION
PLOTDEFVERSION: 3
LASFILE: C:\nds\projects\Rmccs\las\0384IEL.las
DEPTHSCALE: 600.000013
RESOLUTION: 200
DEPTHLABELFREQ: 100.000000
HEAVYGRIDFREQ: 50.000000
MEDIUMGRIDFREQ: 50.000000
LIGHTGRIDFREQ: 10.000000
#
#   TRACK 1
#
STARTTRACK: 
 LEFTX: 0.500000 inch
 RIGHTX: 3.000000 inch
 SCALETYPE: Linear
 NUMCHARTDIVISIONS: 10
CURVE: SP    0.000000   100.000000 (255,131,0)    Solid             2     Y    
BACKUP: 0.000000   200.000000 (255,131,0)    Solid             2    
BACKUP: -100.000000 0.000000   (255,131,0)    Solid             2    
ENDTRACK: 
#
#   TRACK 2
#
STARTTRACK: 
 LEFTX: 3.750000 inch
 RIGHTX: 6.250000 inch
 SCALETYPE: Linear
 NUMCHARTDIVISIONS: 10
CURVE: ILD   0.000000   100.000000 (0,0,156)      Solid             2     Y    
BACKUP: 0.000000   1000.000000 (0,0,156)      Solid             2    
BACKUP: -100.000000 0.000000   (0,0,156)      Solid             2    
CURVE: SN    0.000000   100.000000 (255,0,0)      Solid             2     Y    
BACKUP: 0.000000   1000.000000 (255,0,0)      Solid             2    
BACKUP: -100.000000 0.000000   (255,0,0)      Solid             2    
ENDTRACK: 
#
#   TRACK 3
#
STARTTRACK: 
 LEFTX: 6.250000 inch
 RIGHTX: 8.750000 inch
 SCALETYPE: Linear
 NUMCHARTDIVISIONS: 10
CURVE: CILD  400.000000 0.000000   (0,131,0)      Solid             2     N    
ENDTRACK: 
<DescLogPlotEnd>
<DescLog>Induction Electrical
<DescOSVS>BHC/GR
<DescOSVS>CBL
<DescOSVS>FDC/GR
~A DEPTH     SP               ILD              SN               CILD            
# ...
     448.000 67.08144000      8.91886564       7.30788002       132.46753247    
     448.500 67.28510583      8.92629237       7.31752785       132.06793207    
     449.000 67.58062018      8.87701898       7.31238271       132.86713287    
     449.500 67.69350974      8.66563918       7.31559227       134.06593407    
     450.000 67.70495196      8.46267480       7.31370900       135.53695560    
     450.500 67.53341459      8.28714631       7.31479353       136.97980272    
     451.000 67.70016740      8.13695179       7.31378993       138.26173826    
     451.500 67.91682636      8.10980544       7.31481238       138.46153846    
     452.000 68.03431069      8.11305907       7.31292217       138.49057166    
     452.500 68.12504291      8.19282425       7.31662901       138.29726164    
     453.000 68.08074309      8.45160826       7.29541878       137.29641940    
     453.500 68.14613465      8.70434035       7.12912163       135.89420301    
     454.000 68.45143169      9.01906182       7.12280057       132.89274364    
     454.500 68.65159317      9.29625654       7.31451561       128.29443013    
     455.000 68.72371532      9.20231264       7.50598097       122.69604704    
     455.500 68.54452256      9.54147013       7.78843372       116.69549116    
     456.000 68.48991717      10.01716701      8.03270190       110.69353150    
     456.500 68.50204875      10.49635919      8.41748631       104.48990387    
     457.000 68.62586198      10.87046242      8.80489687       99.08686567     
     457.500 68.90835754      11.41199206      9.32188049       94.28612826     
     458.000 69.13281559      12.02710230      9.81451384       88.08602578     
     458.500 69.06742799      12.69327484      10.03670654      82.88752801     
     459.000 69.40467388      13.34868828      10.40302261      80.09249109     
     459.500 69.51861919      13.74186528      10.63036249      80.71928072     
     460.000 69.23043604      13.60640290      10.75544195      82.41758242     
     460.500 68.96367940      13.33041868      10.84646683      84.41558442     
     461.000 68.69777250      13.33006769      10.91877597      84.51548452     
     461.500 68.44376183      13.41305728      10.93296341      81.71828172     
     462.000 68.24221280      14.25687625      11.14725181      77.52247752     
     462.500 68.09753545      15.28349475      11.77855594      72.12787213     
     463.000 67.95851127      16.10996499      12.24906719      66.33366633     
     463.500 67.87515147      17.11469332      12.81510220      62.93706294     
     464.000 67.92078415      17.33259280      13.21704953      60.53946054     
     464.500 67.74222973      17.25020207      13.74353700      60.13986014     
     465.000 67.69126766      17.10540443      14.12540350      62.33766234     
     465.500 67.69630084      16.54593952      13.86514897      66.33366633     
     466.000 67.73575141      14.96423374      13.51679121      72.32767233     
     466.500 67.96053851      13.99137092      13.00273085      78.72127872     
     467.000 68.11440148      13.45230066      12.47162236      83.11688312     
     467.500 68.08244016      13.09686069      11.52453335      86.73098650     
     468.000 68.25730933      12.94597774      11.19107476      88.32452284     
     468.500 68.30490293      12.61755561      11.12603266      89.11744899     
     469.000 68.31271788      12.30929317      11.03365804      90.31026429     
     469.500 68.13636260      12.14194645      10.80608070      91.10376076     
     470.000 67.90684712      12.13292940      10.71636625      90.69654256     
     470.500 67.67923553      12.31796511      10.70651730      89.88953737     
     471.000 67.37084516      12.27077946      10.53682294      89.48661457     
     471.500 67.52566778      12.10209088      10.52351046      92.48654013     
     472.000 67.33595460      11.70771884      10.49215752      97.28951279     
     472.500 67.42647851      11.21147961      10.18535843      103.29144351    
     473.000 67.56626658      10.83133673      9.93045580       109.89072319    
     473.500 67.70340234      10.41072302      9.55921536       114.88841206    
     474.000 67.69904107      10.03559709      9.08439750       118.08775932    
     474.500 67.79835234      9.51192558       8.62044298       121.28943117    
     475.000 67.70411270      9.08539627       8.50935394       123.67632368    
     475.500 67.68947197      8.95470015       8.43679838       126.67332667    
     476.000 67.84658915      8.80687214       8.19245838       129.07092907    
     476.500 67.92049437      8.70588201       8.12219209       131.06893107    
     477.000 67.88104245      8.71845138       8.01537061       132.86713287    
     477.500 68.05483671      8.71326241       7.90108211       133.66633367    
     478.000 68.11129042      8.71450216       7.91849749       133.66633367    
     478.500 68.09709544      8.71731558       7.91563185       133.46653347    
     479.000 68.10224464      8.70813895       7.90457453       132.50116740    
     479.500 67.97798817      8.80053402       8.00835201       130.49852325    
     480.000 67.58157915      9.04003599       8.21190495       125.64658713    
     480.500 67.49078029      9.40260526       8.42911655       120.24373500    
     481.000 67.46032102      9.83830030       8.44963503       114.09055346    
     481.500 67.27460657      10.10807968      8.48097733       108.28744891    
     482.000 67.34236266      10.48920419      8.83041983       103.08307601    
     482.500 67.56085921      10.93659410      9.18180443       100.07895487    
     483.000 67.69934445      11.62224666      9.55079960       96.30369630     
     483.500 67.83639489      12.27740716      9.92499683       92.10789211     
     484.000 68.05519488      12.78260409      9.91525627       87.51248751     
     484.500 68.14822578      12.97396212      9.92635174       85.11488511     
     485.000 68.35015897      12.79414430      9.92024223       86.11388611     
     485.500 68.52935064      12.51721898      9.92477730       89.71028971     
     486.000 68.33033752      12.11355539      9.89493560       94.50549451     
     486.500 68.44322568      11.18773578      9.51212162       98.70129870     
     487.000 68.50872917      10.74195951      9.27757544       102.69730270    
     487.500 68.53219110      10.51604487      9.14059181       106.69330669    
     488.000 68.75945071      10.32043093      8.82774365       110.08991009    
     488.500 68.94536079      10.12159928      8.69123498       114.08591409    
     489.000 69.15379687      9.91200532       8.52823069       117.48251748    
     489.500 69.44870828      9.73140892       8.57087742       121.27872128    
     490.000 69.64764860      9.42934671       9.00429402       124.47552448    
     490.500 69.59778002      9.29824140       8.82132915       127.67232767    
     491.000 69.46601451      9.03925706       8.58830390       130.46953047    
     491.500 69.23493564      8.90147957       8.41838544       131.46853147    
     492.000 69.09928598      8.83945751       8.29208070       132.06793207    
     492.500 69.08780964      8.59337318       8.34379680       132.66733267    
     493.000 69.25149738      8.51474770       8.07366752       132.66733267    
     493.500 69.30520920      8.50462879       7.67707645       131.06893107    
     494.000 69.43288450      8.62013220       7.74877155       128.27172827    
     494.500 69.66136848      9.02038890       7.88543389       124.07592408    
     495.000 69.71498879      9.41471447       7.93904686       120.27972028    
     495.500 69.67993164      9.82627467       8.09729482       116.68331668    
     496.000 69.86366196      10.20124089      8.12493692       113.28671329    
     496.500 69.76591989      10.44864265      8.39781225       110.88911089    
     497.000 69.67539747      10.72455522      8.53207701       109.29070929    
