~Version Information Block
 VERS.                2.00:     CWLS LOG ASCII STANDARD - VERSION 2.000000
 WRAP.                  NO:     One Line Per Depth Step
#
~Well Information Block
#MNEM.UNIT                     Data                         Information
#----------   ------------------------------------------   ----------------
 STRT.FT                                       50.0000:     START DEPTH
 STOP.FT                                     2900.0000:     STOP DEPTH
 STEP.FT                                        0.5000:     STEP
 NULL.                                       -999.2500:     NULL VALUE
 COMP.                          Kerr-McGee Corporation:     COMPANY
 WELL.                                       Navajo #4:     WELL
 FLD .                                  Dineh-bi-Keyah:     FIELD
 LOC .                            870' FEL & 1720' FNL:     LOCATION
 SEC .                                              32:     SECTION
 TWP .                                             36N:     TOWNSHIP
 RANG.                                             30E:     RANGE
 CNTY.                                          Apache:     COUNTY
 STAT.                                         Arizona:     STATE
 CTRY.                                          U.S.A.:     COUNTRY
 SRVC.                                    Schlumberger:     SERVICE COMPANY
 DATE.                                      05/23/2012:     DATE
 API .                                    02-001-20009:     API NUMBER
 UWI .                                    02-001-20009:     UWI NUMBER
 TVD .                                              NO:     TVD flag
 WSTA.                                             OIL:     Well status
#
~Curve Information Block
#MNEM.UNIT       API CODE      Curve Description
#----------    -------------   -------------------
 DEPT.FT                   :   Depth in Feet
 GR  .GAPI     35 310 01 01:   Gamma Ray
 CALI.IN       70 280 01 01:   Caliper
 DT  .US/F     60 520 08 01:   Delta-T
 BIT .IN                   :   Bit size
#
~Parameter Information Block
#MNEM.UNIT            Value               Description
#----------    --------------------    -------------------
 DATE.                   5/23/2012:    Date As Month-Day-Year
 RUN .                         ONE:    Run Number
 PDAT.                          GL:    Permanent Datum
 EPD .FT                 7361.0000:    Elevation Of Perm. Datum
 LMF .                          KB:    Log Measured From
 FAPD.FT                   13.0000:    Feet Above Perm. Datum
 DMF .                          KB:    Drilling Measured From
 EKB .FT                 7374.0000:    Elevation Of Kelly Bushing
 EDF .FT                 7361.0000:    Elevation Of Derrick Floor
 EGL .FT                 7361.0000:    Elevation Of Ground Level
 TD  .FT                 2900.0000:    Total Depth
 DF  .         Pennsylvanian Hermo:    
 PROJ.                       Rmccs:    
 DD  .FT                 2898.0000:    Depth Driller
 DL  .FT                 2898.0000:    Depth Logger
 BLI .FT                 2896.0000:    Bottom Log Interval
 TLI .FT                    0.0000:    Top Log Interval
 CSIZ.IN                     9 5/8:    Casing Size
 CBD1.                         263:    Casing Bottom (Driller) 1
 CBL1.                         263:    Casing Bottom (Logger) 1
 BS  .IN                     8 3/4:    Bit Size
 DFT .                    GEL CHEM:    Drilling Fluid Type
 DFV .S                    60.0000:    Drilling Fluid Viscosity
 DFD .LB/G                  8.9000:    Drilling Fluid Density
 DFL .ML                    3.0000:    Drilling Fluid Loss
 DFPH.                      9.0000:    Drilling Fluid Ph
 MSS .                   Flow line:    Mud Sample Source
 RMS .OHMM                  5.1400:    Resistivity Of Mud Sample
 MST .DEGF                 90.0000:    Mud Sample Temperature
 RMF .OHMM                  3.1000:    Mud Filtrate Resistivity
 MFST.DEGF                 70.0000:    Mud Filtrate Sample Temperature
 MFSS.                        MEAS:    Mud Filtrate Sample Source
 RMB .OHMM                  4.6200:    Mud Resistivity At Bht
 BHT .DEGF                 99.0000:    Bottom Hole Temperature
 TCS .                 5 1/2 hours:    Time Circulation Stopped
 MRT .DEGF                 99.0000:    Maximum Recorded Temperature
 LUN .                        3860:    Logging Unit Number
 LUL .                  Farmington:    Logging Unit Location
 ENGI.                      Brooks:    Engineer'S Name
 WITN.                 Hassenfratz:    Witness' Name
 DGBY.                         slr:    
 WSTA.                         OIL:    
#
~Other Information Block
<DescLogPlotStart>   NEURALOG PLOT DEFINITION
PLOTDEFVERSION: 3
LASFILE: C:\nds\projects\Rmccs\las\0384BHCS_2.las
DEPTHSCALE: 600.000013
RESOLUTION: 200
DEPTHLABELFREQ: 100.000000
HEAVYGRIDFREQ: 50.000000
MEDIUMGRIDFREQ: 50.000000
LIGHTGRIDFREQ: 50.000000
#
#   TRACK 1
#
STARTTRACK: 
 LEFTX: 0.500000 inch
 RIGHTX: 3.000000 inch
 SCALETYPE: Linear
 NUMCHARTDIVISIONS: 10
CURVE: GR    0.000000   160.000000 (0,0,255)      Solid             2     N    
CURVE: CALI  6.000000   16.000000  (0,131,131)    Dot               2     N    
CURVE: BIT   6.000000   16.000000  (255,0,255)    Short_Dash        2     N    
ENDTRACK: 
#
#   TRACK 2
#
STARTTRACK: 
 LEFTX: 3.500000 inch
 RIGHTX: 8.500000 inch
 SCALETYPE: Linear
 NUMCHARTDIVISIONS: 21
CURVE: DT    100.000000 40.000000  (255,0,0)      Solid             2     Y    
BACKUP: 160.000000 100.000000 (255,131,0)    Solid             2    
ENDTRACK: 
<DescLogPlotEnd>
<DescLog>Borehole Compensated Sonic
<DescOSVS>IES, CBL
<DescOSVS>FDC/GR
<DescOSVS>
IAP failed to step between 0932' and 0892'
~A DEPTH     GR               CALI             DT               BIT             
# ...
    1980.500 67.68566756      9.82645507       59.69123506      8.75139454      
    1981.000 67.10493339      9.84478698       59.99003984      8.75139080      
    1981.500 66.07747742      9.83976919       60.64741036      8.75138705      
    1982.000 64.86966349      9.85856631       61.18525896      8.75138330      
    1982.500 63.96223761      9.86168992       61.90239044      8.75137956      
    1983.000 62.45002387      9.87731124       61.72310757      8.75137581      
    1983.500 59.12942258      9.88261131       61.00597610      8.75137207      
    1984.000 55.96014175      9.89597599       59.87051793      8.75136832      
    1984.500 55.42875720      9.90715641       59.03386454      8.75136458      
    1985.000 57.23021951      9.92832169       58.19721116      8.75136083      
    1985.500 57.67003700      9.94177678       57.95816733      8.75135708      
    1986.000 57.67290212      9.94680712       57.89840637      8.75135334      
    1986.500 58.71035476      9.96308454       57.95816733      8.75134959      
    1987.000 60.80005987      9.97473267       58.37649402      8.75134585      
    1987.500 62.58826279      9.98918625       59.21314741      8.75134210      
    1988.000 61.27239918      10.00140475      60.10956175      8.75133836      
    1988.500 59.21595449      10.00615565      61.00597610      8.75133461      
    1989.000 56.93246262      10.02688969      61.24501992      8.75133087      
    1989.500 56.13735078      10.04779531      60.82669323      8.75132712      
    1990.000 56.55336367      10.06220490      60.46812749      8.75132337      
    1990.500 56.91998038      10.06519927      59.66345625      8.75131963      
    1991.000 56.01339350      10.09798264      59.14990189      8.75131588      
    1991.500 54.26531990      10.11559971      58.91190490      8.75131214      
    1992.000 53.72786641      10.12867391      58.79396007      8.75130839      
    1992.500 52.55554350      10.14094186      58.67476467      8.75130465      
    1993.000 51.95965340      10.14694458      58.43472354      8.75130090      
    1993.500 53.65809901      10.16198254      58.31383480      8.75129715      
    1994.000 55.18523305      10.17583642      58.25261176      8.75129341      
    1994.500 56.71998315      10.18351988      58.37649402      8.75128966      
    1995.000 58.10211487      10.18035357      58.59163347      8.75128592      
    1995.500 58.49631620      10.18528141      58.73505976      8.75128217      
    1996.000 59.01096752      10.21843640      58.85458167      8.75127843      
    1996.500 59.65443943      10.22075770      59.09362550      8.75127468      
    1997.000 60.20953813      10.22669511      59.27290837      8.75127094      
    1997.500 60.37653611      10.24200447      59.39243028      8.75126719      
    1998.000 60.99735193      10.25509505      59.57171315      8.75126344      
    1998.500 62.11609733      10.27690769      59.64172116      8.75125970      
    1999.000 62.66496379      10.28691400      59.65383634      8.75125595      
    1999.500 63.09136872      10.30252646      59.96322756      8.75125221      
    2000.000 63.63104053      10.30093125      60.92534521      8.75124846      
    2000.500 64.00860837      10.30150265      62.46960838      8.75124472      
    2001.000 63.78271582      10.30146438      62.83042216      8.75124097      
    2001.500 63.63393230      10.30082013      62.41276479      8.75123722      
    2002.000 60.22270221      10.30484638      61.15351769      8.75123348      
    2002.500 59.65226882      10.32777008      59.76209792      8.75122973      
    2003.000 60.11860275      10.35400303      60.16708754      8.75122599      
    2003.500 61.13312964      10.38291758      60.79916216      8.75122224      
    2004.000 61.28835545      10.40209742      61.88191379      8.75121850      
    2004.500 59.70407865      10.41525342      62.78961575      8.75121475      
    2005.000 57.96392137      10.42315793      62.57422719      8.75121101      
    2005.500 58.17208418      10.42030414      61.47270679      8.75120726      
    2006.000 60.33790386      10.42187226      59.69123506      8.75120351      
    2006.500 64.41163644      10.42083672      59.09362550      8.75119977      
    2007.000 69.07145254      10.42169002      59.33266932      8.75119602      
    2007.500 69.35652337      10.42065388      59.84063745      8.75119228      
    2008.000 67.56466129      10.42233132      60.30378486      8.75118853      
    2008.500 65.92188397      10.40667640      60.79681275      8.75118479      
    2009.000 64.26912577      10.39908297      61.03585657      8.75118104      
    2009.500 63.52062289      10.40362646      61.15537849      8.75117729      
    2010.000 70.58335739      10.38510209      62.08167331      8.75117355      
    2010.500 75.93455139      10.38183207      63.21713147      8.75116980      
    2011.000 75.39003156      10.37612154      64.41235060      8.75116606      
    2011.500 73.73576938      10.36108974      64.98007968      8.75116231      
    2012.000 70.36072455      10.35683929      64.41235060      8.75115857      
    2012.500 67.25434318      10.34018460      63.27689243      8.75115482      
    2013.000 63.89349023      10.33846671      62.38047809      8.75115108      
    2013.500 60.63305732      10.31453867      61.78286853      8.75114733      
    2014.000 57.34312048      10.30076481      61.93227092      8.75114358      
    2014.500 56.95110079      10.30138960      62.02191235      8.75113984      
    2015.000 57.69861542      10.30047470      61.99203187      8.75113609      
    2015.500 57.91923762      10.30098731      61.90239044      8.75113235      
    2016.000 58.04723936      10.29932474      61.69322709      8.75112860      
    2016.500 57.24039793      10.30398625      62.26095618      8.75112486      
    2017.000 56.12457914      10.32231628      62.11155378      8.75112111      
    2017.500 57.42148688      10.31780437      61.61512318      8.75111737      
    2018.000 59.08887875      10.40433836      62.04119941      8.75111362      
    2018.500 59.92372452      10.65774408      64.14267433      8.75110987      
    2019.000 59.51328622      10.94317182      67.34975318      8.75110613      
    2019.500 59.16436108      11.25937521      72.08653899      8.75110238      
    2020.000 58.83114114      11.68063337      75.71976364      8.75109864      
    2020.500 58.44362312      12.06080558      78.33927480      8.75109489      
    2021.000 59.71134369      12.40417831      83.66436226      8.75109115      
    2021.500 68.79601100      11.57583749      82.51992032      8.75108740      
    2022.000 71.02555775      10.27456070      75.34860558      8.75108365      
    2022.500 69.68907623      10.11844498      68.17729084      8.75107991      
    2023.000 66.22515540      10.02722448      57.71912351      8.75107616      
    2023.500 62.49636822      10.01276765      55.77689243      8.75107242      
    2024.000 58.77397452      9.97943947       56.94223108      8.75106867      
    2024.500 55.32918371      9.96351728       57.33067729      8.75106493      
    2025.000 54.60741708      9.95446629       57.00199203      8.75106118      
    2025.500 54.46888702      9.93996949       57.45019920      8.75105744      
    2026.000 54.18570866      9.94196867       57.83864542      8.75105369      
    2026.500 54.11031001      9.94305216       58.07768924      8.75104994      
    2027.000 54.04642438      9.93715002       58.31673307      8.75104620      
    2027.500 56.00126420      9.92110386       58.55577689      8.75104245      
    2028.000 57.53875297      9.92220885       58.91434263      8.75103871      
    2028.500 57.20690218      9.92311771       59.63147410      8.75103496      
    2029.000 56.03327473      9.90743105       59.69123506      8.75103122      
    2029.500 54.01985338      9.90092695       59.45523964      8.75102747      
