~Version Information Block
 VERS.                2.00:     CWLS LOG ASCII STANDARD - VERSION 2.000000
 WRAP.                  NO:     One Line Per Depth Step
#
~Well Information Block
#MNEM.UNIT                     Data                         Information
#----------   ------------------------------------------   ----------------
 STRT.FT                                      250.0000:     START DEPTH
 STOP.FT                                     2900.0000:     STOP DEPTH
 STEP.FT                                        0.5000:     STEP
 NULL.                                       -999.2500:     NULL VALUE
 COMP.                          Kerr-McGee Corporation:     COMPANY
 WELL.                                       Navajo #4:     WELL
 FLD .                                  Dineh-bi-Keyah:     FIELD
 LOC .                             0870' FEL 1720' FNL:     LOCATION
 SEC .                                              32:     SECTION
 TWP .                                             36N:     TOWNSHIP
 RANG.                                             30E:     RANGE
 CNTY.                                          Apache:     COUNTY
 STAT.                                         Arizona:     STATE
 CTRY.                                             USA:     COUNTRY
 SRVC.                                    Schlumberger:     SERVICE COMPANY
 DATE.                                                :     DATE
 API .                                    02-001-20009:     API NUMBER
 UWI .                                    02-001-20009:     UWI NUMBER
 TVD .                                              NO:     TVD flag
 WSTA.                                             OIL:     Well status
#
~Curve Information Block
#MNEM.UNIT       API CODE      Curve Description
#----------    -------------   -------------------
 DEPT.FT                   :   Depth in Feet
 SP  .MV       05 010 01 01:   Spontaneous Potential
 ILD .OHMM     05 120 46 01:   Deep Induction Standard Processed Resistivity
 SN  .OHMM     05 040 16 01:   Short Normal
 CILD.MMHO     05 110 46 01:   Deep Induction Standard Processed Conductivity
#
~Parameter Information Block
#MNEM.UNIT            Value               Description
#----------    --------------------    -------------------
 DATE.                    5/9/2012:    Date As Month-Day-Year
 RUN .                         ONE:    Run Number
 PDAT.                          GL:    Permanent Datum
 EPD .FT                 7361.0000:    Elevation Of Perm. Datum
 LMF .                          KB:    Log Measured From
 FAPD.FT                   13.0000:    Feet Above Perm. Datum
 DMF .                          KB:    Drilling Measured From
 EKB .FT                 7374.0000:    Elevation Of Kelly Bushing
 EDF .FT                 7373.0000:    Elevation Of Derrick Floor
 EGL .FT                 7361.0000:    Elevation Of Ground Level
 TD  .FT                 2898.0000:    Total Depth
 DF  .                     Hermosa:    
 PROJ.                       Rmccs:    
 DD  .FT                 2898.0000:    Depth Driller
 DL  .FT                 2899.0000:    Depth Logger
 BLI .FT                 2898.0000:    Bottom Log Interval
 TLI .FT                  264.0000:    Top Log Interval
 CSIZ.IN                     9 5/8:    Casing Size
 CBD1.                         263:    Casing Bottom (Driller) 1
 CBL1.                         264:    Casing Bottom (Logger) 1
 BS  .IN                     8 3/4:    Bit Size
 DFT .                    GEL-CHEM:    Drilling Fluid Type
 DFV .S                    60.0000:    Drilling Fluid Viscosity
 DFD .LB/G                  8.9000:    Drilling Fluid Density
 DFL .ML                    3.0000:    Drilling Fluid Loss
 DFPH.                      9.0000:    Drilling Fluid Ph
 MSS .                   FLOW LINE:    Mud Sample Source
 RMS .OHMM                  5.1400:    Resistivity Of Mud Sample
 MST .DEGF                 90.0000:    Mud Sample Temperature
 RMF .OHMM                  3.1000:    Mud Filtrate Resistivity
 MFST.DEGF                 70.0000:    Mud Filtrate Sample Temperature
 MFSS.                        CALC:    Mud Filtrate Sample Source
 RMC .OHMM                  0.0000:    Mud Cake Resistivity
 MCST.DEGF                  0.0000:    Mud Cake Sample Temperature
 MCSS.                        CALC:    Mud Cake Sample Source
 RMB .OHMM                  4.6200:    Mud Resistivity At Bht
 BHT .DEGF                 99.0000:    Bottom Hole Temperature
 TCS .                        2 hr:    Time Circulation Stopped
 MRT .DEGF                 99.0000:    Maximum Recorded Temperature
 LUN .                        3860:    Logging Unit Number
 LUL .                        FARM:    Logging Unit Location
 ENGI.                      Brooks:    Engineer'S Name
 WITN.             Mr. Hassenfratz:    Witness' Name
 DGBY.                         slr:    
 WSTA.                         OIL:    
#
~Other Information Block
<DescLogPlotStart>   NEURALOG PLOT DEFINITION
PLOTDEFVERSION: 3
LASFILE: C:\nds\projects\Rmccs\las\0384IEL.las
DEPTHSCALE: 600.000013
RESOLUTION: 200
DEPTHLABELFREQ: 100.000000
HEAVYGRIDFREQ: 50.000000
MEDIUMGRIDFREQ: 50.000000
LIGHTGRIDFREQ: 10.000000
#
#   TRACK 1
#
STARTTRACK: 
 LEFTX: 0.500000 inch
 RIGHTX: 3.000000 inch
 SCALETYPE: Linear
 NUMCHARTDIVISIONS: 10
CURVE: SP    0.000000   100.000000 (255,131,0)    Solid             2     Y    
BACKUP: 0.000000   200.000000 (255,131,0)    Solid             2    
BACKUP: -100.000000 0.000000   (255,131,0)    Solid             2    
ENDTRACK: 
#
#   TRACK 2
#
STARTTRACK: 
 LEFTX: 3.750000 inch
 RIGHTX: 6.250000 inch
 SCALETYPE: Linear
 NUMCHARTDIVISIONS: 10
CURVE: ILD   0.000000   100.000000 (0,0,156)      Solid             2     Y    
BACKUP: 0.000000   1000.000000 (0,0,156)      Solid             2    
BACKUP: -100.000000 0.000000   (0,0,156)      Solid             2    
CURVE: SN    0.000000   100.000000 (255,0,0)      Solid             2     Y    
BACKUP: 0.000000   1000.000000 (255,0,0)      Solid             2    
BACKUP: -100.000000 0.000000   (255,0,0)      Solid             2    
ENDTRACK: 
#
#   TRACK 3
#
STARTTRACK: 
 LEFTX: 6.250000 inch
 RIGHTX: 8.750000 inch
 SCALETYPE: Linear
 NUMCHARTDIVISIONS: 10
CURVE: CILD  400.000000 0.000000   (0,131,0)      Solid             2     N    
ENDTRACK: 
<DescLogPlotEnd>
<DescLog>Induction Electrical
<DescOSVS>BHC/GR
<DescOSVS>CBL
<DescOSVS>FDC/GR
~A DEPTH     SP               ILD              SN               CILD            
# ...
    1487.500 71.51476966      96.19499579      73.61812772      10.98901099     
    1488.000 71.41197564      96.65577837      76.21427442      10.18981019     
    1488.500 71.02885251      111.36323253     79.47923646      9.79020979      
    1489.000 70.75489457      105.09632842     81.93666132      9.39060939      
    1489.500 70.67463165      94.81690576      84.09278591      8.99100899      
    1490.000 70.81444855      85.31287191      83.39049793      10.28971029     
    1490.500 70.79950490      76.28014542      81.49130533      12.24877778     
    1491.000 71.43978793      67.27080235      78.09732129      14.91966173     
    1491.500 72.12852262      58.22216220      70.21142775      16.92507596     
    1492.000 72.65181349      51.04629085      62.98287577      18.53227512     
    1492.500 73.53559856      48.83377339      56.65519379      19.33873892     
    1493.000 74.07462917      47.05683121      52.67949329      20.13822604     
    1493.500 74.48908332      45.80366611      48.98373813      21.33076562     
    1494.000 74.92633958      41.93512875      48.08499981      22.51970314     
    1494.500 75.11037324      42.36471921      47.46969832      23.77622378     
    1495.000 75.23673410      44.64159929      48.11628230      23.37662338     
    1495.500 75.45982345      45.75925614      47.86214546      21.77822178     
    1496.000 75.64998629      45.75753836      47.15309636      21.37862138     
    1496.500 75.85104341      45.16004747      46.49947392      20.97902098     
    1497.000 75.95906218      44.46809220      44.97753642      21.37862138     
    1497.500 76.11132679      43.72557702      43.97119168      22.57742258     
    1498.000 76.09738829      43.33972627      43.22889553      23.37308770     
    1498.500 76.10336081      42.77669685      42.73264713      23.76371367     
    1499.000 75.97700740      42.34903841      42.16508081      23.75794562     
    1499.500 75.78356658      41.90246752      41.82665958      23.75683617     
    1500.000 75.52360112      40.38462514      41.72870658      24.71633535     
    1500.500 75.62522205      37.62011279      41.67885555      26.01340505     
    1501.000 75.68983959      36.34181105      41.52424832      27.36239215     
    1501.500 75.69274656      34.58393297      40.79715431      28.96104790     
    1502.000 75.74754575      32.94957106      39.80497185      30.16983017     
    1502.500 75.91539773      32.24721888      38.50018990      31.36863137     
    1503.000 75.89440770      31.72581356      37.18567862      31.76823177     
    1503.500 75.90602043      31.75113481      36.35322639      32.16783217     
    1504.000 75.90188178      32.27771912      36.16180211      31.36863137     
    1504.500 75.77784267      33.46492540      36.70379091      29.37062937     
    1505.000 75.49340726      38.40216435      38.36186322      27.37262737     
    1505.500 75.25058703      44.45822983      40.52985284      24.97502498     
    1506.000 74.91430991      50.47128905      44.27834697      22.17782218     
    1506.500 74.49426530      56.49711078      48.11643833      18.98101898     
    1507.000 74.10016018      62.48493933      53.35377078      16.98301698     
    1507.500 73.69962121      68.45991744      58.69361761      14.58541459     
    1508.000 73.28835657      74.80273623      60.24327582      13.38661339     
    1508.500 72.93585373      78.98947410      62.97929752      12.98701299     
    1509.000 72.74812533      78.93977217      64.80381501      12.58741259     
    1509.500 72.66637865      77.26738511      65.88911369      12.98701299     
    1510.000 72.86665363      75.99416514      65.43717287      13.07692308     
    1510.500 73.34632826      74.34890604      63.82541968      13.27872128     
    1511.000 73.86987953      72.76955440      62.05091135      13.78621379     
    1511.500 74.33421542      68.83027136      59.87840252      14.18581419     
    1512.000 74.97498279      66.86822231      58.05136947      15.38461538     
    1512.500 75.45562638      63.91378097      56.34579399      17.38261738     
    1513.000 75.69289694      59.39158059      55.03965357      18.58141858     
    1513.500 75.97128171      54.77697799      53.65615933      20.12708013     
    1514.000 76.13962488      50.12930638      50.67593232      21.72797577     
    1514.500 76.36377798      45.50861993      48.80267550      23.73343325     
    1515.000 76.63611642      40.89827702      45.42384974      26.13888096     
    1515.500 76.88020585      36.23814488      42.34658987      28.54085604     
    1516.000 76.84763423      31.63030098      38.92107526      31.74253579     
    1516.500 76.73181989      27.42994778      36.68563927      35.75144193     
    1517.000 76.92448733      25.98266290      34.11126166      38.57189051     
    1517.500 76.88389392      24.56225135      32.12956239      40.95904096     
    1518.000 76.94047876      23.97297050      30.52762707      42.15784216     
    1518.500 77.16623217      23.71875487      29.10822591      42.15784216     
    1519.000 77.29692920      24.68815021      28.10932634      41.75824176     
    1519.500 77.34564873      25.34114427      28.11364032      40.15984016     
    1520.000 77.51809222      25.96226394      28.74164721      37.67232767     
    1520.500 77.49007530      28.32701915      29.88286678      35.04895105     
    1521.000 77.51226991      32.36003948      31.58708060      32.56743257     
    1521.500 77.36090061      35.46569944      34.16965801      29.37062937     
    1522.000 77.23860445      39.10446627      37.09392637      26.17382617     
    1522.500 77.09241473      41.12727870      39.77285144      24.57542458     
    1523.000 77.10222003      38.28413999      39.91866403      25.37462537     
    1523.500 77.09935947      35.47652162      39.27189839      27.77222777     
    1524.000 77.09762796      32.82067421      36.61955050      30.56943057     
    1524.500 77.10475956      31.07529611      35.35227799      32.56743257     
    1525.000 77.08801283      30.72904979      33.12914341      33.36663337     
    1525.500 77.14767631      30.75640093      31.39822086      32.98295528     
    1526.000 77.31659079      30.94101756      31.30857705      32.18610185     
    1526.500 77.28723922      31.40274112      31.71060395      31.77420504     
    1527.000 77.31550814      32.93242216      33.11038407      31.35160543     
    1527.500 77.24804188      35.17061243      34.52653892      31.32803395     
    1528.000 77.08570867      37.12267397      36.30643027      32.11115306     
    1528.500 77.10623855      35.08529928      37.45125765      33.70650318     
    1529.000 77.09173303      29.91760825      36.69091219      36.56343656     
    1529.500 77.23040705      24.53559905      33.91753738      38.96103896     
    1530.000 77.49631875      23.72676838      31.51411646      41.13886114     
    1530.500 77.83309193      22.28204040      28.85707403      43.96403596     
    1531.000 78.17470811      21.54851445      25.87989072      46.55344655     
    1531.500 78.30127363      21.48641718      25.44023380      48.15184815     
    1532.000 78.44806745      21.96958504      25.57481318      48.15184815     
    1532.500 78.51457177      22.76700353      26.24494608      46.55344655     
    1533.000 78.50348226      23.97021549      27.10017790      43.75624376     
    1533.500 78.36522947      26.40275698      28.12225778      40.15984016     
    1534.000 78.14579546      29.17500613      28.80247258      36.16383616     
    1534.500 77.95327000      31.90903597      31.14214785      32.16783217     
    1535.000 77.75110875      34.65259337      32.70533903      28.97102897     
    1535.500 77.54644544      37.40535500      34.89621524      26.57342657     
    1536.000 77.35811185      40.14448583      37.49907523      24.57542458     
    1536.500 77.23221274      43.36434270      40.09683273      22.57742258     
