~Version Information Block
 VERS.                2.00:     CWLS LOG ASCII STANDARD - VERSION 2.000000
 WRAP.                  NO:     One Line Per Depth Step
#
~Well Information Block
#MNEM.UNIT                     Data                         Information
#----------   ------------------------------------------   ----------------
 STRT.FT                                      250.0000:     START DEPTH
 STOP.FT                                     2900.0000:     STOP DEPTH
 STEP.FT                                        0.5000:     STEP
 NULL.                                       -999.2500:     NULL VALUE
 COMP.                          Kerr-McGee Corporation:     COMPANY
 WELL.                                       Navajo #4:     WELL
 FLD .                                  Dineh-bi-Keyah:     FIELD
 LOC .                             0870' FEL 1720' FNL:     LOCATION
 SEC .                                              32:     SECTION
 TWP .                                             36N:     TOWNSHIP
 RANG.                                             30E:     RANGE
 CNTY.                                          Apache:     COUNTY
 STAT.                                         Arizona:     STATE
 CTRY.                                             USA:     COUNTRY
 SRVC.                                    Schlumberger:     SERVICE COMPANY
 DATE.                                                :     DATE
 API .                                    02-001-20009:     API NUMBER
 UWI .                                    02-001-20009:     UWI NUMBER
 TVD .                                              NO:     TVD flag
 WSTA.                                             OIL:     Well status
#
~Curve Information Block
#MNEM.UNIT       API CODE      Curve Description
#----------    -------------   -------------------
 DEPT.FT                   :   Depth in Feet
 SP  .MV       05 010 01 01:   Spontaneous Potential
 ILD .OHMM     05 120 46 01:   Deep Induction Standard Processed Resistivity
 SN  .OHMM     05 040 16 01:   Short Normal
 CILD.MMHO     05 110 46 01:   Deep Induction Standard Processed Conductivity
#
~Parameter Information Block
#MNEM.UNIT            Value               Description
#----------    --------------------    -------------------
 DATE.                    5/9/2012:    Date As Month-Day-Year
 RUN .                         ONE:    Run Number
 PDAT.                          GL:    Permanent Datum
 EPD .FT                 7361.0000:    Elevation Of Perm. Datum
 LMF .                          KB:    Log Measured From
 FAPD.FT                   13.0000:    Feet Above Perm. Datum
 DMF .                          KB:    Drilling Measured From
 EKB .FT                 7374.0000:    Elevation Of Kelly Bushing
 EDF .FT                 7373.0000:    Elevation Of Derrick Floor
 EGL .FT                 7361.0000:    Elevation Of Ground Level
 TD  .FT                 2898.0000:    Total Depth
 DF  .                     Hermosa:    
 PROJ.                       Rmccs:    
 DD  .FT                 2898.0000:    Depth Driller
 DL  .FT                 2899.0000:    Depth Logger
 BLI .FT                 2898.0000:    Bottom Log Interval
 TLI .FT                  264.0000:    Top Log Interval
 CSIZ.IN                     9 5/8:    Casing Size
 CBD1.                         263:    Casing Bottom (Driller) 1
 CBL1.                         264:    Casing Bottom (Logger) 1
 BS  .IN                     8 3/4:    Bit Size
 DFT .                    GEL-CHEM:    Drilling Fluid Type
 DFV .S                    60.0000:    Drilling Fluid Viscosity
 DFD .LB/G                  8.9000:    Drilling Fluid Density
 DFL .ML                    3.0000:    Drilling Fluid Loss
 DFPH.                      9.0000:    Drilling Fluid Ph
 MSS .                   FLOW LINE:    Mud Sample Source
 RMS .OHMM                  5.1400:    Resistivity Of Mud Sample
 MST .DEGF                 90.0000:    Mud Sample Temperature
 RMF .OHMM                  3.1000:    Mud Filtrate Resistivity
 MFST.DEGF                 70.0000:    Mud Filtrate Sample Temperature
 MFSS.                        CALC:    Mud Filtrate Sample Source
 RMC .OHMM                  0.0000:    Mud Cake Resistivity
 MCST.DEGF                  0.0000:    Mud Cake Sample Temperature
 MCSS.                        CALC:    Mud Cake Sample Source
 RMB .OHMM                  4.6200:    Mud Resistivity At Bht
 BHT .DEGF                 99.0000:    Bottom Hole Temperature
 TCS .                        2 hr:    Time Circulation Stopped
 MRT .DEGF                 99.0000:    Maximum Recorded Temperature
 LUN .                        3860:    Logging Unit Number
 LUL .                        FARM:    Logging Unit Location
 ENGI.                      Brooks:    Engineer'S Name
 WITN.             Mr. Hassenfratz:    Witness' Name
 DGBY.                         slr:    
 WSTA.                         OIL:    
#
~Other Information Block
<DescLogPlotStart>   NEURALOG PLOT DEFINITION
PLOTDEFVERSION: 3
LASFILE: C:\nds\projects\Rmccs\las\0384IEL.las
DEPTHSCALE: 600.000013
RESOLUTION: 200
DEPTHLABELFREQ: 100.000000
HEAVYGRIDFREQ: 50.000000
MEDIUMGRIDFREQ: 50.000000
LIGHTGRIDFREQ: 10.000000
#
#   TRACK 1
#
STARTTRACK: 
 LEFTX: 0.500000 inch
 RIGHTX: 3.000000 inch
 SCALETYPE: Linear
 NUMCHARTDIVISIONS: 10
CURVE: SP    0.000000   100.000000 (255,131,0)    Solid             2     Y    
BACKUP: 0.000000   200.000000 (255,131,0)    Solid             2    
BACKUP: -100.000000 0.000000   (255,131,0)    Solid             2    
ENDTRACK: 
#
#   TRACK 2
#
STARTTRACK: 
 LEFTX: 3.750000 inch
 RIGHTX: 6.250000 inch
 SCALETYPE: Linear
 NUMCHARTDIVISIONS: 10
CURVE: ILD   0.000000   100.000000 (0,0,156)      Solid             2     Y    
BACKUP: 0.000000   1000.000000 (0,0,156)      Solid             2    
BACKUP: -100.000000 0.000000   (0,0,156)      Solid             2    
CURVE: SN    0.000000   100.000000 (255,0,0)      Solid             2     Y    
BACKUP: 0.000000   1000.000000 (255,0,0)      Solid             2    
BACKUP: -100.000000 0.000000   (255,0,0)      Solid             2    
ENDTRACK: 
#
#   TRACK 3
#
STARTTRACK: 
 LEFTX: 6.250000 inch
 RIGHTX: 8.750000 inch
 SCALETYPE: Linear
 NUMCHARTDIVISIONS: 10
CURVE: CILD  400.000000 0.000000   (0,131,0)      Solid             2     N    
ENDTRACK: 
<DescLogPlotEnd>
<DescLog>Induction Electrical
<DescOSVS>BHC/GR
<DescOSVS>CBL
<DescOSVS>FDC/GR
~A DEPTH     SP               ILD              SN               CILD            
# ...
    2180.500 82.32449849      22.33464910      22.34060134      57.55344655     
    2181.000 82.55429005      26.12618118      23.69857692      51.34865135     
    2181.500 82.72898972      32.77696952      25.69478175      41.35864136     
    2182.000 82.63158400      43.36188515      32.79991078      32.96703297     
    2182.500 82.52206271      59.25862897      35.37009767      25.37462537     
    2183.000 82.29151923      67.19469761      41.62447875      18.58141858     
    2183.500 82.22385438      151.67794429     55.33541493      10.18981019     
    2184.000 82.32250993      176.85112377     65.18731063      6.99300699      
    2184.500 82.29486358      195.77980590     69.82825424      5.39460539      
    2185.000 82.28898754      162.72684230     71.33638245      5.79420579      
    2185.500 82.38681902      119.49321703     71.14768468      6.99300699      
    2186.000 82.49632728      104.61231243     68.77742144      8.99100899      
    2186.500 82.65426867      89.98439437      65.29485851      11.38861139     
    2187.000 82.67014058      -999.25000000    61.64812870      13.38661339     
    2187.500 82.47235024      69.01720107      58.24823836      16.58341658     
    2188.000 82.52210287      59.82999332      55.70555415      18.53190200     
    2188.500 82.44509185      50.64278557      48.98612797      22.54499233     
    2189.000 82.28452337      41.45557782      46.93703971      26.56003907     
    2189.500 82.32151729      32.26837007      42.85948638      30.57933240     
    2190.000 82.47309284      26.95390782      39.05702908      35.35562689     
    2190.500 82.73017601      23.94973340      34.82599186      40.63467565     
    2191.000 83.04496404      21.97776380      31.96200211      44.66269451     
    2191.500 83.29365938      21.02752334      29.91568078      48.28022695     
    2192.000 83.57594398      20.86157632      28.66217435      49.88790597     
    2192.500 83.70212897      21.23177426      27.71328066      48.68602286     
    2193.000 83.70511495      22.79088401      27.74405459      45.07926962     
    2193.500 83.69681327      28.46178800      28.78258987      41.07544840     
    2194.000 83.71340190      33.63455217      30.33941463      36.67275515     
    2194.500 83.55676858      39.79770973      32.72002732      31.86862836     
    2195.000 83.35570967      51.76510999      37.24635522      25.85806476     
    2195.500 83.11144851      64.38525433      43.22031946      20.97902098     
    2196.000 82.81824177      75.15998064      46.84785255      16.18381618     
    2196.500 82.71521999      94.71545118      51.15259816      12.58741259     
    2197.000 82.64174434      92.23889634      53.87981570      11.38861139     
    2197.500 82.50305104      92.45408562      54.39912614      11.78821179     
    2198.000 82.34879229      72.66037978      53.12631174      13.78621379     
    2198.500 82.29657622      69.35488918      50.76430871      15.78421578     
    2199.000 82.15575650      60.66032433      48.40261302      17.78221778     
    2199.500 82.08585549      53.51421735      44.59078092      20.17982018     
    2200.000 82.05936902      46.32207204      40.38638414      23.83227632     
    2200.500 81.94462959      39.05263314      36.84941376      26.79807071     
    2201.000 81.89599526      30.03780121      33.56680020      30.96903097     
    2201.500 81.90364980      28.21251825      31.44533570      35.76423576     
    2202.000 81.89153896      27.17707187      29.05982919      39.36063936     
    2202.500 81.91390636      26.13647195      27.96601074      42.55744256     
    2203.000 81.74643795      24.80272689      25.66994816      44.55544456     
    2203.500 81.69028252      23.47725934      24.33815462      45.75424575     
    2204.000 81.69677106      22.77995727      23.68963138      45.75424575     
    2204.500 81.83670312      22.48267574      23.11060157      46.15384615     
    2205.000 82.05648796      22.29520420      22.96419764      46.15384615     
    2205.500 82.14565969      22.13790423      22.75797136      46.95304695     
    2206.000 82.45529263      22.11369179      22.38974493      47.75224775     
    2206.500 82.52042851      21.75298649      22.14654598      48.55144855     
    2207.000 82.34874242      21.04052430      21.92901733      49.75024975     
    2207.500 82.28561513      19.88573204      21.77025291      51.74825175     
    2208.000 82.31260744      19.09686760      21.34207831      53.74625375     
    2208.500 82.28318627      18.59580817      21.35438331      56.94305694     
    2209.000 82.35426484      18.08037330      21.28438646      58.14185814     
    2209.500 82.51242724      18.18352265      21.55128114      58.14185814     
    2210.000 82.58798112      18.92114384      21.71310828      55.10489510     
    2210.500 82.64849538      21.56292987      22.36561304      51.74825175     
    2211.000 82.47905877      25.49805065      23.29848187      46.15384615     
    2211.500 82.52468689      29.78197434      25.14575791      40.95904096     
    2212.000 82.34102721      32.40729368      28.40791683      34.96503497     
    2212.500 82.30289357      40.59462912      32.28390562      28.17182817     
    2213.000 82.15875700      49.58756340      38.08635386      22.57742258     
    2213.500 82.05522370      63.78680395      43.84782307      16.98301698     
    2214.000 81.83275746      90.68136273      49.98812328      12.98701299     
    2214.500 81.71435247      102.14428858     56.40321194      10.98901099     
    2215.000 81.50705919      111.22244489     62.26561158      9.39060939      
    2215.500 81.26721213      115.23046092     67.81801176      8.99100899      
    2216.000 81.19563995      121.24248497     72.49776761      8.19180819      
    2216.500 80.76460575      127.25450902     76.57689073      7.79220779      
    2217.000 80.70562244      129.25851703     79.62755231      7.79220779      
    2217.500 80.53240349      127.25450902     81.49119096      8.19180819      
    2218.000 80.54586068      121.06252678     82.70169231      8.59140859      
    2218.500 80.68710741      121.48076501     83.06199809      8.99100899      
    2219.000 80.88665849      112.81642472     82.59612987      9.79020979      
    2219.500 81.30387749      97.34533144      81.89401686      10.18981019     
    2220.000 81.36302689      92.09381040      80.80367281      10.64935065     
    2220.500 82.09210925      90.33362444      79.74212015      10.98901099     
    2221.000 82.47182500      88.45445134      78.96017378      11.38861139     
    2221.500 82.49276734      85.78263504      77.74810411      11.78821179     
    2222.000 82.55758974      83.59346303      76.29006418      12.58741259     
    2222.500 82.57233898      79.63109616      74.17206201      12.98701299     
    2223.000 82.46828843      75.05614323      72.36613689      13.78621379     
    2223.500 82.56068628      70.51202920      69.40421837      14.18581419     
    2224.000 82.70912101      66.00155705      66.89059256      14.98501499     
    2224.500 82.69536182      61.53488630      63.15257824      15.78421578     
    2225.000 82.70430559      57.07910948      58.90347913      18.18181818     
    2225.500 82.69384139      52.22403255      55.95768717      20.57942058     
    2226.000 82.70864636      44.79773853      53.54252428      22.57742258     
    2226.500 82.68225947      40.98240638      49.81062402      24.17582418     
    2227.000 82.75774050      40.39258464      47.31758796      25.37462537     
    2227.500 82.89723277      39.95049249      42.97910215      26.17382617     
    2228.000 82.94891702      36.61572023      40.31305552      27.37262737     
    2228.500 83.10497885      34.55624168      37.77230074      28.57142857     
    2229.000 83.13999487      33.72689749      36.24916353      29.77022977     
    2229.500 83.32170589      33.15680664      34.75320184      30.96903097     
