~Version Information Block
 VERS.                2.00:     CWLS LOG ASCII STANDARD - VERSION 2.000000
 WRAP.                  NO:     One Line Per Depth Step
#
~Well Information Block
#MNEM.UNIT                     Data                         Information
#----------   ------------------------------------------   ----------------
 STRT.FT                                       50.0000:     START DEPTH
 STOP.FT                                     2900.0000:     STOP DEPTH
 STEP.FT                                        0.5000:     STEP
 NULL.                                       -999.2500:     NULL VALUE
 COMP.                          Kerr-McGee Corporation:     COMPANY
 WELL.                                       Navajo #4:     WELL
 FLD .                                  Dineh-bi-Keyah:     FIELD
 LOC .                            870' FEL & 1720' FNL:     LOCATION
 SEC .                                              32:     SECTION
 TWP .                                             36N:     TOWNSHIP
 RANG.                                             30E:     RANGE
 CNTY.                                          Apache:     COUNTY
 STAT.                                         Arizona:     STATE
 CTRY.                                          U.S.A.:     COUNTRY
 SRVC.                                    Schlumberger:     SERVICE COMPANY
 DATE.                                      05/23/2012:     DATE
 API .                                    02-001-20009:     API NUMBER
 UWI .                                    02-001-20009:     UWI NUMBER
 TVD .                                              NO:     TVD flag
 WSTA.                                             OIL:     Well status
#
~Curve Information Block
#MNEM.UNIT       API CODE      Curve Description
#----------    -------------   -------------------
 DEPT.FT                   :   Depth in Feet
 GR  .GAPI     35 310 01 01:   Gamma Ray
 CALI.IN       70 280 01 01:   Caliper
 DT  .US/F     60 520 08 01:   Delta-T
 BIT .IN                   :   Bit size
#
~Parameter Information Block
#MNEM.UNIT            Value               Description
#----------    --------------------    -------------------
 DATE.                   5/23/2012:    Date As Month-Day-Year
 RUN .                         ONE:    Run Number
 PDAT.                          GL:    Permanent Datum
 EPD .FT                 7361.0000:    Elevation Of Perm. Datum
 LMF .                          KB:    Log Measured From
 FAPD.FT                   13.0000:    Feet Above Perm. Datum
 DMF .                          KB:    Drilling Measured From
 EKB .FT                 7374.0000:    Elevation Of Kelly Bushing
 EDF .FT                 7361.0000:    Elevation Of Derrick Floor
 EGL .FT                 7361.0000:    Elevation Of Ground Level
 TD  .FT                 2900.0000:    Total Depth
 DF  .         Pennsylvanian Hermo:    
 PROJ.                       Rmccs:    
 DD  .FT                 2898.0000:    Depth Driller
 DL  .FT                 2898.0000:    Depth Logger
 BLI .FT                 2896.0000:    Bottom Log Interval
 TLI .FT                    0.0000:    Top Log Interval
 CSIZ.IN                     9 5/8:    Casing Size
 CBD1.                         263:    Casing Bottom (Driller) 1
 CBL1.                         263:    Casing Bottom (Logger) 1
 BS  .IN                     8 3/4:    Bit Size
 DFT .                    GEL CHEM:    Drilling Fluid Type
 DFV .S                    60.0000:    Drilling Fluid Viscosity
 DFD .LB/G                  8.9000:    Drilling Fluid Density
 DFL .ML                    3.0000:    Drilling Fluid Loss
 DFPH.                      9.0000:    Drilling Fluid Ph
 MSS .                   Flow line:    Mud Sample Source
 RMS .OHMM                  5.1400:    Resistivity Of Mud Sample
 MST .DEGF                 90.0000:    Mud Sample Temperature
 RMF .OHMM                  3.1000:    Mud Filtrate Resistivity
 MFST.DEGF                 70.0000:    Mud Filtrate Sample Temperature
 MFSS.                        MEAS:    Mud Filtrate Sample Source
 RMB .OHMM                  4.6200:    Mud Resistivity At Bht
 BHT .DEGF                 99.0000:    Bottom Hole Temperature
 TCS .                 5 1/2 hours:    Time Circulation Stopped
 MRT .DEGF                 99.0000:    Maximum Recorded Temperature
 LUN .                        3860:    Logging Unit Number
 LUL .                  Farmington:    Logging Unit Location
 ENGI.                      Brooks:    Engineer'S Name
 WITN.                 Hassenfratz:    Witness' Name
 DGBY.                         slr:    
 WSTA.                         OIL:    
#
~Other Information Block
<DescLogPlotStart>   NEURALOG PLOT DEFINITION
PLOTDEFVERSION: 3
LASFILE: C:\nds\projects\Rmccs\las\0384BHCS_2.las
DEPTHSCALE: 600.000013
RESOLUTION: 200
DEPTHLABELFREQ: 100.000000
HEAVYGRIDFREQ: 50.000000
MEDIUMGRIDFREQ: 50.000000
LIGHTGRIDFREQ: 50.000000
#
#   TRACK 1
#
STARTTRACK: 
 LEFTX: 0.500000 inch
 RIGHTX: 3.000000 inch
 SCALETYPE: Linear
 NUMCHARTDIVISIONS: 10
CURVE: GR    0.000000   160.000000 (0,0,255)      Solid             2     N    
CURVE: CALI  6.000000   16.000000  (0,131,131)    Dot               2     N    
CURVE: BIT   6.000000   16.000000  (255,0,255)    Short_Dash        2     N    
ENDTRACK: 
#
#   TRACK 2
#
STARTTRACK: 
 LEFTX: 3.500000 inch
 RIGHTX: 8.500000 inch
 SCALETYPE: Linear
 NUMCHARTDIVISIONS: 21
CURVE: DT    100.000000 40.000000  (255,0,0)      Solid             2     Y    
BACKUP: 160.000000 100.000000 (255,131,0)    Solid             2    
ENDTRACK: 
<DescLogPlotEnd>
<DescLog>Borehole Compensated Sonic
<DescOSVS>IES, CBL
<DescOSVS>FDC/GR
<DescOSVS>
IAP failed to step between 0932' and 0892'
~A DEPTH     GR               CALI             DT               BIT             
# ...
    1139.000 57.88528623      9.50520944       86.82270916      8.75769842      
    1139.500 60.00008866      9.50216953       88.25697211      8.75769468      
    1140.000 60.22509872      9.50365129       86.70318725      8.75769093      
    1140.500 60.19292228      9.50282374       84.67131474      8.75768719      
    1141.000 59.96818377      9.50317127       84.61155378      8.75768344      
    1141.500 58.88470363      9.50300759       86.16533865      8.75767969      
    1142.000 58.02219631      9.50300759       87.03162448      8.75767595      
    1142.500 57.46697302      9.50309936       89.03660728      8.75767220      
    1143.000 56.59664788      9.50283418       88.83080900      8.75766846      
    1143.500 56.43963313      9.50337723       87.27635246      8.75766471      
    1144.000 56.86269398      9.50237805       86.38145886      8.75766097      
    1144.500 56.68655950      9.50442953       84.58864158      8.75765722      
    1145.000 56.62844483      9.49792981       84.11334491      8.75765348      
    1145.500 56.27437014      9.48216759       83.63309914      8.75764973      
    1146.000 55.97599066      9.48316592       83.35657371      8.75764598      
    1146.500 55.63677557      9.48423523       83.02340637      8.75764224      
    1147.000 55.17857307      9.47847892       82.51992032      8.75763849      
    1147.500 54.97761001      9.46237817       82.81872510      8.75763475      
    1148.000 54.77209329      9.46118353       84.13346614      8.75763100      
    1148.500 54.68236736      9.42310556       82.99143426      8.75762726      
    1149.000 54.42399229      9.38428214       79.23306773      8.75762351      
    1149.500 54.45447359      9.34222971       79.05378486      8.75761976      
    1150.000 55.25773859      9.30389009       79.05378486      8.75761602      
    1150.500 57.36835552      9.19819388       83.27282655      8.75761227      
    1151.000 59.16061378      9.05880495       87.98804781      8.75760853      
    1151.500 60.96455494      9.00692775       90.67729084      8.75760478      
    1152.000 61.78654414      9.00086365       91.00597610      8.75760104      
    1152.500 62.80017935      8.98699806       90.37848606      8.75759729      
    1153.000 68.14763296      9.00308756       89.45219124      8.75759355      
    1153.500 75.27851384      9.02308714       89.99003984      8.75758980      
    1154.000 82.17791149      9.05045431       91.12549801      8.75758605      
    1154.500 88.32735422      9.07573518       93.18725100      8.75758231      
    1155.000 89.45178574      9.11142804       92.88844622      8.75757856      
    1155.500 88.73190458      9.13336866       91.69322709      8.75757482      
    1156.000 83.31058891      9.15525544       90.49800797      8.75757107      
    1156.500 77.17990975      9.19201432       88.58565737      8.75756733      
    1157.000 76.04779846      9.24377406       87.30079681      8.75756358      
    1157.500 75.35906597      9.32862612       85.51427671      8.75755983      
    1158.000 74.15723163      9.48864970       83.95580607      8.75755609      
    1158.500 70.76666147      9.59333731       82.78460512      8.75755234      
    1159.000 68.66607830      9.63185307       81.34533621      8.75754860      
    1159.500 67.04585619      9.67416240       80.44616433      8.75754485      
    1160.000 61.04086155      9.71067203       79.88545316      8.75754111      
    1160.500 57.45302501      9.73430782       79.19968376      8.75753736      
    1161.000 57.48155763      9.74364903       78.68619615      8.75753362      
    1161.500 57.99820645      9.74254303       78.78486056      8.75752987      
    1162.000 58.87721328      9.74279955       79.11354582      8.75752612      
    1162.500 58.49349475      9.74275681       79.29282869      8.75752238      
    1163.000 57.45700644      9.74242309       79.32270916      8.75751863      
    1163.500 55.25060866      9.74352534       79.14342629      8.75751489      
    1164.000 55.55188183      9.74153370       78.99402390      8.75751114      
    1164.500 55.90708999      9.75313802       78.87450199      8.75750740      
    1165.000 55.18741357      9.76384777       78.78486056      8.75750365      
    1165.500 54.67793567      9.76319258       78.33665339      8.75749990      
    1166.000 52.42347821      9.75337031       78.09760956      8.75749616      
    1166.500 50.67913721      9.70055381       78.63545817      8.75749241      
    1167.000 51.56201473      9.56861985       80.21912351      8.75748867      
    1167.500 52.83227527      9.38178383       83.02788845      8.75748492      
    1168.000 53.19074322      9.30192218       87.09163347      8.75748118      
    1168.500 53.83374485      9.27186180       86.67330677      8.75747743      
    1169.000 55.18407814      9.26217684       85.20916335      8.75747369      
    1169.500 55.13012470      9.26327996       85.71713147      8.75746994      
    1170.000 55.07108136      9.26289847       88.62549801      8.75746619      
    1170.500 55.30052168      9.26270831       93.44621514      8.75746245      
    1171.000 56.50735561      9.26370567       94.96513944      8.75745870      
    1171.500 56.38826068      9.26187048       95.39840637      8.75745496      
    1172.000 56.15021017      9.27335597       92.35059761      8.75745121      
    1172.500 57.04107227      9.28554477       88.19721116      8.75744747      
    1173.000 57.68419083      9.30966896       85.83665339      8.75744372      
    1173.500 57.32056336      9.33705027       84.34262948      8.75743997      
    1174.000 56.55485368      9.39193394       84.01394422      8.75743623      
    1174.500 56.54204070      9.42254938       84.58167331      8.75743248      
    1175.000 56.15625934      9.42495086       84.37250996      8.75742874      
    1175.500 56.15749080      9.44056667       83.92430279      8.75742499      
    1176.000 55.55528000      9.45241030       83.77490040      8.75742125      
    1176.500 52.70221945      9.47559592       83.83466135      8.75741750      
    1177.000 49.75102506      9.53936734       84.13346614      8.75741376      
    1177.500 47.76416805      9.57450041       84.22310757      8.75741001      
    1178.000 47.33236286      9.59300552       84.43227092      8.75740626      
    1178.500 47.94683440      9.60425626       83.86454183      8.75740252      
    1179.000 49.03575855      9.60378390       83.47609562      8.75739877      
    1179.500 48.49010079      9.62481739       83.26693227      8.75739503      
    1180.000 46.57575823      9.66760363       81.17529880      8.75739128      
    1180.500 45.96431630      9.69726413       79.19674713      8.75738754      
    1181.000 47.71866325      9.72101983       79.10777936      8.75738379      
    1181.500 49.69479315      9.70724480       79.22743806      8.75738004      
    1182.000 49.10346546      9.58280726       79.91552221      8.75737630      
    1182.500 47.45822734      9.48891167       81.17291185      8.75737255      
    1183.000 45.46962402      9.47472816       81.92129298      8.75736881      
    1183.500 44.61362358      9.46052065       81.41412642      8.75736506      
    1184.000 45.67098133      9.46421487       80.76006993      8.75736132      
    1184.500 46.97683902      9.46206700       80.45816733      8.75735757      
    1185.000 48.98704963      9.46346790       80.30876494      8.75735383      
    1185.500 50.08766432      9.46079604       80.51792829      8.75735008      
    1186.000 50.88222585      9.44493852       81.02589641      8.75734633      
    1186.500 53.25115595      9.44244864       82.34063745      8.75734259      
    1187.000 55.38760022      9.44352036       83.74501992      8.75733884      
    1187.500 55.81579508      9.44209493       83.56573705      8.75733510      
    1188.000 56.58393543      9.45206282       83.20717131      8.75733135      
