~Version Information Block
 VERS.                2.00:     CWLS LOG ASCII STANDARD - VERSION 2.000000
 WRAP.                  NO:     One Line Per Depth Step
#
~Well Information Block
#MNEM.UNIT                     Data                         Information
#----------   ------------------------------------------   ----------------
 STRT.FT                                       50.0000:     START DEPTH
 STOP.FT                                     2900.0000:     STOP DEPTH
 STEP.FT                                        0.5000:     STEP
 NULL.                                       -999.2500:     NULL VALUE
 COMP.                          Kerr-McGee Corporation:     COMPANY
 WELL.                                       Navajo #4:     WELL
 FLD .                                  Dineh-bi-Keyah:     FIELD
 LOC .                            870' FEL & 1720' FNL:     LOCATION
 SEC .                                              32:     SECTION
 TWP .                                             36N:     TOWNSHIP
 RANG.                                             30E:     RANGE
 CNTY.                                          Apache:     COUNTY
 STAT.                                         Arizona:     STATE
 CTRY.                                          U.S.A.:     COUNTRY
 SRVC.                                    Schlumberger:     SERVICE COMPANY
 DATE.                                      05/23/2012:     DATE
 API .                                    02-001-20009:     API NUMBER
 UWI .                                    02-001-20009:     UWI NUMBER
 TVD .                                              NO:     TVD flag
 WSTA.                                             OIL:     Well status
#
~Curve Information Block
#MNEM.UNIT       API CODE      Curve Description
#----------    -------------   -------------------
 DEPT.FT                   :   Depth in Feet
 GR  .GAPI     35 310 01 01:   Gamma Ray
 CALI.IN       70 280 01 01:   Caliper
 DT  .US/F     60 520 08 01:   Delta-T
 BIT .IN                   :   Bit size
#
~Parameter Information Block
#MNEM.UNIT            Value               Description
#----------    --------------------    -------------------
 DATE.                   5/23/2012:    Date As Month-Day-Year
 RUN .                         ONE:    Run Number
 PDAT.                          GL:    Permanent Datum
 EPD .FT                 7361.0000:    Elevation Of Perm. Datum
 LMF .                          KB:    Log Measured From
 FAPD.FT                   13.0000:    Feet Above Perm. Datum
 DMF .                          KB:    Drilling Measured From
 EKB .FT                 7374.0000:    Elevation Of Kelly Bushing
 EDF .FT                 7361.0000:    Elevation Of Derrick Floor
 EGL .FT                 7361.0000:    Elevation Of Ground Level
 TD  .FT                 2900.0000:    Total Depth
 DF  .         Pennsylvanian Hermo:    
 PROJ.                       Rmccs:    
 DD  .FT                 2898.0000:    Depth Driller
 DL  .FT                 2898.0000:    Depth Logger
 BLI .FT                 2896.0000:    Bottom Log Interval
 TLI .FT                    0.0000:    Top Log Interval
 CSIZ.IN                     9 5/8:    Casing Size
 CBD1.                         263:    Casing Bottom (Driller) 1
 CBL1.                         263:    Casing Bottom (Logger) 1
 BS  .IN                     8 3/4:    Bit Size
 DFT .                    GEL CHEM:    Drilling Fluid Type
 DFV .S                    60.0000:    Drilling Fluid Viscosity
 DFD .LB/G                  8.9000:    Drilling Fluid Density
 DFL .ML                    3.0000:    Drilling Fluid Loss
 DFPH.                      9.0000:    Drilling Fluid Ph
 MSS .                   Flow line:    Mud Sample Source
 RMS .OHMM                  5.1400:    Resistivity Of Mud Sample
 MST .DEGF                 90.0000:    Mud Sample Temperature
 RMF .OHMM                  3.1000:    Mud Filtrate Resistivity
 MFST.DEGF                 70.0000:    Mud Filtrate Sample Temperature
 MFSS.                        MEAS:    Mud Filtrate Sample Source
 RMB .OHMM                  4.6200:    Mud Resistivity At Bht
 BHT .DEGF                 99.0000:    Bottom Hole Temperature
 TCS .                 5 1/2 hours:    Time Circulation Stopped
 MRT .DEGF                 99.0000:    Maximum Recorded Temperature
 LUN .                        3860:    Logging Unit Number
 LUL .                  Farmington:    Logging Unit Location
 ENGI.                      Brooks:    Engineer'S Name
 WITN.                 Hassenfratz:    Witness' Name
 DGBY.                         slr:    
 WSTA.                         OIL:    
#
~Other Information Block
<DescLogPlotStart>   NEURALOG PLOT DEFINITION
PLOTDEFVERSION: 3
LASFILE: C:\nds\projects\Rmccs\las\0384BHCS_2.las
DEPTHSCALE: 600.000013
RESOLUTION: 200
DEPTHLABELFREQ: 100.000000
HEAVYGRIDFREQ: 50.000000
MEDIUMGRIDFREQ: 50.000000
LIGHTGRIDFREQ: 50.000000
#
#   TRACK 1
#
STARTTRACK: 
 LEFTX: 0.500000 inch
 RIGHTX: 3.000000 inch
 SCALETYPE: Linear
 NUMCHARTDIVISIONS: 10
CURVE: GR    0.000000   160.000000 (0,0,255)      Solid             2     N    
CURVE: CALI  6.000000   16.000000  (0,131,131)    Dot               2     N    
CURVE: BIT   6.000000   16.000000  (255,0,255)    Short_Dash        2     N    
ENDTRACK: 
#
#   TRACK 2
#
STARTTRACK: 
 LEFTX: 3.500000 inch
 RIGHTX: 8.500000 inch
 SCALETYPE: Linear
 NUMCHARTDIVISIONS: 21
CURVE: DT    100.000000 40.000000  (255,0,0)      Solid             2     Y    
BACKUP: 160.000000 100.000000 (255,131,0)    Solid             2    
ENDTRACK: 
<DescLogPlotEnd>
<DescLog>Borehole Compensated Sonic
<DescOSVS>IES, CBL
<DescOSVS>FDC/GR
<DescOSVS>
IAP failed to step between 0932' and 0892'
~A DEPTH     GR               CALI             DT               BIT             
# ...
    1832.000 56.83139124      10.16308890      62.85843089      8.75250699      
    1832.500 56.11762698      10.16054695      61.94666831      8.75250325      
    1833.000 56.72430357      10.16286941      61.27271650      8.75249950      
    1833.500 58.34192748      10.15946951      60.06791303      8.75249575      
    1834.000 59.51149679      10.16784051      60.01150931      8.75249201      
    1834.500 60.18748065      10.18039444      59.96690573      8.75248826      
    1835.000 59.97790452      10.20075775      60.16870814      8.75248452      
    1835.500 59.31485383      10.23747146      60.72877443      8.75248077      
    1836.000 59.15399353      10.26056857      61.94086272      8.75247703      
    1836.500 59.93556659      10.29851055      63.50508097      8.75247328      
    1837.000 61.36955009      10.31589223      65.42140433      8.75246953      
    1837.500 58.82137070      10.32474847      66.43616644      8.75246579      
    1838.000 53.20106784      10.30055086      65.58150928      8.75246204      
    1838.500 48.57381393      10.21938358      64.21724843      8.75245830      
    1839.000 43.29379235      10.16315375      62.30046962      8.75245455      
    1839.500 41.62699953      10.16192241      59.84235997      8.75245081      
    1840.000 45.04369443      10.16132839      59.17524825      8.75244706      
    1840.500 48.19089029      10.16180768      58.92269345      8.75244332      
    1841.000 51.37830524      10.16133517      58.73767290      8.75243957      
    1841.500 53.50395344      10.16185413      58.91573248      8.75243582      
    1842.000 55.10324013      10.16108260      58.98149602      8.75243208      
    1842.500 56.42559314      10.16264052      58.81019557      8.75242833      
    1843.000 57.28451300      10.15721625      58.63515348      8.75242459      
    1843.500 58.27918918      10.13934155      58.53539230      8.75242084      
    1844.000 61.25288500      10.14426336      58.68134386      8.75241710      
    1844.500 63.41044547      10.13491920      59.26396116      8.75241335      
    1845.000 63.97663814      10.12567808      60.00312594      8.75240960      
    1845.500 64.99607985      10.14306218      60.73516534      8.75240586      
    1846.000 64.33496160      10.14403308      61.45234692      8.75240211      
    1846.500 61.39606063      10.16905168      62.11475665      8.75239837      
    1847.000 60.34117837      10.18077893      62.36018331      8.75239462      
    1847.500 57.87559709      10.19608083      62.60303053      8.75239088      
    1848.000 55.79715289      10.20354059      62.72038061      8.75238713      
    1848.500 56.17405143      10.19977001      62.47198288      8.75238339      
    1849.000 56.71770194      10.20443743      61.74362304      8.75237964      
    1849.500 57.23350143      10.19434370      60.65918586      8.75237589      
    1850.000 57.85659622      10.20168760      59.19751973      8.75237215      
    1850.500 58.59531627      10.23990184      59.80348901      8.75236840      
    1851.000 57.38654584      10.29665744      62.53077689      8.75236466      
    1851.500 54.12969008      10.35006626      66.92231076      8.75236091      
    1852.000 51.71727041      10.31478492      69.19322709      8.75235717      
    1852.500 48.95893579      10.20423855      68.69123506      8.75235342      
    1853.000 47.13632810      10.09988663      65.84661355      8.75234967      
    1853.500 47.60085621      10.11033009      61.84262948      8.75234593      
    1854.000 49.16653395      10.08401736      57.83864542      8.75234218      
    1854.500 51.33239026      10.08183778      57.95816733      8.75233844      
    1855.000 54.20803130      10.08138665      58.37649402      8.75233469      
    1855.500 54.46548190      10.08185082      58.49601594      8.75233095      
    1856.000 54.47043812      10.08124102      58.49601594      8.75232720      
    1856.500 54.40827394      10.08246994      58.55577689      8.75232346      
    1857.000 54.89057675      10.08031845      58.79482072      8.75231971      
    1857.500 57.23961325      10.09715605      59.33266932      8.75231596      
    1858.000 59.81845965      10.10253525      60.34860558      8.75231222      
    1858.500 58.93837728      10.10243482      61.60358566      8.75230847      
    1859.000 56.59174961      10.09681946      62.88472385      8.75230473      
    1859.500 54.50996912      10.07831953      63.41305782      8.75230098      
    1860.000 52.96854049      10.08222909      62.81375132      8.75229724      
    1860.500 53.73008549      10.07886761      61.75677205      8.75229349      
    1861.000 55.68705117      10.08644434      60.22841223      8.75228974      
    1861.500 56.52428121      10.06188887      58.77043512      8.75228600      
    1862.000 56.53463865      10.06946483      59.54751535      8.75228225      
    1862.500 56.85288670      10.19258236      61.36454183      8.75227851      
    1863.000 56.70018136      10.93519090      66.56374502      8.75227476      
    1863.500 57.76275785      12.02483196      70.80677291      8.75227102      
    1864.000 59.62147919      11.61734010      74.39243028      8.75226727      
    1864.500 56.26619819      10.01881079      73.49601594      8.75226353      
    1865.000 54.41056438      10.12153326      70.32868526      8.75225978      
    1865.500 49.38752815      10.05134129      65.00996016      8.75225603      
    1866.000 44.31291505      10.03093920      59.63147410      8.75225229      
    1866.500 43.53393303      10.00368800      56.88247012      8.75224854      
    1867.000 44.26589819      10.00213293      55.32868526      8.75224480      
    1867.500 45.15747196      9.99508194       55.80677291      8.75224105      
    1868.000 45.85109595      9.98016196       56.58366534      8.75223731      
    1868.500 46.99931387      9.98119656       57.18127490      8.75223356      
    1869.000 50.10032857      9.98690928       57.42031873      8.75222981      
    1869.500 51.44889235      10.00280414      58.01792829      8.75222607      
    1870.000 56.47191891      10.00266512      58.55577689      8.75222232      
    1870.500 63.91588260      9.99975830       60.25717131      8.75221858      
    1871.000 66.45683827      10.00972917      62.03774900      8.75221483      
    1871.500 70.06189246      10.00298296      63.75498008      8.75221109      
    1872.000 68.28493352      9.97985821       65.12948207      8.75220734      
    1872.500 64.71399936      9.96919298       65.66733068      8.75220360      
    1873.000 59.96759153      9.95780592       64.83067729      8.75219985      
    1873.500 54.51858468      9.94619247       63.09760956      8.75219610      
    1874.000 53.91890315      9.93635734       61.60358566      8.75219236      
    1874.500 53.28828792      9.91997080       60.16932271      8.75218861      
    1875.000 53.24362284      9.92387134       58.73505976      8.75218487      
    1875.500 53.90608877      9.91796030       57.77888446      8.75218112      
    1876.000 54.68922371      9.94310316       57.97250996      8.75217738      
    1876.500 55.41471629      9.96335174       59.09362550      8.75217363      
    1877.000 55.74368020      10.02660587      60.58764940      8.75216988      
    1877.500 56.63170277      10.14781518      61.78286853      8.75216614      
    1878.000 58.37355272      10.20207263      62.55976096      8.75216239      
    1878.500 62.16854440      10.28570447      64.05378486      8.75215865      
    1879.000 62.69650991      10.35152908      65.54780876      8.75215490      
    1879.500 70.38580629      10.43018050      67.75896414      8.75215116      
    1880.000 81.06596668      10.48276469      70.26494024      8.75214741      
    1880.500 80.24707047      10.70457486      72.42031873      8.75214367      
    1881.000 80.59517222      10.92467657      73.79482072      8.75213992      
