~Version Information Block
 VERS.                2.00:     CWLS LOG ASCII STANDARD - VERSION 2.000000
 WRAP.                  NO:     One Line Per Depth Step
#
~Well Information Block
#MNEM.UNIT                     Data                         Information
#----------   ------------------------------------------   ----------------
 STRT.FT                                      250.0000:     START DEPTH
 STOP.FT                                     2900.0000:     STOP DEPTH
 STEP.FT                                        0.5000:     STEP
 NULL.                                       -999.2500:     NULL VALUE
 COMP.                          Kerr-McGee Corporation:     COMPANY
 WELL.                                       Navajo #4:     WELL
 FLD .                                  Dineh-bi-Keyah:     FIELD
 LOC .                             0870' FEL 1720' FNL:     LOCATION
 SEC .                                              32:     SECTION
 TWP .                                             36N:     TOWNSHIP
 RANG.                                             30E:     RANGE
 CNTY.                                          Apache:     COUNTY
 STAT.                                         Arizona:     STATE
 CTRY.                                             USA:     COUNTRY
 SRVC.                                    Schlumberger:     SERVICE COMPANY
 DATE.                                                :     DATE
 API .                                    02-001-20009:     API NUMBER
 UWI .                                    02-001-20009:     UWI NUMBER
 TVD .                                              NO:     TVD flag
 WSTA.                                             OIL:     Well status
#
~Curve Information Block
#MNEM.UNIT       API CODE      Curve Description
#----------    -------------   -------------------
 DEPT.FT                   :   Depth in Feet
 SP  .MV       05 010 01 01:   Spontaneous Potential
 ILD .OHMM     05 120 46 01:   Deep Induction Standard Processed Resistivity
 SN  .OHMM     05 040 16 01:   Short Normal
 CILD.MMHO     05 110 46 01:   Deep Induction Standard Processed Conductivity
#
~Parameter Information Block
#MNEM.UNIT            Value               Description
#----------    --------------------    -------------------
 DATE.                    5/9/2012:    Date As Month-Day-Year
 RUN .                         ONE:    Run Number
 PDAT.                          GL:    Permanent Datum
 EPD .FT                 7361.0000:    Elevation Of Perm. Datum
 LMF .                          KB:    Log Measured From
 FAPD.FT                   13.0000:    Feet Above Perm. Datum
 DMF .                          KB:    Drilling Measured From
 EKB .FT                 7374.0000:    Elevation Of Kelly Bushing
 EDF .FT                 7373.0000:    Elevation Of Derrick Floor
 EGL .FT                 7361.0000:    Elevation Of Ground Level
 TD  .FT                 2898.0000:    Total Depth
 DF  .                     Hermosa:    
 PROJ.                       Rmccs:    
 DD  .FT                 2898.0000:    Depth Driller
 DL  .FT                 2899.0000:    Depth Logger
 BLI .FT                 2898.0000:    Bottom Log Interval
 TLI .FT                  264.0000:    Top Log Interval
 CSIZ.IN                     9 5/8:    Casing Size
 CBD1.                         263:    Casing Bottom (Driller) 1
 CBL1.                         264:    Casing Bottom (Logger) 1
 BS  .IN                     8 3/4:    Bit Size
 DFT .                    GEL-CHEM:    Drilling Fluid Type
 DFV .S                    60.0000:    Drilling Fluid Viscosity
 DFD .LB/G                  8.9000:    Drilling Fluid Density
 DFL .ML                    3.0000:    Drilling Fluid Loss
 DFPH.                      9.0000:    Drilling Fluid Ph
 MSS .                   FLOW LINE:    Mud Sample Source
 RMS .OHMM                  5.1400:    Resistivity Of Mud Sample
 MST .DEGF                 90.0000:    Mud Sample Temperature
 RMF .OHMM                  3.1000:    Mud Filtrate Resistivity
 MFST.DEGF                 70.0000:    Mud Filtrate Sample Temperature
 MFSS.                        CALC:    Mud Filtrate Sample Source
 RMC .OHMM                  0.0000:    Mud Cake Resistivity
 MCST.DEGF                  0.0000:    Mud Cake Sample Temperature
 MCSS.                        CALC:    Mud Cake Sample Source
 RMB .OHMM                  4.6200:    Mud Resistivity At Bht
 BHT .DEGF                 99.0000:    Bottom Hole Temperature
 TCS .                        2 hr:    Time Circulation Stopped
 MRT .DEGF                 99.0000:    Maximum Recorded Temperature
 LUN .                        3860:    Logging Unit Number
 LUL .                        FARM:    Logging Unit Location
 ENGI.                      Brooks:    Engineer'S Name
 WITN.             Mr. Hassenfratz:    Witness' Name
 DGBY.                         slr:    
 WSTA.                         OIL:    
#
~Other Information Block
<DescLogPlotStart>   NEURALOG PLOT DEFINITION
PLOTDEFVERSION: 3
LASFILE: C:\nds\projects\Rmccs\las\0384IEL.las
DEPTHSCALE: 600.000013
RESOLUTION: 200
DEPTHLABELFREQ: 100.000000
HEAVYGRIDFREQ: 50.000000
MEDIUMGRIDFREQ: 50.000000
LIGHTGRIDFREQ: 10.000000
#
#   TRACK 1
#
STARTTRACK: 
 LEFTX: 0.500000 inch
 RIGHTX: 3.000000 inch
 SCALETYPE: Linear
 NUMCHARTDIVISIONS: 10
CURVE: SP    0.000000   100.000000 (255,131,0)    Solid             2     Y    
BACKUP: 0.000000   200.000000 (255,131,0)    Solid             2    
BACKUP: -100.000000 0.000000   (255,131,0)    Solid             2    
ENDTRACK: 
#
#   TRACK 2
#
STARTTRACK: 
 LEFTX: 3.750000 inch
 RIGHTX: 6.250000 inch
 SCALETYPE: Linear
 NUMCHARTDIVISIONS: 10
CURVE: ILD   0.000000   100.000000 (0,0,156)      Solid             2     Y    
BACKUP: 0.000000   1000.000000 (0,0,156)      Solid             2    
BACKUP: -100.000000 0.000000   (0,0,156)      Solid             2    
CURVE: SN    0.000000   100.000000 (255,0,0)      Solid             2     Y    
BACKUP: 0.000000   1000.000000 (255,0,0)      Solid             2    
BACKUP: -100.000000 0.000000   (255,0,0)      Solid             2    
ENDTRACK: 
#
#   TRACK 3
#
STARTTRACK: 
 LEFTX: 6.250000 inch
 RIGHTX: 8.750000 inch
 SCALETYPE: Linear
 NUMCHARTDIVISIONS: 10
CURVE: CILD  400.000000 0.000000   (0,131,0)      Solid             2     N    
ENDTRACK: 
<DescLogPlotEnd>
<DescLog>Induction Electrical
<DescOSVS>BHC/GR
<DescOSVS>CBL
<DescOSVS>FDC/GR
~A DEPTH     SP               ILD              SN               CILD            
# ...
    1141.000 49.20846213      66.52641696      51.71238606      14.93350391     
    1141.500 49.33121350      63.89862257      51.05190498      15.38461538     
    1142.000 49.76126150      61.87543539      50.53217638      15.78421578     
    1142.500 49.90979926      62.38017686      50.07600336      15.78421578     
    1143.000 49.98574871      62.63985726      49.80507678      15.78421578     
    1143.500 50.12041391      62.76821472      49.78749340      15.78421578     
    1144.000 50.08106999      62.88609709      49.56504883      15.78421578     
    1144.500 50.19047929      62.88051875      49.28597424      15.78421578     
    1145.000 50.41947123      63.98233492      49.72758510      15.38461538     
    1145.500 50.77749255      65.63675271      49.91049648      14.98501499     
    1146.000 51.01864537      67.31331952      50.30596979      14.58541459     
    1146.500 51.35892467      68.04570002      50.60722373      14.58541459     
    1147.000 52.10457781      68.58308689      50.80120265      14.18581419     
    1147.500 52.53113341      69.13075273      50.97948284      14.18581419     
    1148.000 53.01567264      70.57915199      51.04008802      14.18581419     
    1148.500 53.30281767      71.91070220      51.37165613      13.78621379     
    1149.000 53.20693490      71.74099849      51.69867976      13.78621379     
    1149.500 52.80746228      71.56860480      52.10393138      13.78621379     
    1150.000 53.00787859      72.31549815      52.50795784      13.61971362     
    1150.500 53.38363903      74.10413707      52.90323257      13.48584749     
    1151.000 53.89761426      75.55000259      53.38619707      12.98701299     
    1151.500 53.01624921      76.53696648      53.80956877      12.58741259     
    1152.000 51.65527836      78.95355051      54.21813546      12.18781219     
    1152.500 50.27847052      81.17764930      54.56814684      12.18781219     
    1153.000 49.25841378      79.40215727      54.76346491      12.58741259     
    1153.500 48.47034199      78.29450521      54.85127812      12.59934016     
    1154.000 48.00194021      78.13822052      55.21254755      12.59783868     
    1154.500 48.29806035      79.07101744      55.47848621      12.59838957     
    1155.000 48.69688405      79.45224855      55.63367618      12.59930670     
    1155.500 49.02363621      79.73831829      55.55669787      12.59879367     
    1156.000 49.52775665      78.47541882      55.41380133      12.99495843     
    1156.500 49.88880837      75.65567284      55.26816950      13.38844653     
    1157.000 50.45368529      72.93206774      55.07020820      13.78621379     
    1157.500 51.45121522      71.54897657      54.80601124      14.18581419     
    1158.000 52.86782421      70.28648592      54.55684099      14.18581419     
    1158.500 55.71129257      69.71825506      54.20937562      14.18581419     
    1159.000 58.84209287      69.04403657      53.96820034      14.58541459     
    1159.500 62.28248924      68.30052399      54.16196635      14.58541459     
    1160.000 64.48977841      67.92703252      54.24623864      14.25574426     
    1160.500 66.23474831      67.67469704      54.58564893      14.45654346     
    1161.000 68.03091635      67.23636856      55.01156023      14.98501499     
    1161.500 68.76818967      66.91056690      55.27732996      14.98501499     
    1162.000 69.03073742      67.02732270      55.53919495      14.58541459     
    1162.500 69.47498422      67.65973736      55.82496022      14.58541459     
    1163.000 69.74466501      68.05393660      56.02946491      14.58541459     
    1163.500 69.69511210      68.83156919      56.13678546      14.58541459     
    1164.000 69.71865396      69.12150368      56.29139706      14.18581419     
    1164.500 69.70896648      69.92517151      56.40348261      14.18581419     
    1165.000 69.59067216      71.22547462      56.47193210      13.76886210     
    1165.500 69.38050044      72.05934134      56.61875293      13.76337158     
    1166.000 68.53243355      72.22930377      56.76318343      13.76557779     
    1166.500 67.66437595      72.33464590      56.83662020      14.17310044     
    1167.000 66.63127826      70.87119583      56.79112344      14.18104094     
    1167.500 64.82925821      69.40757831      56.35702872      14.18354873     
    1168.000 62.23279808      69.55977648      55.35551727      14.57858012     
    1168.500 59.20714075      68.98951356      54.37276740      14.56789101     
    1169.000 55.81148655      68.30376188      53.20977988      14.96004169     
    1169.500 52.65979539      66.67460763      52.12472075      14.96419692     
    1170.000 50.83586246      64.80383933      51.22587467      14.67345801     
    1170.500 49.97229858      64.45177452      50.81225997      14.90527688     
    1171.000 49.20001999      65.30939622      50.60664548      14.64656567     
    1171.500 48.27992377      69.04706956      50.58947492      14.27026717     
    1172.000 47.52387257      71.45432917      50.72672642      13.87783493     
    1172.500 47.05046936      72.34831734      50.86901351      13.46900241     
    1173.000 46.44512946      72.78960575      51.00894270      13.84761376     
    1173.500 46.43694019      74.03367992      51.69862819      13.42189693     
    1174.000 46.49774972      74.54546166      52.22689254      13.40106025     
    1174.500 46.53528711      76.14478425      52.60673466      12.98770523     
    1175.000 46.73547744      76.84892549      52.91543539      12.98371218     
    1175.500 47.00141660      76.17029047      53.17098966      12.98450303     
    1176.000 47.34080164      74.44773987      53.17595941      13.38672629     
    1176.500 47.82953752      73.08990089      52.98177815      13.78621379     
    1177.000 48.34593856      71.40966062      53.03043791      13.78621379     
    1177.500 48.99670422      69.59031909      52.94945330      14.58541459     
    1178.000 49.73313167      67.47297456      52.79605671      14.58541459     
    1178.500 49.94551658      66.12922405      52.67670049      14.98501499     
    1179.000 50.14907291      66.28098261      52.41949592      14.98501499     
    1179.500 50.34867206      67.25946480      52.44499966      14.58541459     
    1180.000 50.67319261      69.45015362      52.63218560      14.07592408     
    1180.500 51.35626573      71.44737624      53.05687346      13.84383165     
    1181.000 52.31930287      73.13675715      53.88262518      13.75713870     
    1181.500 53.14678142      75.16834112      54.79763985      13.35457052     
    1182.000 54.49097061      75.92527032      55.87535803      12.94972820     
    1182.500 55.38119482      79.16593909      56.96415367      12.94746528     
    1183.000 55.54707686      83.01901317      57.93383141      12.15085003     
    1183.500 53.40062090      84.03005502      58.61449273      11.75968127     
    1184.000 52.11594970      86.96725268      59.30647103      11.36903057     
    1184.500 50.99387119      89.35175882      59.68362142      11.38861139     
    1185.000 49.91692178      88.93350088      59.87878766      11.38861139     
    1185.500 49.69232745      86.51332553      60.03830364      11.78821179     
    1186.000 49.08087658      84.83228345      60.01666403      11.78821179     
    1186.500 49.14783563      83.48324635      60.03059821      11.78821179     
    1187.000 49.31775191      82.68868333      59.98840763      12.18781219     
    1187.500 49.25483271      82.56635229      59.74985430      12.18781219     
    1188.000 49.44941789      82.70770672      59.63205897      12.17141788     
    1188.500 49.93843084      81.19849613      59.53426851      12.17957502     
    1189.000 49.88174268      80.44515641      59.13826864      12.58740742     
    1189.500 49.91176936      80.65134478      59.14272473      12.19201491     
    1190.000 49.89495492      80.86590469      59.50901369      12.19378893     
