~Version Information Block
 VERS.                2.00:     CWLS LOG ASCII STANDARD - VERSION 2.000000
 WRAP.                  NO:     One Line Per Depth Step
#
~Well Information Block
#MNEM.UNIT                     Data                         Information
#----------   ------------------------------------------   ----------------
 STRT.FT                                      250.0000:     START DEPTH
 STOP.FT                                     2900.0000:     STOP DEPTH
 STEP.FT                                        0.5000:     STEP
 NULL.                                       -999.2500:     NULL VALUE
 COMP.                          Kerr-McGee Corporation:     COMPANY
 WELL.                                       Navajo #4:     WELL
 FLD .                                  Dineh-bi-Keyah:     FIELD
 LOC .                             0870' FEL 1720' FNL:     LOCATION
 SEC .                                              32:     SECTION
 TWP .                                             36N:     TOWNSHIP
 RANG.                                             30E:     RANGE
 CNTY.                                          Apache:     COUNTY
 STAT.                                         Arizona:     STATE
 CTRY.                                             USA:     COUNTRY
 SRVC.                                    Schlumberger:     SERVICE COMPANY
 DATE.                                                :     DATE
 API .                                    02-001-20009:     API NUMBER
 UWI .                                    02-001-20009:     UWI NUMBER
 TVD .                                              NO:     TVD flag
 WSTA.                                             OIL:     Well status
#
~Curve Information Block
#MNEM.UNIT       API CODE      Curve Description
#----------    -------------   -------------------
 DEPT.FT                   :   Depth in Feet
 SP  .MV       05 010 01 01:   Spontaneous Potential
 ILD .OHMM     05 120 46 01:   Deep Induction Standard Processed Resistivity
 SN  .OHMM     05 040 16 01:   Short Normal
 CILD.MMHO     05 110 46 01:   Deep Induction Standard Processed Conductivity
#
~Parameter Information Block
#MNEM.UNIT            Value               Description
#----------    --------------------    -------------------
 DATE.                    5/9/2012:    Date As Month-Day-Year
 RUN .                         ONE:    Run Number
 PDAT.                          GL:    Permanent Datum
 EPD .FT                 7361.0000:    Elevation Of Perm. Datum
 LMF .                          KB:    Log Measured From
 FAPD.FT                   13.0000:    Feet Above Perm. Datum
 DMF .                          KB:    Drilling Measured From
 EKB .FT                 7374.0000:    Elevation Of Kelly Bushing
 EDF .FT                 7373.0000:    Elevation Of Derrick Floor
 EGL .FT                 7361.0000:    Elevation Of Ground Level
 TD  .FT                 2898.0000:    Total Depth
 DF  .                     Hermosa:    
 PROJ.                       Rmccs:    
 DD  .FT                 2898.0000:    Depth Driller
 DL  .FT                 2899.0000:    Depth Logger
 BLI .FT                 2898.0000:    Bottom Log Interval
 TLI .FT                  264.0000:    Top Log Interval
 CSIZ.IN                     9 5/8:    Casing Size
 CBD1.                         263:    Casing Bottom (Driller) 1
 CBL1.                         264:    Casing Bottom (Logger) 1
 BS  .IN                     8 3/4:    Bit Size
 DFT .                    GEL-CHEM:    Drilling Fluid Type
 DFV .S                    60.0000:    Drilling Fluid Viscosity
 DFD .LB/G                  8.9000:    Drilling Fluid Density
 DFL .ML                    3.0000:    Drilling Fluid Loss
 DFPH.                      9.0000:    Drilling Fluid Ph
 MSS .                   FLOW LINE:    Mud Sample Source
 RMS .OHMM                  5.1400:    Resistivity Of Mud Sample
 MST .DEGF                 90.0000:    Mud Sample Temperature
 RMF .OHMM                  3.1000:    Mud Filtrate Resistivity
 MFST.DEGF                 70.0000:    Mud Filtrate Sample Temperature
 MFSS.                        CALC:    Mud Filtrate Sample Source
 RMC .OHMM                  0.0000:    Mud Cake Resistivity
 MCST.DEGF                  0.0000:    Mud Cake Sample Temperature
 MCSS.                        CALC:    Mud Cake Sample Source
 RMB .OHMM                  4.6200:    Mud Resistivity At Bht
 BHT .DEGF                 99.0000:    Bottom Hole Temperature
 TCS .                        2 hr:    Time Circulation Stopped
 MRT .DEGF                 99.0000:    Maximum Recorded Temperature
 LUN .                        3860:    Logging Unit Number
 LUL .                        FARM:    Logging Unit Location
 ENGI.                      Brooks:    Engineer'S Name
 WITN.             Mr. Hassenfratz:    Witness' Name
 DGBY.                         slr:    
 WSTA.                         OIL:    
#
~Other Information Block
<DescLogPlotStart>   NEURALOG PLOT DEFINITION
PLOTDEFVERSION: 3
LASFILE: C:\nds\projects\Rmccs\las\0384IEL.las
DEPTHSCALE: 600.000013
RESOLUTION: 200
DEPTHLABELFREQ: 100.000000
HEAVYGRIDFREQ: 50.000000
MEDIUMGRIDFREQ: 50.000000
LIGHTGRIDFREQ: 10.000000
#
#   TRACK 1
#
STARTTRACK: 
 LEFTX: 0.500000 inch
 RIGHTX: 3.000000 inch
 SCALETYPE: Linear
 NUMCHARTDIVISIONS: 10
CURVE: SP    0.000000   100.000000 (255,131,0)    Solid             2     Y    
BACKUP: 0.000000   200.000000 (255,131,0)    Solid             2    
BACKUP: -100.000000 0.000000   (255,131,0)    Solid             2    
ENDTRACK: 
#
#   TRACK 2
#
STARTTRACK: 
 LEFTX: 3.750000 inch
 RIGHTX: 6.250000 inch
 SCALETYPE: Linear
 NUMCHARTDIVISIONS: 10
CURVE: ILD   0.000000   100.000000 (0,0,156)      Solid             2     Y    
BACKUP: 0.000000   1000.000000 (0,0,156)      Solid             2    
BACKUP: -100.000000 0.000000   (0,0,156)      Solid             2    
CURVE: SN    0.000000   100.000000 (255,0,0)      Solid             2     Y    
BACKUP: 0.000000   1000.000000 (255,0,0)      Solid             2    
BACKUP: -100.000000 0.000000   (255,0,0)      Solid             2    
ENDTRACK: 
#
#   TRACK 3
#
STARTTRACK: 
 LEFTX: 6.250000 inch
 RIGHTX: 8.750000 inch
 SCALETYPE: Linear
 NUMCHARTDIVISIONS: 10
CURVE: CILD  400.000000 0.000000   (0,131,0)      Solid             2     N    
ENDTRACK: 
<DescLogPlotEnd>
<DescLog>Induction Electrical
<DescOSVS>BHC/GR
<DescOSVS>CBL
<DescOSVS>FDC/GR
~A DEPTH     SP               ILD              SN               CILD            
# ...
    1982.500 79.72430079      69.17272767      65.42068609      14.59849988     
    1983.000 79.68729925      70.68160210      64.64302172      13.78808054     
    1983.500 79.72403297      72.83970744      65.22608437      13.78165427     
    1984.000 79.61749548      78.91694744      66.80667402      12.97864635     
    1984.500 79.21812380      83.75022287      69.46405548      12.17823706     
    1985.000 79.11612786      91.72959539      72.19998545      11.38162013     
    1985.500 79.04375236      97.13389043      75.16190172      10.58893902     
    1986.000 78.89904773      96.66934536      77.39288449      10.20182465     
    1986.500 78.85658996      95.93789867      78.39797625      10.21675801     
    1987.000 78.68068677      88.58337173      78.18931486      10.62915894     
    1987.500 78.71038317      84.86845950      76.83415685      11.43217132     
    1988.000 78.68987015      83.26696104      75.08018074      11.82444764     
    1988.500 78.71203142      82.12238054      72.96567966      12.20704208     
    1989.000 78.68134171      81.18405634      71.56681412      12.18576785     
    1989.500 78.85708021      80.65944932      70.80576051      12.56801051     
    1990.000 78.81317808      81.01658780      71.57718906      12.38846548     
    1990.500 78.76843100      82.26058088      72.52307237      12.18781219     
    1991.000 78.77235791      87.31453135      74.38833375      11.78821179     
    1991.500 78.64888175      92.82854577      76.08150114      10.98901099     
    1992.000 78.31742585      103.82517648     77.55683770      10.18981019     
    1992.500 77.89039148      103.20590095     78.79114806      9.79020979      
    1993.000 77.50869664      103.12780980     79.63191561      9.79020979      
    1993.500 76.96036012      103.25315941     80.10644478      9.79020979      
    1994.000 76.33030361      103.37015293     80.67149039      9.77607112      
    1994.500 76.01737926      101.75071646     80.51267590      9.75680124      
    1995.000 75.92266828      97.33138073      79.87276723      10.13936799     
    1995.500 76.29601764      94.65146292      79.09306849      10.12650113     
    1996.000 76.69043820      93.82952434      77.93866733      10.52160343     
    1996.500 77.11346884      90.22692864      76.60549222      10.92598102     
    1997.000 77.44356741      82.79339749      75.19171230      11.33688958     
    1997.500 77.69832819      82.43450425      73.85644967      11.74972409     
    1998.000 78.05907596      79.39201926      72.58392272      12.15993963     
    1998.500 78.28371587      77.82535014      71.37690430      12.96596712     
    1999.000 78.59001276      74.78743592      70.24620191      13.36805542     
    1999.500 78.55674868      74.27171184      69.08737658      13.37098694     
    2000.000 78.54076849      74.57145059      68.40323570      13.25388470     
    2000.500 78.66404755      76.73064867      67.38949918      13.09920398     
    2001.000 78.68845145      76.94610557      66.62942347      12.98745510     
    2001.500 78.85158841      76.44231387      66.63542717      12.99164879     
    2002.000 78.91335104      75.83474656      66.62609540      12.99242018     
    2002.500 78.89538498      75.87786229      66.50027677      12.98702433     
    2003.000 78.90182656      78.05639196      66.22965518      12.57774421     
    2003.500 78.90187942      83.80714640      65.83001370      11.76826080     
    2004.000 78.89478934      89.88349146      65.42127056      11.36272864     
    2004.500 78.91226088      91.42303769      65.19468523      10.96447984     
    2005.000 78.75079061      91.72970958      65.55268163      10.97144307     
    2005.500 78.68476734      90.66563790      66.25408292      10.97837990     
    2006.000 78.70818747      89.92778467      66.99573645      10.98901099     
    2006.500 78.69008574      87.86990778      67.56905528      11.38861139     
    2007.000 78.83679560      84.60697271      67.20245215      11.78821179     
    2007.500 78.96664307      78.58221022      66.35761971      12.18781219     
    2008.000 79.09912089      72.87668305      63.69605411      13.38661339     
    2008.500 79.11340644      66.55182616      59.88861847      14.98501499     
    2009.000 79.06987574      61.75200497      58.62166635      16.58341658     
    2009.500 79.21495586      56.93753411      56.49234212      18.18181818     
    2010.000 79.36101697      53.63753837      53.18878831      18.94105894     
    2010.500 78.90969993      51.65692832      50.96817774      19.78021978     
    2011.000 78.91955149      51.52614126      49.26675648      19.78021978     
    2011.500 78.74523713      51.71221968      48.32817111      19.38061938     
    2012.000 78.69035948      52.48201040      48.29539681      18.98101898     
    2012.500 78.70308461      54.66835922      48.53064598      18.58141858     
    2013.000 78.70167855      59.47332729      49.22729616      18.18181818     
    2013.500 78.69336489      61.10190141      50.00445510      16.98301698     
    2014.000 78.71608163      62.77141274      50.84606531      16.18381618     
    2014.500 78.64355577      68.86837944      51.65578602      15.38461538     
    2015.000 78.50012815      70.80980299      52.38572814      14.58541459     
    2015.500 78.35414818      67.17304185      52.39585007      14.58541459     
    2016.000 78.28490634      62.53749860      51.99062044      15.38461538     
    2016.500 78.17677346      52.89489836      50.96933590      17.38261738     
    2017.000 78.01516526      43.89288784      49.11754828      20.97902098     
    2017.500 77.94870208      34.06901536      47.63718470      25.80138681     
    2018.000 78.10023741      27.79655631      43.80848758      33.42001028     
    2018.500 78.26566499      22.80742379      38.50982894      39.84021315     
    2019.000 78.85516174      21.91530142      34.59882518      45.86476823     
    2019.500 79.42732892      19.63614699      28.54359230      51.48983509     
    2020.000 79.56280108      19.27616878      27.05776003      53.10479182     
    2020.500 79.68649110      19.69043364      26.50835827      53.10844532     
    2021.000 79.64472811      20.25875186      26.91548914      51.50088826     
    2021.500 79.38982670      21.22635740      27.34268417      47.35264735     
    2022.000 78.66928845      23.48641710      28.95564633      41.75824176     
    2022.500 78.03910741      36.10045809      34.79840739      34.96503497     
    2023.000 77.77022686      62.97662146      41.19937401      27.37262737     
    2023.500 77.64181386      56.76853875      64.32252013      18.58141858     
    2024.000 77.95326426      189.37875752     71.44898934      11.38861139     
    2024.500 78.36011779      259.51903808     76.39608388      6.59340659      
    2025.000 78.73763976      271.54308617     84.56913828      3.79620380      
    2025.500 79.06606273      236.71342685     88.47695391      3.79620380      
    2026.000 79.14852616      173.34669339     90.08016032      4.59540460      
    2026.500 79.31596751      159.31863727     90.48096192      5.79420579      
    2027.000 79.29421868      133.26653307     89.87975952      6.99300699      
    2027.500 79.30558620      119.23847695     88.67735471      7.39260739      
    2028.000 79.29894349      111.22244489     87.07414830      8.19180819      
    2028.500 79.30276258      103.20641283     85.47094188      8.59140859      
    2029.000 79.29878837      99.38076152      84.09029096      8.99100899      
    2029.500 79.30402088      91.68336673      83.31514695      10.58941059     
    2030.000 79.29526640      93.48697395      83.36146957      11.78821179     
    2030.500 79.31249675      89.07815631      83.68360045      12.18781219     
    2031.000 79.25363163      88.27655311      84.07719403      12.58741259     
    2031.500 79.08259958      88.27655311      84.38522916      12.98701299     
