~Version Information Block
 VERS.                2.00:     CWLS LOG ASCII STANDARD - VERSION 2.000000
 WRAP.                  NO:     One Line Per Depth Step
#
~Well Information Block
#MNEM.UNIT                     Data                         Information
#----------   ------------------------------------------   ----------------
 STRT.FT                                      250.0000:     START DEPTH
 STOP.FT                                     2900.0000:     STOP DEPTH
 STEP.FT                                        0.5000:     STEP
 NULL.                                       -999.2500:     NULL VALUE
 COMP.                          Kerr-McGee Corporation:     COMPANY
 WELL.                                       Navajo #4:     WELL
 FLD .                                  Dineh-bi-Keyah:     FIELD
 LOC .                             0870' FEL 1720' FNL:     LOCATION
 SEC .                                              32:     SECTION
 TWP .                                             36N:     TOWNSHIP
 RANG.                                             30E:     RANGE
 CNTY.                                          Apache:     COUNTY
 STAT.                                         Arizona:     STATE
 CTRY.                                             USA:     COUNTRY
 SRVC.                                    Schlumberger:     SERVICE COMPANY
 DATE.                                                :     DATE
 API .                                    02-001-20009:     API NUMBER
 UWI .                                    02-001-20009:     UWI NUMBER
 TVD .                                              NO:     TVD flag
 WSTA.                                             OIL:     Well status
#
~Curve Information Block
#MNEM.UNIT       API CODE      Curve Description
#----------    -------------   -------------------
 DEPT.FT                   :   Depth in Feet
 SP  .MV       05 010 01 01:   Spontaneous Potential
 ILD .OHMM     05 120 46 01:   Deep Induction Standard Processed Resistivity
 SN  .OHMM     05 040 16 01:   Short Normal
 CILD.MMHO     05 110 46 01:   Deep Induction Standard Processed Conductivity
#
~Parameter Information Block
#MNEM.UNIT            Value               Description
#----------    --------------------    -------------------
 DATE.                    5/9/2012:    Date As Month-Day-Year
 RUN .                         ONE:    Run Number
 PDAT.                          GL:    Permanent Datum
 EPD .FT                 7361.0000:    Elevation Of Perm. Datum
 LMF .                          KB:    Log Measured From
 FAPD.FT                   13.0000:    Feet Above Perm. Datum
 DMF .                          KB:    Drilling Measured From
 EKB .FT                 7374.0000:    Elevation Of Kelly Bushing
 EDF .FT                 7373.0000:    Elevation Of Derrick Floor
 EGL .FT                 7361.0000:    Elevation Of Ground Level
 TD  .FT                 2898.0000:    Total Depth
 DF  .                     Hermosa:    
 PROJ.                       Rmccs:    
 DD  .FT                 2898.0000:    Depth Driller
 DL  .FT                 2899.0000:    Depth Logger
 BLI .FT                 2898.0000:    Bottom Log Interval
 TLI .FT                  264.0000:    Top Log Interval
 CSIZ.IN                     9 5/8:    Casing Size
 CBD1.                         263:    Casing Bottom (Driller) 1
 CBL1.                         264:    Casing Bottom (Logger) 1
 BS  .IN                     8 3/4:    Bit Size
 DFT .                    GEL-CHEM:    Drilling Fluid Type
 DFV .S                    60.0000:    Drilling Fluid Viscosity
 DFD .LB/G                  8.9000:    Drilling Fluid Density
 DFL .ML                    3.0000:    Drilling Fluid Loss
 DFPH.                      9.0000:    Drilling Fluid Ph
 MSS .                   FLOW LINE:    Mud Sample Source
 RMS .OHMM                  5.1400:    Resistivity Of Mud Sample
 MST .DEGF                 90.0000:    Mud Sample Temperature
 RMF .OHMM                  3.1000:    Mud Filtrate Resistivity
 MFST.DEGF                 70.0000:    Mud Filtrate Sample Temperature
 MFSS.                        CALC:    Mud Filtrate Sample Source
 RMC .OHMM                  0.0000:    Mud Cake Resistivity
 MCST.DEGF                  0.0000:    Mud Cake Sample Temperature
 MCSS.                        CALC:    Mud Cake Sample Source
 RMB .OHMM                  4.6200:    Mud Resistivity At Bht
 BHT .DEGF                 99.0000:    Bottom Hole Temperature
 TCS .                        2 hr:    Time Circulation Stopped
 MRT .DEGF                 99.0000:    Maximum Recorded Temperature
 LUN .                        3860:    Logging Unit Number
 LUL .                        FARM:    Logging Unit Location
 ENGI.                      Brooks:    Engineer'S Name
 WITN.             Mr. Hassenfratz:    Witness' Name
 DGBY.                         slr:    
 WSTA.                         OIL:    
#
~Other Information Block
<DescLogPlotStart>   NEURALOG PLOT DEFINITION
PLOTDEFVERSION: 3
LASFILE: C:\nds\projects\Rmccs\las\0384IEL.las
DEPTHSCALE: 600.000013
RESOLUTION: 200
DEPTHLABELFREQ: 100.000000
HEAVYGRIDFREQ: 50.000000
MEDIUMGRIDFREQ: 50.000000
LIGHTGRIDFREQ: 10.000000
#
#   TRACK 1
#
STARTTRACK: 
 LEFTX: 0.500000 inch
 RIGHTX: 3.000000 inch
 SCALETYPE: Linear
 NUMCHARTDIVISIONS: 10
CURVE: SP    0.000000   100.000000 (255,131,0)    Solid             2     Y    
BACKUP: 0.000000   200.000000 (255,131,0)    Solid             2    
BACKUP: -100.000000 0.000000   (255,131,0)    Solid             2    
ENDTRACK: 
#
#   TRACK 2
#
STARTTRACK: 
 LEFTX: 3.750000 inch
 RIGHTX: 6.250000 inch
 SCALETYPE: Linear
 NUMCHARTDIVISIONS: 10
CURVE: ILD   0.000000   100.000000 (0,0,156)      Solid             2     Y    
BACKUP: 0.000000   1000.000000 (0,0,156)      Solid             2    
BACKUP: -100.000000 0.000000   (0,0,156)      Solid             2    
CURVE: SN    0.000000   100.000000 (255,0,0)      Solid             2     Y    
BACKUP: 0.000000   1000.000000 (255,0,0)      Solid             2    
BACKUP: -100.000000 0.000000   (255,0,0)      Solid             2    
ENDTRACK: 
#
#   TRACK 3
#
STARTTRACK: 
 LEFTX: 6.250000 inch
 RIGHTX: 8.750000 inch
 SCALETYPE: Linear
 NUMCHARTDIVISIONS: 10
CURVE: CILD  400.000000 0.000000   (0,131,0)      Solid             2     N    
ENDTRACK: 
<DescLogPlotEnd>
<DescLog>Induction Electrical
<DescOSVS>BHC/GR
<DescOSVS>CBL
<DescOSVS>FDC/GR
~A DEPTH     SP               ILD              SN               CILD            
# ...
    2329.000 80.31025887      54.37472552      51.33554364      19.32480919     
    2329.500 80.68345250      55.07441412      52.66666890      18.84817130     
    2330.000 80.91999113      55.43825757      54.08669839      18.69784002     
    2330.500 81.10342133      55.18321096      55.29502989      18.55549675     
    2331.000 81.64982006      54.62584566      55.17152977      18.56519756     
    2331.500 82.11341189      53.28754208      55.55365815      18.97823292     
    2332.000 82.49694523      52.78066046      55.46552084      18.99398169     
    2332.500 82.90131831      52.44939714      55.61215458      19.41125213     
    2333.000 83.30784522      51.54078560      56.30187042      19.42438516     
    2333.500 83.66299232      50.93367535      56.83855825      19.82741166     
    2334.000 83.84544341      50.55132851      57.64254129      19.81810229     
    2334.500 83.95928153      49.75084119      58.11787586      20.19810323     
    2335.000 84.11680652      48.97151324      58.16622962      20.57942058     
    2335.500 84.18239293      48.62298053      57.42916899      20.97902098     
    2336.000 84.15728739      48.02981119      56.71471482      21.37862138     
    2336.500 84.30222615      46.21811416      55.37935967      21.77822178     
    2337.000 84.33970249      44.52487957      54.46385543      22.57742258     
    2337.500 84.52429535      41.41230169      53.28015366      24.57542458     
    2338.000 84.47654860      39.33108670      51.58910862      26.17382617     
    2338.500 84.55812326      36.42608945      50.05008705      27.37262737     
    2339.000 84.70296813      35.40164183      47.86264845      28.62416231     
    2339.500 84.73513294      33.89803678      45.82700384      30.20284018     
    2340.000 84.98226576      31.89423113      43.75875221      32.19904323     
    2340.500 85.04338424      30.20294932      41.70658165      33.94306856     
    2341.000 85.16895399      28.44321175      40.04043372      35.33784587     
    2341.500 85.26380309      29.10063551      38.55832285      35.34255599     
    2342.000 85.07910679      29.87093938      37.35057372      34.16112856     
    2342.500 85.11859084      31.28088846      36.72023358      32.98621671     
    2343.000 84.95621445      32.13863988      36.73356787      32.16783217     
    2343.500 84.84445390      32.09360209      37.32933679      31.76823177     
    2344.000 84.68568344      32.61811289      37.81583456      31.36863137     
    2344.500 84.71677851      33.28708349      37.84000704      30.56943057     
    2345.000 84.54840816      33.92358886      37.16692729      30.16983017     
    2345.500 84.48632496      33.16105994      35.72904280      31.76823177     
    2346.000 84.50899863      29.42065154      33.93074143      35.76423576     
    2346.500 84.36435330      25.30615842      31.39083946      41.35864136     
    2347.000 84.12858725      22.27651218      28.89778345      46.55344655     
    2347.500 84.11031057      20.51305390      25.67658248      51.74825175     
    2348.000 83.94191519      18.34976250      23.03877322      56.14385614     
    2348.500 83.92949890      16.67966116      21.17782200      62.93706294     
    2349.000 84.15592167      14.32620371      19.73932217      71.32867133     
    2349.500 84.35753793      12.54057529      18.35632955      80.51948052     
    2350.000 84.46381232      12.16155984      16.76202408      90.26004897     
    2350.500 84.34587529      11.44068889      15.44235855      98.09146601     
    2351.000 84.17203685      10.94762190      14.28921505      104.89510490    
    2351.500 83.89758379      10.24120046      13.66075483      110.48951049    
    2352.000 83.63559794      9.89715685       13.10568811      115.28471528    
    2352.500 83.36016865      9.77441069       12.72245930      118.88111888    
    2353.000 83.23292248      9.69266448       12.33696171      121.27872128    
    2353.500 83.09913076      9.71972108       12.32988846      120.87912088    
    2354.000 82.95872495      9.70984801       12.28543203      118.88111888    
    2354.500 82.86509817      9.82989384       12.52728698      116.23865136    
    2355.000 83.08590723      10.12581124      12.74788148      111.82597351    
    2355.500 83.50682309      10.29711407      13.18051714      105.80040860    
    2356.000 83.76555092      10.79928200      13.36107198      98.17196453     
    2356.500 83.90324737      12.28762302      14.07335091      90.54866198     
    2357.000 84.02649571      14.09228334      14.48695348      83.73224257     
    2357.500 84.17918679      15.50587512      15.65944664      77.71804995     
    2358.000 84.27712669      16.66351095      16.92156809      72.10684129     
    2358.500 84.50532868      18.59816253      18.52899791      65.73426573     
    2359.000 84.71571968      20.94575302      19.77209444      58.94105894     
    2359.500 84.83891165      22.66941375      21.66757740      50.54945055     
    2360.000 84.92035125      26.07339812      23.15485007      42.39760240     
    2360.500 84.89431301      30.18410469      25.96884329      35.87612388     
    2361.000 84.90175385      33.56713427      28.65122892      29.35464535     
    2361.500 84.90983946      42.38476954      31.61727657      24.97502498     
    2362.000 84.75782004      51.01202405      36.53017645      20.57942058     
    2362.500 84.65179571      56.41282565      44.10813614      15.78421578     
    2363.000 84.44082630      88.47695391      54.10658039      11.38861139     
    2363.500 84.29505963      115.23046092     59.44703538      9.79020979      
    2364.000 84.16878934      103.20641283     64.32477840      8.99100899      
    2364.500 83.92885384      95.12264529      67.38346440      9.39060939      
    2365.000 83.90062745      85.18837675      66.93031067      10.98901099     
    2365.500 83.88516344      76.45290581      64.99452602      12.98701299     
    2366.000 83.95181576      72.01202405      62.36512790      15.38461538     
    2366.500 84.10311635      63.01803607      59.49373702      17.78221778     
    2367.000 84.23573618      53.60721443      56.51814671      18.98101898     
    2367.500 84.45423199      51.60320641      53.67678223      19.78021978     
    2368.000 84.55469462      50.20040080      51.82409274      20.17982018     
    2368.500 84.71234459      49.39879760      50.29219433      20.97902098     
    2369.000 84.69543706      47.97837191      48.77624919      21.37862138     
    2369.500 84.70373299      45.97579555      47.93238632      22.17782218     
    2370.000 84.69503936      43.20272854      46.48691330      22.64626889     
    2370.500 84.61560984      40.28069649      44.29310882      24.98896893     
    2371.000 84.51200074      37.34848138      42.52927484      27.00721110     
    2371.500 84.49505385      34.52020567      40.98107757      28.57511952     
    2372.000 84.50774808      32.11843614      38.42675971      30.14867971     
    2372.500 84.48502008      30.49757262      35.86599856      32.13336429     
    2373.000 84.55415010      28.77117353      33.27941352      34.12858947     
    2373.500 84.70681598      28.01949026      31.40259714      36.52910644     
    2374.000 84.70843262      26.60266734      30.65523423      38.16183816     
    2374.500 84.65277764      25.89907527      29.99894537      39.76023976     
    2375.000 84.49004859      25.74432504      29.36137372      39.56043956     
    2375.500 84.37531097      26.76414972      28.35857061      38.56143856     
    2376.000 84.22497696      27.10573187      27.93761871      37.76223776     
    2376.500 84.11204436      27.85379832      27.72075773      37.76223776     
    2377.000 83.94494793      28.51700644      27.89146001      36.96303696     
    2377.500 83.89852456      29.12780883      28.04733631      36.56343656     
    2378.000 83.75604027      30.15775306      28.57805855      35.37807560     
