~Version Information Block
 VERS.                2.00:     CWLS LOG ASCII STANDARD - VERSION 2.000000
 WRAP.                  NO:     One Line Per Depth Step
#
~Well Information Block
#MNEM.UNIT                     Data                         Information
#----------   ------------------------------------------   ----------------
 STRT.FT                                       50.0000:     START DEPTH
 STOP.FT                                     2900.0000:     STOP DEPTH
 STEP.FT                                        0.5000:     STEP
 NULL.                                       -999.2500:     NULL VALUE
 COMP.                          Kerr-McGee Corporation:     COMPANY
 WELL.                                       Navajo #4:     WELL
 FLD .                                  Dineh-bi-Keyah:     FIELD
 LOC .                            870' FEL & 1720' FNL:     LOCATION
 SEC .                                              32:     SECTION
 TWP .                                             36N:     TOWNSHIP
 RANG.                                             30E:     RANGE
 CNTY.                                          Apache:     COUNTY
 STAT.                                         Arizona:     STATE
 CTRY.                                          U.S.A.:     COUNTRY
 SRVC.                                    Schlumberger:     SERVICE COMPANY
 DATE.                                      05/23/2012:     DATE
 API .                                    02-001-20009:     API NUMBER
 UWI .                                    02-001-20009:     UWI NUMBER
 TVD .                                              NO:     TVD flag
 WSTA.                                             OIL:     Well status
#
~Curve Information Block
#MNEM.UNIT       API CODE      Curve Description
#----------    -------------   -------------------
 DEPT.FT                   :   Depth in Feet
 GR  .GAPI     35 310 01 01:   Gamma Ray
 CALI.IN       70 280 01 01:   Caliper
 DT  .US/F     60 520 08 01:   Delta-T
 BIT .IN                   :   Bit size
#
~Parameter Information Block
#MNEM.UNIT            Value               Description
#----------    --------------------    -------------------
 DATE.                   5/23/2012:    Date As Month-Day-Year
 RUN .                         ONE:    Run Number
 PDAT.                          GL:    Permanent Datum
 EPD .FT                 7361.0000:    Elevation Of Perm. Datum
 LMF .                          KB:    Log Measured From
 FAPD.FT                   13.0000:    Feet Above Perm. Datum
 DMF .                          KB:    Drilling Measured From
 EKB .FT                 7374.0000:    Elevation Of Kelly Bushing
 EDF .FT                 7361.0000:    Elevation Of Derrick Floor
 EGL .FT                 7361.0000:    Elevation Of Ground Level
 TD  .FT                 2900.0000:    Total Depth
 DF  .         Pennsylvanian Hermo:    
 PROJ.                       Rmccs:    
 DD  .FT                 2898.0000:    Depth Driller
 DL  .FT                 2898.0000:    Depth Logger
 BLI .FT                 2896.0000:    Bottom Log Interval
 TLI .FT                    0.0000:    Top Log Interval
 CSIZ.IN                     9 5/8:    Casing Size
 CBD1.                         263:    Casing Bottom (Driller) 1
 CBL1.                         263:    Casing Bottom (Logger) 1
 BS  .IN                     8 3/4:    Bit Size
 DFT .                    GEL CHEM:    Drilling Fluid Type
 DFV .S                    60.0000:    Drilling Fluid Viscosity
 DFD .LB/G                  8.9000:    Drilling Fluid Density
 DFL .ML                    3.0000:    Drilling Fluid Loss
 DFPH.                      9.0000:    Drilling Fluid Ph
 MSS .                   Flow line:    Mud Sample Source
 RMS .OHMM                  5.1400:    Resistivity Of Mud Sample
 MST .DEGF                 90.0000:    Mud Sample Temperature
 RMF .OHMM                  3.1000:    Mud Filtrate Resistivity
 MFST.DEGF                 70.0000:    Mud Filtrate Sample Temperature
 MFSS.                        MEAS:    Mud Filtrate Sample Source
 RMB .OHMM                  4.6200:    Mud Resistivity At Bht
 BHT .DEGF                 99.0000:    Bottom Hole Temperature
 TCS .                 5 1/2 hours:    Time Circulation Stopped
 MRT .DEGF                 99.0000:    Maximum Recorded Temperature
 LUN .                        3860:    Logging Unit Number
 LUL .                  Farmington:    Logging Unit Location
 ENGI.                      Brooks:    Engineer'S Name
 WITN.                 Hassenfratz:    Witness' Name
 DGBY.                         slr:    
 WSTA.                         OIL:    
#
~Other Information Block
<DescLogPlotStart>   NEURALOG PLOT DEFINITION
PLOTDEFVERSION: 3
LASFILE: C:\nds\projects\Rmccs\las\0384BHCS_2.las
DEPTHSCALE: 600.000013
RESOLUTION: 200
DEPTHLABELFREQ: 100.000000
HEAVYGRIDFREQ: 50.000000
MEDIUMGRIDFREQ: 50.000000
LIGHTGRIDFREQ: 50.000000
#
#   TRACK 1
#
STARTTRACK: 
 LEFTX: 0.500000 inch
 RIGHTX: 3.000000 inch
 SCALETYPE: Linear
 NUMCHARTDIVISIONS: 10
CURVE: GR    0.000000   160.000000 (0,0,255)      Solid             2     N    
CURVE: CALI  6.000000   16.000000  (0,131,131)    Dot               2     N    
CURVE: BIT   6.000000   16.000000  (255,0,255)    Short_Dash        2     N    
ENDTRACK: 
#
#   TRACK 2
#
STARTTRACK: 
 LEFTX: 3.500000 inch
 RIGHTX: 8.500000 inch
 SCALETYPE: Linear
 NUMCHARTDIVISIONS: 21
CURVE: DT    100.000000 40.000000  (255,0,0)      Solid             2     Y    
BACKUP: 160.000000 100.000000 (255,131,0)    Solid             2    
ENDTRACK: 
<DescLogPlotEnd>
<DescLog>Borehole Compensated Sonic
<DescOSVS>IES, CBL
<DescOSVS>FDC/GR
<DescOSVS>
IAP failed to step between 0932' and 0892'
~A DEPTH     GR               CALI             DT               BIT             
# ...
     248.000 42.66988996      -999.25000000    -999.25000000    8.76437312      
     248.500 40.33269682      -999.25000000    -999.25000000    8.76436938      
     249.000 39.95832039      -999.25000000    -999.25000000    8.76436563      
     249.500 38.56096279      -999.25000000    -999.25000000    8.76436188      
     250.000 36.34729070      -999.25000000    -999.25000000    8.76435814      
     250.500 34.56240180      -999.25000000    -999.25000000    8.76435439      
     251.000 32.12726097      9.10379242       42.03187251      8.76435065      
     251.500 30.69977635      9.12375250       41.91235060      8.76434690      
     252.000 29.84109028      9.12375250       41.81075697      8.76434316      
     252.500 28.39550764      9.12375250       41.76294821      8.76433941      
     253.000 28.73632297      9.12375250       41.71513944      8.76433566      
     253.500 30.44559077      9.12375250       41.61354582      8.76433192      
     254.000 36.58194108      9.12375250       41.49402390      8.76432817      
     254.500 43.48591952      9.13910761       41.43426295      8.76432443      
     255.000 44.63642480      9.12378621       41.25498008      8.76432068      
     255.500 39.41932104      9.12371429       41.22509960      8.76431694      
     256.000 32.22307398      9.12378100       41.46414343      8.76431319      
     256.500 29.18570965      9.12363167       42.53984064      8.76430945      
     257.000 28.18002775      9.12390319       50.00996016      8.76430570      
     257.500 28.29867669      9.12338904       50.93625498      8.76430195      
     258.000 30.32681536      9.12428536       51.23505976      8.76429821      
     258.500 31.93428271      9.12256786       51.26494024      8.76429446      
     259.000 33.62472044      9.13840692       51.32470120      8.76429072      
     259.500 33.63168062      9.14526328       50.78311753      8.76428697      
     260.000 34.03538286      9.14188164       48.37773904      8.76428323      
     260.500 34.88992409      9.14794484       45.97236056      8.76427948      
     261.000 36.09344754      9.16594569       42.36429283      8.76427573      
     261.500 39.59080761      9.15996839       42.89342629      8.76427199      
     262.000 42.77252365      9.16842766       47.41533865      8.76426824      
     262.500 43.73023162      9.15222319       52.04216008      8.76426450      
     263.000 46.38467601      9.21802908       -999.25000000    8.76426075      
     263.500 49.75999818      9.42476666       55.30520084      8.76425701      
     264.000 53.88121566      9.46137325       55.15474378      8.76425326      
     264.500 55.95007429      9.55504490       55.12563907      8.76424952      
     265.000 56.06453289      9.57166017       55.17650483      8.76424577      
     265.500 55.73256047      9.76449411       55.34226760      8.76424202      
     266.000 54.46440895      9.68851724       55.68725100      8.76423828      
     266.500 51.77718948      9.82776034       56.19521912      8.76423453      
     267.000 49.05192858      9.82918852       56.37450199      8.76423079      
     267.500 47.75784719      15.40061075      -999.25000000    8.76422704      
     268.000 46.50279027      14.90607537      -999.25000000    8.76422330      
     268.500 46.50854123      15.40236461      -999.25000000    8.76421955      
     269.000 46.38291887      15.34962502      -999.25000000    8.76421580      
     269.500 48.88020605      15.29150678      -999.25000000    8.76421206      
     270.000 52.39077563      11.59172543      -999.25000000    8.76420831      
     270.500 54.00316958      11.72337503      -999.25000000    8.76420457      
     271.000 55.44973633      11.63458176      -999.25000000    8.76420082      
     271.500 55.96566076      10.52767474      -999.25000000    8.76419708      
     272.000 56.34402469      10.70672295      -999.25000000    8.76419333      
     272.500 56.36745826      10.76202348      -999.25000000    8.76418959      
     273.000 56.41342990      10.82702284      -999.25000000    8.76418584      
     273.500 55.15652517      10.66943584      -999.25000000    8.76418209      
     274.000 51.17950506      12.59040384      -999.25000000    8.76417835      
     274.500 46.84077558      12.45935918      -999.25000000    8.76417460      
     275.000 43.68388739      15.31206843      -999.25000000    8.76417086      
     275.500 42.85550644      15.33709658      -999.25000000    8.76416711      
     276.000 43.07547337      15.34343691      -999.25000000    8.76416337      
     276.500 46.18878385      15.01332911      -999.25000000    8.76415962      
     277.000 49.38073566      10.18138969      -999.25000000    8.76415587      
     277.500 52.63704611      10.40003482      -999.25000000    8.76415213      
     278.000 55.61584422      10.15645952      59.42231076      8.76414838      
     278.500 56.92792190      10.25560454      59.54183267      8.76414464      
     279.000 57.24435031      10.88622541      59.60159363      8.76414089      
     279.500 56.93665201      10.97994901      59.72111554      8.76413715      
     280.000 54.03852868      10.29604254      59.90039841      8.76413340      
     280.500 52.81757642      10.30151604      60.49800797      8.76412966      
     281.000 54.17232780      12.23813767      65.00996016      8.76412591      
     281.500 54.94431845      12.16837019      65.42828685      8.76412216      
     282.000 55.93090267      12.12523220      65.81673307      8.76411842      
     282.500 56.54254249      11.36918460      -999.25000000    8.76411467      
     283.000 56.50177476      9.97194483       -999.25000000    8.76411093      
     283.500 51.90948008      10.00478865      -999.25000000    8.76410718      
     284.000 44.02706005      9.86122657       -999.25000000    8.76410344      
     284.500 37.09187840      9.84315864       -999.25000000    8.76409969      
     285.000 32.68753196      9.85244606       -999.25000000    8.76409594      
     285.500 34.98710367      9.83560135       -999.25000000    8.76409220      
     286.000 39.76104738      9.83269625       -999.25000000    8.76408845      
     286.500 44.10264332      9.85502145       -999.25000000    8.76408471      
     287.000 48.79928116      9.86877181       -999.25000000    8.76408096      
     287.500 49.74118714      10.09888474      -999.25000000    8.76407722      
     288.000 50.69885837      9.98416315       -999.25000000    8.76407347      
     288.500 46.64902111      9.76322270       -999.25000000    8.76406973      
     289.000 39.63168773      9.74781682       -999.25000000    8.76406598      
     289.500 37.16223130      9.67972147       -999.25000000    8.76406223      
     290.000 35.64086070      9.65543878       -999.25000000    8.76405849      
     290.500 36.98636691      9.59582470       -999.25000000    8.76405474      
     291.000 39.61033562      9.62901634       -999.25000000    8.76405100      
     291.500 40.68294359      9.67839605       -999.25000000    8.76404725      
     292.000 41.41323935      9.95278929       -999.25000000    8.76404351      
     292.500 41.59138661      9.89816000       -999.25000000    8.76403976      
     293.000 42.07623731      9.69718932       -999.25000000    8.76403601      
     293.500 42.48968425      9.68010451       -999.25000000    8.76403227      
     294.000 48.18022751      9.67819746       -999.25000000    8.76402852      
     294.500 54.40655918      9.68464875       -999.25000000    8.76402478      
     295.000 55.67917118      9.69434239       -999.25000000    8.76402103      
     295.500 55.47379706      9.72328925       -999.25000000    8.76401729      
     296.000 54.04056966      9.74838573       -999.25000000    8.76401354      
     296.500 52.58463724      9.76429526       -999.25000000    8.76400980      
     297.000 51.67825713      9.75690320       -999.25000000    8.76400605      
