~Version Information Block
 VERS.                2.00:     CWLS LOG ASCII STANDARD - VERSION 2.000000
 WRAP.                  NO:     One Line Per Depth Step
#
~Well Information Block
#MNEM.UNIT                     Data                         Information
#----------   ------------------------------------------   ----------------
 STRT.FT                                      250.0000:     START DEPTH
 STOP.FT                                     2900.0000:     STOP DEPTH
 STEP.FT                                        0.5000:     STEP
 NULL.                                       -999.2500:     NULL VALUE
 COMP.                          Kerr-McGee Corporation:     COMPANY
 WELL.                                       Navajo #4:     WELL
 FLD .                                  Dineh-bi-Keyah:     FIELD
 LOC .                             0870' FEL 1720' FNL:     LOCATION
 SEC .                                              32:     SECTION
 TWP .                                             36N:     TOWNSHIP
 RANG.                                             30E:     RANGE
 CNTY.                                          Apache:     COUNTY
 STAT.                                         Arizona:     STATE
 CTRY.                                             USA:     COUNTRY
 SRVC.                                    Schlumberger:     SERVICE COMPANY
 DATE.                                                :     DATE
 API .                                    02-001-20009:     API NUMBER
 UWI .                                    02-001-20009:     UWI NUMBER
 TVD .                                              NO:     TVD flag
 WSTA.                                             OIL:     Well status
#
~Curve Information Block
#MNEM.UNIT       API CODE      Curve Description
#----------    -------------   -------------------
 DEPT.FT                   :   Depth in Feet
 SP  .MV       05 010 01 01:   Spontaneous Potential
 ILD .OHMM     05 120 46 01:   Deep Induction Standard Processed Resistivity
 SN  .OHMM     05 040 16 01:   Short Normal
 CILD.MMHO     05 110 46 01:   Deep Induction Standard Processed Conductivity
#
~Parameter Information Block
#MNEM.UNIT            Value               Description
#----------    --------------------    -------------------
 DATE.                    5/9/2012:    Date As Month-Day-Year
 RUN .                         ONE:    Run Number
 PDAT.                          GL:    Permanent Datum
 EPD .FT                 7361.0000:    Elevation Of Perm. Datum
 LMF .                          KB:    Log Measured From
 FAPD.FT                   13.0000:    Feet Above Perm. Datum
 DMF .                          KB:    Drilling Measured From
 EKB .FT                 7374.0000:    Elevation Of Kelly Bushing
 EDF .FT                 7373.0000:    Elevation Of Derrick Floor
 EGL .FT                 7361.0000:    Elevation Of Ground Level
 TD  .FT                 2898.0000:    Total Depth
 DF  .                     Hermosa:    
 PROJ.                       Rmccs:    
 DD  .FT                 2898.0000:    Depth Driller
 DL  .FT                 2899.0000:    Depth Logger
 BLI .FT                 2898.0000:    Bottom Log Interval
 TLI .FT                  264.0000:    Top Log Interval
 CSIZ.IN                     9 5/8:    Casing Size
 CBD1.                         263:    Casing Bottom (Driller) 1
 CBL1.                         264:    Casing Bottom (Logger) 1
 BS  .IN                     8 3/4:    Bit Size
 DFT .                    GEL-CHEM:    Drilling Fluid Type
 DFV .S                    60.0000:    Drilling Fluid Viscosity
 DFD .LB/G                  8.9000:    Drilling Fluid Density
 DFL .ML                    3.0000:    Drilling Fluid Loss
 DFPH.                      9.0000:    Drilling Fluid Ph
 MSS .                   FLOW LINE:    Mud Sample Source
 RMS .OHMM                  5.1400:    Resistivity Of Mud Sample
 MST .DEGF                 90.0000:    Mud Sample Temperature
 RMF .OHMM                  3.1000:    Mud Filtrate Resistivity
 MFST.DEGF                 70.0000:    Mud Filtrate Sample Temperature
 MFSS.                        CALC:    Mud Filtrate Sample Source
 RMC .OHMM                  0.0000:    Mud Cake Resistivity
 MCST.DEGF                  0.0000:    Mud Cake Sample Temperature
 MCSS.                        CALC:    Mud Cake Sample Source
 RMB .OHMM                  4.6200:    Mud Resistivity At Bht
 BHT .DEGF                 99.0000:    Bottom Hole Temperature
 TCS .                        2 hr:    Time Circulation Stopped
 MRT .DEGF                 99.0000:    Maximum Recorded Temperature
 LUN .                        3860:    Logging Unit Number
 LUL .                        FARM:    Logging Unit Location
 ENGI.                      Brooks:    Engineer'S Name
 WITN.             Mr. Hassenfratz:    Witness' Name
 DGBY.                         slr:    
 WSTA.                         OIL:    
#
~Other Information Block
<DescLogPlotStart>   NEURALOG PLOT DEFINITION
PLOTDEFVERSION: 3
LASFILE: C:\nds\projects\Rmccs\las\0384IEL.las
DEPTHSCALE: 600.000013
RESOLUTION: 200
DEPTHLABELFREQ: 100.000000
HEAVYGRIDFREQ: 50.000000
MEDIUMGRIDFREQ: 50.000000
LIGHTGRIDFREQ: 10.000000
#
#   TRACK 1
#
STARTTRACK: 
 LEFTX: 0.500000 inch
 RIGHTX: 3.000000 inch
 SCALETYPE: Linear
 NUMCHARTDIVISIONS: 10
CURVE: SP    0.000000   100.000000 (255,131,0)    Solid             2     Y    
BACKUP: 0.000000   200.000000 (255,131,0)    Solid             2    
BACKUP: -100.000000 0.000000   (255,131,0)    Solid             2    
ENDTRACK: 
#
#   TRACK 2
#
STARTTRACK: 
 LEFTX: 3.750000 inch
 RIGHTX: 6.250000 inch
 SCALETYPE: Linear
 NUMCHARTDIVISIONS: 10
CURVE: ILD   0.000000   100.000000 (0,0,156)      Solid             2     Y    
BACKUP: 0.000000   1000.000000 (0,0,156)      Solid             2    
BACKUP: -100.000000 0.000000   (0,0,156)      Solid             2    
CURVE: SN    0.000000   100.000000 (255,0,0)      Solid             2     Y    
BACKUP: 0.000000   1000.000000 (255,0,0)      Solid             2    
BACKUP: -100.000000 0.000000   (255,0,0)      Solid             2    
ENDTRACK: 
#
#   TRACK 3
#
STARTTRACK: 
 LEFTX: 6.250000 inch
 RIGHTX: 8.750000 inch
 SCALETYPE: Linear
 NUMCHARTDIVISIONS: 10
CURVE: CILD  400.000000 0.000000   (0,131,0)      Solid             2     N    
ENDTRACK: 
<DescLogPlotEnd>
<DescLog>Induction Electrical
<DescOSVS>BHC/GR
<DescOSVS>CBL
<DescOSVS>FDC/GR
~A DEPTH     SP               ILD              SN               CILD            
# ...
    1289.500 59.84869139      93.87020730      71.94152731      10.18981019     
    1290.000 59.69028565      92.55705607      72.46207070      10.34165834     
    1290.500 59.69345243      91.13749281      72.82909282      10.50389610     
    1291.000 59.71394494      89.72070665      73.08528317      10.58941059     
    1291.500 59.38086151      87.71984684      72.49521538      10.58941059     
    1292.000 58.45657534      86.71333045      71.55747845      10.98901099     
    1292.500 57.64923398      86.09936360      70.44760604      10.98901099     
    1293.000 57.88972051      85.35514224      69.41211750      11.38861139     
    1293.500 59.56458145      84.39045681      68.53909394      11.78821179     
    1294.000 61.78266440      83.41843268      68.01554000      11.78821179     
    1294.500 64.16748183      78.78793798      68.23425418      12.18781219     
    1295.000 66.41703266      77.28130781      68.61961811      12.18781219     
    1295.500 68.10420942      78.28269705      69.07849402      12.58741259     
    1296.000 69.22714264      78.98374017      69.03847604      12.18781219     
    1296.500 69.89225702      78.95148275      68.25824415      12.23265050     
    1297.000 70.60861833      78.87219264      67.70848172      12.22849537     
    1297.500 71.02969161      74.97306262      67.05124194      12.62185368     
    1298.000 71.40376681      71.57531992      66.67877244      13.41986476     
    1298.500 71.99212694      70.01401934      66.43304519      14.22391613     
    1299.000 72.26798570      68.91086555      66.15565536      14.23201617     
    1299.500 72.63312608      70.27411819      66.00347388      13.84078959     
    1300.000 72.96141667      72.30593930      66.17592953      13.88761020     
    1300.500 73.05029382      74.32874011      66.44899328      13.39978091     
    1301.000 73.10827055      76.50926032      66.97560741      12.63552227     
    1301.500 73.09849230      79.32508529      68.04579209      12.22399717     
    1302.000 73.10292921      82.62480465      69.66237569      12.21278213     
    1302.500 73.10012367      86.13771854      71.75680683      11.40462662     
    1303.000 73.10000925      90.27496950      74.07026524      11.00186494     
    1303.500 73.10228348      94.00758735      76.26682493      10.60198514     
    1304.000 73.09639035      101.88475535     78.25656886      9.80047572      
    1304.500 73.10740378      104.52290313     79.55182587      9.39060939      
    1305.000 73.08573624      105.60320672     80.50087693      9.39060939      
    1305.500 73.25224365      96.17550237      80.92354296      9.39060939      
    1306.000 73.31034454      96.59162714      80.94658427      9.79020979      
    1306.500 73.30077438      93.65883395      80.90852436      10.18981019     
    1307.000 73.16762423      89.86520616      80.64544781      10.58941059     
    1307.500 73.03320966      88.42559575      79.99994403      10.98901099     
    1308.000 72.89801826      85.61846261      79.20244761      11.38861139     
    1308.500 72.89350226      84.05363002      78.11456501      11.38861139     
    1309.000 72.94193961      84.08753615      76.94736492      11.38861139     
    1309.500 73.02798158      83.98464368      76.19234211      11.38861139     
    1310.000 72.94282128      84.43026488      75.62297173      11.38861139     
    1310.500 72.89188472      85.41278182      76.03786450      11.38861139     
    1311.000 72.90413400      86.26254562      77.06381099      11.38861139     
    1311.500 72.90122594      87.50899824      78.48256547      10.98901099     
    1312.000 72.77280260      91.01249253      79.81177394      10.58941059     
    1312.500 72.52338508      95.22691295      81.21384464      10.18981019     
    1313.000 72.52130335      98.75435580      82.46006906      9.79020979      
    1313.500 72.30087289      99.74423356      83.22020709      9.79020979      
    1314.000 72.07680996      101.35108613     83.83813885      9.39060939      
    1314.500 72.08008457      101.11228590     84.26864029      9.39060939      
    1315.000 71.82265635      101.32571868     84.83012342      9.79020979      
    1315.500 71.70942237      101.02127664     85.15284946      9.39060939      
    1316.000 71.55158412      101.80569823     85.41266275      9.36393644      
    1316.500 71.48308187      103.17597183     85.64007120      9.38148187      
    1317.000 71.51237629      104.74720008     85.68735311      9.39715272      
    1317.500 71.48571239      105.22269578     85.54090784      9.40738429      
    1318.000 71.52324333      105.59932626     85.28150895      9.41100108      
    1318.500 71.33541924      104.55974278     84.87008459      9.80922926      
    1319.000 71.31475185      109.06367336     84.47518182      9.80439154      
    1319.500 71.00365760      106.63816769     84.07284900      9.80022814      
    1320.000 70.87237869      95.28360567      83.57825683      9.79851814      
    1320.500 70.89135279      96.02550140      83.26732993      9.66894977      
    1321.000 70.64869023      94.70225702      82.80060361      9.47284836      
    1321.500 70.51216130      92.88178976      82.44991062      9.41347705      
    1322.000 70.48399073      90.35182545      81.69482414      10.22025104     
    1322.500 70.63799589      85.93614671      81.17302178      11.42403230     
    1323.000 70.87372983      79.92441182      78.77400501      12.22205572     
    1323.500 71.35738558      74.93180121      75.00693684      13.01249177     
    1324.000 71.89263466      69.95055403      70.81143189      14.18581419     
    1324.500 72.47595578      64.96239614      66.53525351      15.38461538     
    1325.000 73.23791834      59.95538345      61.01408463      17.18281718     
    1325.500 73.68556399      53.72118918      57.63525940      18.18181818     
    1326.000 74.13289483      52.29556822      55.08348808      18.98101898     
    1326.500 74.29666228      50.26060611      53.72176355      19.78021978     
    1327.000 74.58714470      49.37074407      53.16788650      20.17982018     
    1327.500 74.87279383      49.14813754      52.49290865      20.17982018     
    1328.000 75.04547144      48.60507876      51.85800290      19.78021978     
    1328.500 75.12678097      53.14748964      51.80679101      18.98101898     
    1329.000 75.07512016      55.86849331      51.97954274      18.18181818     
    1329.500 75.26767936      56.02032557      52.57917333      17.78221778     
    1330.000 75.26232847      57.06952809      53.53666668      17.78221778     
    1330.500 75.08074087      57.96452997      54.30406390      17.61038961     
    1331.000 75.11102682      59.11160288      55.99725943      17.38261738     
    1331.500 75.09125729      59.65701316      56.88414228      16.58341658     
    1332.000 75.10759934      59.88986675      56.89452592      16.58341658     
    1332.500 75.08652872      60.03686406      56.47902802      16.58341658     
    1333.000 75.24554396      60.03246580      55.86804856      16.58341658     
    1333.500 75.34577581      59.88854929      55.36764198      16.58341658     
    1334.000 75.56313218      59.67719473      55.39131650      16.58341658     
    1334.500 75.69758815      59.44384109      55.70956501      16.58341658     
    1335.000 75.74550786      58.97924183      56.24613146      16.58341658     
    1335.500 75.91652293      58.36405222      56.27056388      17.78183861     
    1336.000 75.89314918      57.62363675      56.21774680      18.17549798     
    1336.500 75.90443791      56.13049896      55.76736566      18.17346618     
    1337.000 75.89974571      54.06649168      55.05451966      18.17665562     
    1337.500 75.89853504      53.65857751      54.28757667      18.18209817     
    1338.000 75.90506790      53.50369623      53.76881017      18.18554235     
    1338.500 75.89034611      53.48122176      53.43468622      18.18306146     
