~Version Information Block
 VERS.                2.00:     CWLS LOG ASCII STANDARD - VERSION 2.000000
 WRAP.                  NO:     One Line Per Depth Step
#
~Well Information Block
#MNEM.UNIT                     Data                         Information
#----------   ------------------------------------------   ----------------
 STRT.FT                                       50.0000:     START DEPTH
 STOP.FT                                     2900.0000:     STOP DEPTH
 STEP.FT                                        0.5000:     STEP
 NULL.                                       -999.2500:     NULL VALUE
 COMP.                          Kerr-McGee Corporation:     COMPANY
 WELL.                                       Navajo #4:     WELL
 FLD .                                  Dineh-bi-Keyah:     FIELD
 LOC .                            870' FEL & 1720' FNL:     LOCATION
 SEC .                                              32:     SECTION
 TWP .                                             36N:     TOWNSHIP
 RANG.                                             30E:     RANGE
 CNTY.                                          Apache:     COUNTY
 STAT.                                         Arizona:     STATE
 CTRY.                                          U.S.A.:     COUNTRY
 SRVC.                                    Schlumberger:     SERVICE COMPANY
 DATE.                                      05/23/2012:     DATE
 API .                                    02-001-20009:     API NUMBER
 UWI .                                    02-001-20009:     UWI NUMBER
 TVD .                                              NO:     TVD flag
 WSTA.                                             OIL:     Well status
#
~Curve Information Block
#MNEM.UNIT       API CODE      Curve Description
#----------    -------------   -------------------
 DEPT.FT                   :   Depth in Feet
 GR  .GAPI     35 310 01 01:   Gamma Ray
 CALI.IN       70 280 01 01:   Caliper
 DT  .US/F     60 520 08 01:   Delta-T
 BIT .IN                   :   Bit size
#
~Parameter Information Block
#MNEM.UNIT            Value               Description
#----------    --------------------    -------------------
 DATE.                   5/23/2012:    Date As Month-Day-Year
 RUN .                         ONE:    Run Number
 PDAT.                          GL:    Permanent Datum
 EPD .FT                 7361.0000:    Elevation Of Perm. Datum
 LMF .                          KB:    Log Measured From
 FAPD.FT                   13.0000:    Feet Above Perm. Datum
 DMF .                          KB:    Drilling Measured From
 EKB .FT                 7374.0000:    Elevation Of Kelly Bushing
 EDF .FT                 7361.0000:    Elevation Of Derrick Floor
 EGL .FT                 7361.0000:    Elevation Of Ground Level
 TD  .FT                 2900.0000:    Total Depth
 DF  .         Pennsylvanian Hermo:    
 PROJ.                       Rmccs:    
 DD  .FT                 2898.0000:    Depth Driller
 DL  .FT                 2898.0000:    Depth Logger
 BLI .FT                 2896.0000:    Bottom Log Interval
 TLI .FT                    0.0000:    Top Log Interval
 CSIZ.IN                     9 5/8:    Casing Size
 CBD1.                         263:    Casing Bottom (Driller) 1
 CBL1.                         263:    Casing Bottom (Logger) 1
 BS  .IN                     8 3/4:    Bit Size
 DFT .                    GEL CHEM:    Drilling Fluid Type
 DFV .S                    60.0000:    Drilling Fluid Viscosity
 DFD .LB/G                  8.9000:    Drilling Fluid Density
 DFL .ML                    3.0000:    Drilling Fluid Loss
 DFPH.                      9.0000:    Drilling Fluid Ph
 MSS .                   Flow line:    Mud Sample Source
 RMS .OHMM                  5.1400:    Resistivity Of Mud Sample
 MST .DEGF                 90.0000:    Mud Sample Temperature
 RMF .OHMM                  3.1000:    Mud Filtrate Resistivity
 MFST.DEGF                 70.0000:    Mud Filtrate Sample Temperature
 MFSS.                        MEAS:    Mud Filtrate Sample Source
 RMB .OHMM                  4.6200:    Mud Resistivity At Bht
 BHT .DEGF                 99.0000:    Bottom Hole Temperature
 TCS .                 5 1/2 hours:    Time Circulation Stopped
 MRT .DEGF                 99.0000:    Maximum Recorded Temperature
 LUN .                        3860:    Logging Unit Number
 LUL .                  Farmington:    Logging Unit Location
 ENGI.                      Brooks:    Engineer'S Name
 WITN.                 Hassenfratz:    Witness' Name
 DGBY.                         slr:    
 WSTA.                         OIL:    
#
~Other Information Block
<DescLogPlotStart>   NEURALOG PLOT DEFINITION
PLOTDEFVERSION: 3
LASFILE: C:\nds\projects\Rmccs\las\0384BHCS_2.las
DEPTHSCALE: 600.000013
RESOLUTION: 200
DEPTHLABELFREQ: 100.000000
HEAVYGRIDFREQ: 50.000000
MEDIUMGRIDFREQ: 50.000000
LIGHTGRIDFREQ: 50.000000
#
#   TRACK 1
#
STARTTRACK: 
 LEFTX: 0.500000 inch
 RIGHTX: 3.000000 inch
 SCALETYPE: Linear
 NUMCHARTDIVISIONS: 10
CURVE: GR    0.000000   160.000000 (0,0,255)      Solid             2     N    
CURVE: CALI  6.000000   16.000000  (0,131,131)    Dot               2     N    
CURVE: BIT   6.000000   16.000000  (255,0,255)    Short_Dash        2     N    
ENDTRACK: 
#
#   TRACK 2
#
STARTTRACK: 
 LEFTX: 3.500000 inch
 RIGHTX: 8.500000 inch
 SCALETYPE: Linear
 NUMCHARTDIVISIONS: 21
CURVE: DT    100.000000 40.000000  (255,0,0)      Solid             2     Y    
BACKUP: 160.000000 100.000000 (255,131,0)    Solid             2    
ENDTRACK: 
<DescLogPlotEnd>
<DescLog>Borehole Compensated Sonic
<DescOSVS>IES, CBL
<DescOSVS>FDC/GR
<DescOSVS>
IAP failed to step between 0932' and 0892'
~A DEPTH     GR               CALI             DT               BIT             
# ...
    1485.500 67.58531150      9.38316939       66.26494024      8.75510271      
    1486.000 69.63677099      9.38093374       65.60756972      8.75509896      
    1486.500 72.28266484      9.40257166       64.83067729      8.75509522      
    1487.000 70.04054470      9.42596235       63.81595993      8.75509147      
    1487.500 62.29628195      9.42126703       62.19502346      8.75508772      
    1488.000 57.49718992      9.42435826       60.45248083      8.75508398      
    1488.500 50.69981877      9.42103388       58.83247289      8.75508023      
    1489.000 48.51273404      9.42818020       57.87016146      8.75507649      
    1489.500 49.48937792      9.44356489       57.55479266      8.75507274      
    1490.000 51.59118784      9.45557931       57.78012656      8.75506900      
    1490.500 53.78204033      9.47997594       58.07768924      8.75506525      
    1491.000 54.74925291      9.49402240       58.37649402      8.75506150      
    1491.500 62.80003258      9.54647345       62.67928287      8.75505776      
    1492.000 75.23659611      9.71140256       70.86533865      8.75505401      
    1492.500 97.08766183      9.81267378       74.15338645      8.75505027      
    1493.000 95.93190478      9.82767205       77.08167331      8.75504652      
    1493.500 92.28650592      9.84618825       77.20119522      8.75504278      
    1494.000 84.47522084      9.82168450       67.51992032      8.75503903      
    1494.500 81.98603373      9.80103665       64.46561026      8.75503529      
    1495.000 85.51933398      9.80195304       66.58860152      8.75503154      
    1495.500 90.92319632      9.81760092       68.19182167      8.75502779      
    1496.000 94.04287140      9.83499759       69.79783629      8.75502405      
    1496.500 94.22559649      9.86790639       70.24066798      8.75502030      
    1497.000 92.88552595      9.90808287       70.66472269      8.75501656      
    1497.500 90.82099214      9.95499042       70.73204572      8.75501281      
    1498.000 90.70524733      9.99034586       70.92317364      8.75500907      
    1498.500 91.59801201      9.95565550       72.00199203      8.75500532      
    1499.000 92.39406072      9.91663693       72.53984064      8.75500157      
    1499.500 90.23817881      9.88359218       73.31673307      8.75499783      
    1500.000 85.84440374      9.85492610       71.82270916      8.75499408      
    1500.500 86.72212480      9.84202831       69.07370518      8.75499034      
    1501.000 91.04385706      9.84322254       69.40836653      8.75498659      
    1501.500 98.17077690      9.83820573       70.86653386      8.75498285      
    1502.000 102.94809473     9.81707277       74.09362550      8.75497910      
    1502.500 102.96295800     9.79729545       77.38047809      8.75497536      
    1503.000 102.78355918     9.77781917       79.77091633      8.75497161      
    1503.500 101.85506795     9.74659553       80.24900398      8.75496786      
    1504.000 100.82007077     9.72922170       80.18924303      8.75496412      
    1504.500 99.11240089      9.69155490       78.51593625      8.75496037      
    1505.000 95.11108000      9.68034201       76.36454183      8.75495663      
    1505.500 89.59566840      9.68347249       73.07768924      8.75495288      
    1506.000 84.38916048      9.68200065       68.47915919      8.75494914      
    1506.500 79.01518614      9.68265372       66.77640356      8.75494539      
    1507.000 73.74580058      9.68254253       66.03836321      8.75494164      
    1507.500 68.10832409      9.68205071       65.41295777      8.75493790      
    1508.000 66.77592866      9.68327617       65.01097388      8.75493415      
    1508.500 66.95441685      9.68077632       64.11694314      8.75493041      
    1509.000 66.73054860      9.68824295       63.63476794      8.75492666      
    1509.500 67.98780769      9.70205458       63.51119101      8.75492292      
    1510.000 71.30754634      9.71995737       63.99402390      8.75491917      
    1510.500 74.55007515      9.77369083       65.06299801      8.75491543      
    1511.000 77.88167305      9.80180273       66.12450199      8.75491168      
    1511.500 81.20335040      9.84014814       66.74302789      8.75490793      
    1512.000 81.69406786      9.84134375       66.20517928      8.75490419      
    1512.500 82.38423031      9.85710597       65.24900398      8.75490044      
    1513.000 86.63747118      9.86392647       64.53187251      8.75489670      
    1513.500 91.91047213      9.86096239       65.39302789      8.75489295      
    1514.000 97.10368299      9.87615021       67.22111554      8.75488921      
    1514.500 99.46124718      9.89076739       69.37250996      8.75488546      
    1515.000 101.91722226     9.94338421       72.83864542      8.75488172      
    1515.500 104.31326601     9.97692176       75.16932271      8.75487797      
    1516.000 110.34858521     9.98788487       77.36135458      8.75487422      
    1516.500 117.53974459     9.99264554       78.99402390      8.75487048      
    1517.000 121.76394822     10.00264806      81.20517928      8.75486673      
    1517.500 121.48759477     10.00687820      83.65537849      8.75486299      
    1518.000 120.35507179     10.07662150      85.53833133      8.75485924      
    1518.500 117.82497903     10.21189930      91.32131717      8.75485550      
    1519.000 116.78006053     10.38650415      90.84115005      8.75485175      
    1519.500 114.04639734     10.37572411      91.39826138      8.75484800      
    1520.000 103.89265639     10.14930690      84.52909589      8.75484426      
    1520.500 90.98892976      9.92924931       77.20529409      8.75484051      
    1521.000 82.54114842      9.89991874       68.74845659      8.75483677      
    1521.500 82.14729813      9.90071164       69.12683544      8.75483302      
    1522.000 81.77683715      9.91683309       68.41664238      8.75482928      
    1522.500 82.11280819      9.92451671       67.10716980      8.75482553      
    1523.000 85.95278604      9.98213900       66.95695154      8.75482179      
    1523.500 93.72509266      10.12885736      68.74323315      8.75481804      
    1524.000 101.81765100     10.36577062      73.02699994      8.75481429      
    1524.500 110.38495853     10.61565579      78.81529668      8.75481055      
    1525.000 114.64232101     10.65396219      84.59798336      8.75480680      
    1525.500 115.44032826     10.46887155      86.04581673      8.75480306      
    1526.000 109.63437541     10.14836252      87.06175299      8.75479931      
    1526.500 97.23670718      9.89097655       80.15654525      8.75479557      
    1527.000 85.13208217      9.72942469       73.44957314      8.75479182      
    1527.500 78.79761584      9.70124850       66.74260102      8.75478807      
    1528.000 78.55728743      9.70316670       63.69521912      8.75478433      
    1528.500 85.98182018      9.74455322       63.63545817      8.75478058      
    1529.000 100.26584201     9.82479872       71.82270916      8.75477684      
    1529.500 114.06699813     9.99335366       77.93804781      8.75477309      
    1530.000 127.78338226     10.24796044      83.11752988      8.75476935      
    1530.500 126.95020828     10.51730082      95.96613546      8.75476560      
    1531.000 126.16213225     10.75633893      95.30876494      8.75476186      
    1531.500 114.82128203     10.93439736      93.03784861      8.75475811      
    1532.000 103.91638562     10.45042503      85.63322709      8.75475436      
    1532.500 98.90517616      10.05897063      79.42191235      8.75475062      
    1533.000 97.77853040      10.08660585      77.50000000      8.75474687      
    1533.500 97.56045311      10.03525435      78.33665339      8.75474313      
    1534.000 97.08811093      10.00410115      78.09760956      8.75473938      
    1534.500 95.36934114      9.97457448       77.02191235      8.75473564      
