~Version Information Block
 VERS.                2.00:     CWLS LOG ASCII STANDARD - VERSION 2.000000
 WRAP.                  NO:     One Line Per Depth Step
#
~Well Information Block
#MNEM.UNIT                     Data                         Information
#----------   ------------------------------------------   ----------------
 STRT.FT                                       50.0000:     START DEPTH
 STOP.FT                                     3000.0000:     STOP DEPTH
 STEP.FT                                        0.5000:     STEP
 NULL.                                       -999.2500:     NULL VALUE
 COMP.                        BUTTES GAS & OIL COMPANY:     COMPANY
 WELL.                               #1-25 NAVAJO #461:     WELL
 FLD .                                         WILDCAT:     FIELD
 LOC .                             660 N & 660 W OF SE:     LOCATION
 SEC .                                              25:     SECTION
 TWP .                                             35N:     TOWNSHIP
 RANG.                                             28E:     RANGE
 CNTY.                                          APACHE:     COUNTY
 STAT.                                         ARIZONA:     STATE
 CTRY.                                                :     COUNTRY
 SRVC.                                    SCHLUMBERGER:     SERVICE COMPANY
 DATE.                                      06/07/1968:     DATE
 API .                                    02-001-20078:     API NUMBER
 UWI .                                    02-001-20078:     UWI NUMBER
 TVD .                                              NO:     TVD flag
 WSTA.                                              OG:     Well status
#
~Curve Information Block
#MNEM.UNIT       API CODE      Curve Description
#----------    -------------   -------------------
 DEPT.FT                   :   Depth in Feet
 GR  .GAPI     35 310 01 01:   Gamma Ray
 CALI.IN       70 280 01 01:   Caliper
 BIT .IN                   :   Bituminous Rocks Facies
 DT  .US/F     60 520 08 01:   Delta-T
#
~Parameter Information Block
#MNEM.UNIT            Value               Description
#----------    --------------------    -------------------
 DATE.                    6/7/1968:    Date As Month-Day-Year
 RUN .                         ONE:    Run Number
 PDAT.                          KB:    Permanent Datum
 EPD .FT                 6359.0000:    Elevation Of Perm. Datum
 LMF .                          KB:    Log Measured From
 FAPD.FT                   11.0000:    Feet Above Perm. Datum
 DMF .                          KB:    Drilling Measured From
 EKB .FT                 6359.0000:    Elevation Of Kelly Bushing
 EDF .FT                 6358.0000:    Elevation Of Derrick Floor
 EGL .FT                 6343.0000:    Elevation Of Ground Level
 TD  .FT                 3000.0000:    Total Depth
 DF  .         Precambrian metamor:    
 DD  .FT                 3000.0000:    Depth Driller
 DL  .FT                 2996.0000:    Depth Logger
 BLI .FT                 2994.0000:    Bottom Log Interval
 TLI .FT                  271.0000:    Top Log Interval
 CBL1.                         271:    Casing Bottom (Logger) 1
 BS  .IN                     8 3/4:    Bit Size
 DFT .                         FGM:    Drilling Fluid Type
 DFV .S                    55.0000:    Drilling Fluid Viscosity
 DFD .LB/G                  9.1000:    Drilling Fluid Density
 DFL .ML                    5.8000:    Drilling Fluid Loss
 DFPH.                      9.0000:    Drilling Fluid Ph
 MSS .                    MUD TANK:    Mud Sample Source
 RMS .OHMM                  2.8800:    Resistivity Of Mud Sample
 MST .DEGF                 73.0000:    Mud Sample Temperature
 RMF .OHMM                  2.8100:    Mud Filtrate Resistivity
 MFST.DEGF                 75.0000:    Mud Filtrate Sample Temperature
 MFSS.                           M:    Mud Filtrate Sample Source
 RMC .OHMM                  1.8700:    Mud Cake Resistivity
 MCST.DEGF                112.0000:    Mud Cake Sample Temperature
 RMB .OHMM                  1.8800:    Mud Resistivity At Bht
 BHT .DEGF                112.0000:    Bottom Hole Temperature
 TCS .                     3 HOURS:    Time Circulation Stopped
 TLAB.                     3 HOURS:    Time Logger At Bottom
 MRT .DEGF                112.0000:    Maximum Recorded Temperature
 LUN .                        4542:    Logging Unit Number
 LUL .                        FARM:    Logging Unit Location
 ENGI.                       RUSEN:    Engineer'S Name
 WITN.                 MR. WHITLEY:    Witness' Name
 DGBY.                          LS:    
 WSTA.                          OG:    
#
~Other Information Block
<DescLogPlotStart>   NEURALOG PLOT DEFINITION
PLOTDEFVERSION: 3
LASFILE: O:\OG_Data\RMCCS digitized wells project\Leah Spencer\las\0461BHCS.las
DEPTHSCALE: 600.000013
RESOLUTION: 200
DEPTHLABELFREQ: 100.000000
HEAVYGRIDFREQ: 50.000000
MEDIUMGRIDFREQ: 50.000000
LIGHTGRIDFREQ: 50.000000
#
#   TRACK 1
#
STARTTRACK: 
 LEFTX: 0.500000 inch
 RIGHTX: 3.000000 inch
 SCALETYPE: Linear
 NUMCHARTDIVISIONS: 10
CURVE: GR    0.000000   160.000000 (0,0,255)      Solid             2     Y    
BACKUP: 160.000000 320.000000 (131,0,131)    Solid             2    
CURVE: CALI  6.000000   16.000000  (0,131,131)    Dot               2     N    
CURVE: BIT   6.000000   16.000000  (255,0,255)    Short_Dash        2     N    
ENDTRACK: 
#
#   TRACK 2
#
STARTTRACK: 
 LEFTX: 3.500000 inch
 RIGHTX: 8.500000 inch
 SCALETYPE: Linear
 NUMCHARTDIVISIONS: 20
CURVE: DT    80.000000  40.000000  (131,0,255)    Solid             2     Y    
BACKUP: 120.000000 80.000000  (255,0,0)      Solid             2    
ENDTRACK: 
<DescLogPlotEnd>
<DescLog>Borehole Comp Sonic Log Gamma R
<DescOSVS>IES
<DescOSVS>
<DescOSVS>
~A DEPTH     GR               CALI             BIT              DT              
# ...
    1139.000 51.70085933      9.84315397       8.77493195       65.86506507     
    1139.500 52.33131987      9.84142504       8.77500504       65.88588589     
    1140.000 52.98135483      9.84051834       8.77507813       66.08608609     
    1140.500 53.61739919      9.83898666       8.77515122       67.44744745     
    1141.000 54.25791074      9.83790199       8.77522431       67.68768769     
    1141.500 54.58132885      9.83649245       8.77529740       67.36736737     
    1142.000 55.21470699      9.83532798       8.77537049       66.41748415     
    1142.500 55.87113422      9.83395320       8.77544358       65.96596597     
    1143.000 56.17035771      9.83267720       8.77551667       65.72572573     
    1143.500 57.14941823      9.83138767       8.77558975       66.32632633     
    1144.000 59.35842078      9.83002879       8.77566284       66.48648649     
    1144.500 60.34098855      9.83001040       8.77573593       66.48648649     
    1145.000 61.58636786      9.83002936       8.77580902       66.36636637     
    1145.500 61.61312386      9.83001026       8.77588211       66.00600601     
    1146.000 61.58447797      9.83002928       8.77595520       65.16516517     
    1146.500 60.97348579      9.83203167       8.77602829       65.76576577     
    1147.000 60.94853763      9.83437201       8.77610138       65.88588589     
    1147.500 60.97018089      9.83667777       8.77617447       66.76716717     
    1148.000 60.31299215      9.83901587       8.77624756       69.64004004     
    1148.500 58.08885573      9.84132424       8.77632065       73.36312312     
    1149.000 58.07885449      9.84365947       8.77639374       -999.25000000   
    1149.500 60.96295391      9.84597086       8.77646683       -999.25000000   
    1150.000 65.11646465      9.84830307       8.77653992       -999.25000000   
    1150.500 68.31397980      9.85035498       8.77661300       -999.25000000   
    1151.000 68.31551528      9.85170044       8.77668609       -999.25000000   
    1151.500 67.67468945      9.85303287       8.77675918       -999.25000000   
    1152.000 65.76100736      9.85437640       8.77683227       -999.25000000   
    1152.500 64.47953494      9.85571157       8.77690536       -999.25000000   
    1153.000 64.48286019      9.85705386       8.77697845       -999.25000000   
    1153.500 67.35842716      9.85838998       8.77705154       -999.25000000   
    1154.000 70.55689555      9.85973166       8.77712463       -999.25000000   
    1154.500 70.55871864      9.86107009       8.77719772       -999.25000000   
    1155.000 70.23709402      9.86241151       8.77727081       63.04304304     
    1155.500 69.60146154      9.86375049       8.77734390       61.08108108     
    1156.000 68.95570630      9.86509138       8.77741699       60.20020020     
    1156.500 68.32098230      9.86643083       8.77749008       60.38470470     
    1157.000 68.31465395      9.86777132       8.77756317       60.52052052     
    1157.500 68.64186189      9.86911109       8.77763625       59.59959960     
    1158.000 68.31818435      9.87045637       8.77770934       59.47947948     
    1158.500 68.00452818      9.87180259       8.77778243       60.48048048     
    1159.000 68.47851483      9.87314816       8.77785552       60.56056056     
    1159.500 69.28375902      9.87449407       8.77792861       61.50916631     
    1160.000 70.24404040      9.87584386       8.77800170       62.52252252     
    1160.500 70.56446926      9.87719833       8.77807479       64.92492492     
    1161.000 70.89221613      9.87854715       8.77814788       69.85118452     
    1161.500 72.16525383      9.87990411       8.77822097       73.37337337     
    1162.000 74.41390751      9.88124901       8.77829406       74.61461461     
    1162.500 76.31890561      9.88261635       8.77836715       73.13313313     
    1163.000 76.33344882      9.88398822       8.77844024       69.64276276     
    1163.500 75.99307197      9.88539338       8.77851333       66.26930931     
    1164.000 75.05246083      9.88679195       8.77858642       64.40440440     
    1164.500 73.74653224      9.88854433       8.77865950       64.36436436     
    1165.000 72.17396921      9.89049638       8.77873259       64.68468468     
    1165.500 71.18309562      9.89676716       8.77880568       64.88488488     
    1166.000 71.85247882      9.91229069       8.77887877       64.88488488     
    1166.500 74.05848681      9.92487959       8.77895186       64.60460460     
    1167.000 77.28327163      9.94171437       8.77902495       64.30622623     
    1167.500 81.40299856      9.95841274       8.77909804       64.16416416     
    1168.000 86.87298356      9.99143124       8.77917113       64.44577911     
    1168.500 94.51276268      10.01465975      8.77924422       65.28528529     
    1169.000 95.82623500      10.05039795      8.77931731       66.80680681     
    1169.500 95.79492269      10.07073560      8.77939040       66.92692693     
    1170.000 95.83269499      10.11508254      8.77946349       66.81181181     
    1170.500 94.19749212      10.17547238      8.77953658       66.10004290     
    1171.000 91.68077673      10.29617193      8.77960967       65.28528529     
    1171.500 86.20208634      10.42245266      8.77968275       65.24524525     
    1172.000 80.81616064      10.95760940      8.77975584       65.65701702     
    1172.500 76.60798317      12.11470833      8.77982893       66.24624625     
    1173.000 72.51110189      12.19550042      8.77990202       66.88688689     
    1173.500 68.94691791      12.18040936      8.77997511       66.92692693     
    1174.000 68.34818500      10.89602449      8.78004820       66.48648649     
    1174.500 62.87203234      9.99898771       8.78012129       66.48648649     
    1175.000 51.08102380      9.83634028       8.78019438       66.72672673     
    1175.500 50.40072722      9.82443002       8.78026747       67.11004338     
    1176.000 50.76004122      9.83623823       8.78034056       67.48748749     
    1176.500 52.32180810      9.82874013       8.78041365       67.20720721     
    1177.000 55.23271869      9.83809867       8.78048674       66.80680681     
    1177.500 58.72149274      9.83352445       8.78055983       67.08708709     
    1178.000 60.34018165      9.84007598       8.78063292       67.16716717     
    1178.500 61.92346210      9.83811702       8.78070600       67.24724725     
    1179.000 63.20709403      9.84246145       8.78077909       67.04704705     
    1179.500 65.76631382      9.84233630       8.78085218       66.32632633     
    1180.000 68.95215239      9.84576786       8.78092527       66.32632633     
    1180.500 73.44987604      9.84693570       8.78099836       66.44644645     
    1181.000 83.01516705      9.84905575       8.78107145       66.24624625     
    1181.500 90.40881275      9.85020119       8.78114454       67.28728729     
    1182.000 94.20342740      9.85123289       8.78121763       67.28728729     
    1182.500 94.24907328      9.85273430       8.78129072       67.48748749     
    1183.000 93.55187578      9.85438821       8.78136381       68.60860861     
    1183.500 86.89550546      9.85605139       8.78143690       72.41241241     
    1184.000 79.79754836      9.85770494       8.78150999       74.43918585     
    1184.500 76.34425441      9.85936976       8.78158308       74.41238572     
    1185.000 73.72359396      9.86102232       8.78165617       74.38558559     
    1185.500 67.07140711      9.86268785       8.78172925       72.37237237     
    1186.000 63.17245616      9.86434001       8.78180234       72.05205205     
    1186.500 59.39346055      9.86600562       8.78187543       73.97397397     
    1187.000 59.01807896      9.86765356       8.78194852       -999.25000000   
    1187.500 59.07058146      9.86931393       8.78202161       -999.25000000   
    1188.000 61.90292885      9.87594508       8.78209470       -999.25000000   
