~Version Information Block
 VERS.                2.00:     CWLS LOG ASCII STANDARD - VERSION 2.000000
 WRAP.                  NO:     One Line Per Depth Step
#
~Well Information Block
#MNEM.UNIT                     Data                         Information
#----------   ------------------------------------------   ----------------
 STRT.FT                                       50.0000:     START DEPTH
 STOP.FT                                     3000.0000:     STOP DEPTH
 STEP.FT                                        0.5000:     STEP
 NULL.                                       -999.2500:     NULL VALUE
 COMP.                        BUTTES GAS & OIL COMPANY:     COMPANY
 WELL.                               #1-25 NAVAJO #461:     WELL
 FLD .                                         WILDCAT:     FIELD
 LOC .                             660 N & 660 W OF SE:     LOCATION
 SEC .                                              25:     SECTION
 TWP .                                             35N:     TOWNSHIP
 RANG.                                             28E:     RANGE
 CNTY.                                          APACHE:     COUNTY
 STAT.                                         ARIZONA:     STATE
 CTRY.                                                :     COUNTRY
 SRVC.                                    SCHLUMBERGER:     SERVICE COMPANY
 DATE.                                      06/07/1968:     DATE
 API .                                    02-001-20078:     API NUMBER
 UWI .                                    02-001-20078:     UWI NUMBER
 TVD .                                              NO:     TVD flag
 WSTA.                                              OG:     Well status
#
~Curve Information Block
#MNEM.UNIT       API CODE      Curve Description
#----------    -------------   -------------------
 DEPT.FT                   :   Depth in Feet
 GR  .GAPI     35 310 01 01:   Gamma Ray
 CALI.IN       70 280 01 01:   Caliper
 BIT .IN                   :   Bituminous Rocks Facies
 DT  .US/F     60 520 08 01:   Delta-T
#
~Parameter Information Block
#MNEM.UNIT            Value               Description
#----------    --------------------    -------------------
 DATE.                    6/7/1968:    Date As Month-Day-Year
 RUN .                         ONE:    Run Number
 PDAT.                          KB:    Permanent Datum
 EPD .FT                 6359.0000:    Elevation Of Perm. Datum
 LMF .                          KB:    Log Measured From
 FAPD.FT                   11.0000:    Feet Above Perm. Datum
 DMF .                          KB:    Drilling Measured From
 EKB .FT                 6359.0000:    Elevation Of Kelly Bushing
 EDF .FT                 6358.0000:    Elevation Of Derrick Floor
 EGL .FT                 6343.0000:    Elevation Of Ground Level
 TD  .FT                 3000.0000:    Total Depth
 DF  .         Precambrian metamor:    
 DD  .FT                 3000.0000:    Depth Driller
 DL  .FT                 2996.0000:    Depth Logger
 BLI .FT                 2994.0000:    Bottom Log Interval
 TLI .FT                  271.0000:    Top Log Interval
 CBL1.                         271:    Casing Bottom (Logger) 1
 BS  .IN                     8 3/4:    Bit Size
 DFT .                         FGM:    Drilling Fluid Type
 DFV .S                    55.0000:    Drilling Fluid Viscosity
 DFD .LB/G                  9.1000:    Drilling Fluid Density
 DFL .ML                    5.8000:    Drilling Fluid Loss
 DFPH.                      9.0000:    Drilling Fluid Ph
 MSS .                    MUD TANK:    Mud Sample Source
 RMS .OHMM                  2.8800:    Resistivity Of Mud Sample
 MST .DEGF                 73.0000:    Mud Sample Temperature
 RMF .OHMM                  2.8100:    Mud Filtrate Resistivity
 MFST.DEGF                 75.0000:    Mud Filtrate Sample Temperature
 MFSS.                           M:    Mud Filtrate Sample Source
 RMC .OHMM                  1.8700:    Mud Cake Resistivity
 MCST.DEGF                112.0000:    Mud Cake Sample Temperature
 RMB .OHMM                  1.8800:    Mud Resistivity At Bht
 BHT .DEGF                112.0000:    Bottom Hole Temperature
 TCS .                     3 HOURS:    Time Circulation Stopped
 TLAB.                     3 HOURS:    Time Logger At Bottom
 MRT .DEGF                112.0000:    Maximum Recorded Temperature
 LUN .                        4542:    Logging Unit Number
 LUL .                        FARM:    Logging Unit Location
 ENGI.                       RUSEN:    Engineer'S Name
 WITN.                 MR. WHITLEY:    Witness' Name
 DGBY.                          LS:    
 WSTA.                          OG:    
#
~Other Information Block
<DescLogPlotStart>   NEURALOG PLOT DEFINITION
PLOTDEFVERSION: 3
LASFILE: O:\OG_Data\RMCCS digitized wells project\Leah Spencer\las\0461BHCS.las
DEPTHSCALE: 600.000013
RESOLUTION: 200
DEPTHLABELFREQ: 100.000000
HEAVYGRIDFREQ: 50.000000
MEDIUMGRIDFREQ: 50.000000
LIGHTGRIDFREQ: 50.000000
#
#   TRACK 1
#
STARTTRACK: 
 LEFTX: 0.500000 inch
 RIGHTX: 3.000000 inch
 SCALETYPE: Linear
 NUMCHARTDIVISIONS: 10
CURVE: GR    0.000000   160.000000 (0,0,255)      Solid             2     Y    
BACKUP: 160.000000 320.000000 (131,0,131)    Solid             2    
CURVE: CALI  6.000000   16.000000  (0,131,131)    Dot               2     N    
CURVE: BIT   6.000000   16.000000  (255,0,255)    Short_Dash        2     N    
ENDTRACK: 
#
#   TRACK 2
#
STARTTRACK: 
 LEFTX: 3.500000 inch
 RIGHTX: 8.500000 inch
 SCALETYPE: Linear
 NUMCHARTDIVISIONS: 20
CURVE: DT    80.000000  40.000000  (131,0,255)    Solid             2     Y    
BACKUP: 120.000000 80.000000  (255,0,0)      Solid             2    
ENDTRACK: 
<DescLogPlotEnd>
<DescLog>Borehole Comp Sonic Log Gamma R
<DescOSVS>IES
<DescOSVS>
<DescOSVS>
~A DEPTH     GR               CALI             BIT              DT              
# ...
     594.500 63.51732107      10.45030817      8.83129010       48.90890891     
     595.000 63.19545467      10.44980028      8.83144081       48.38838839     
     595.500 63.51465338      10.47066588      8.83159151       48.86886887     
     596.000 65.43412167      10.52970220      8.83174222       49.22922923     
     596.500 67.02982772      10.57073261      8.83189292       48.82882883     
     597.000 67.35447617      10.60952786      8.83204363       47.65245245     
     597.500 67.34921368      10.63091799      8.83219433       46.14614615     
     598.000 65.75970943      10.66925938      8.83234504       44.62275609     
     598.500 64.15163724      10.67111570      8.83249576       44.06406406     
     599.000 63.52364977      10.66901518      8.83264649       44.98498498     
     599.500 63.51067633      10.69136176      8.83279721       45.74574575     
     600.000 64.89654604      10.70873947      8.83294793       47.78778779     
     600.500 66.06919663      10.71156570      8.83309865       51.45171839     
     601.000 66.40377063      10.70854471      8.83324937       53.49269269     
     601.500 67.03045171      10.77166973      8.83340010       54.99199199     
     602.000 67.04162478      10.82826618      8.83355082       55.71571572     
     602.500 66.39205102      10.87154063      8.83370154       55.23523524     
     603.000 63.20284691      11.16790515      8.83385226       54.91491491     
     603.500 62.23826998      11.17124236      8.83400298       55.43757090     
     604.000 62.24340811      11.16804369      8.83415371       56.67667668     
     604.500 62.24300525      11.17112270      8.83430443       59.39939940     
     605.000 63.84185342      11.16829615      8.83445515       59.47947948     
     605.500 65.12388465      11.17092203      8.83460587       58.47847848     
     606.000 67.03569538      11.16862074      8.83475659       56.35635636     
     606.500 67.04180382      11.17062885      8.83490732       55.07507508     
     607.000 66.39265411      11.16894358      8.83505804       55.43543544     
     607.500 65.12389028      11.17034424      8.83520876       56.71671672     
     608.000 63.51448442      11.16925158      8.83535948       57.19719720     
     608.500 63.20675484      11.17007754      8.83551020       57.91791792     
     609.000 62.87407912      11.16950216      8.83566093       58.91891892     
     609.500 62.38733758      11.11000219      8.83581165       59.31931932     
     610.000 61.91561497      11.00985141      8.83596237       60.52052052     
     610.500 61.92708589      10.97010541      8.83611309       60.44044044     
     611.000 61.91327008      10.97021217      8.83626382       60.24024024     
     611.500 61.92530025      10.95006775      8.83641454       60.48008008     
     612.000 63.51258555      10.95028841      8.83656526       60.71879880     
     612.500 65.12287490      10.96707923      8.83671598       60.88144526     
     613.000 67.03211535      10.99110216      8.83686670       60.31854349     
     613.500 67.04243603      11.00990602      8.83701743       59.35973350     
     614.000 66.07587879      11.01033070      8.83716815       59.95897770     
     614.500 64.80416545      11.02985542      8.83731887       60.48000497     
     615.000 63.19900728      11.03033406      8.83746959       62.72210442     
     615.500 62.56349652      11.02984578      8.83762031       62.52094568     
     616.000 61.59948079      11.03033141      8.83777104       61.36202226     
     616.500 60.64378905      11.04984239      8.83792176       61.23908502     
     617.000 60.64145577      11.05028706      8.83807248       60.84275649     
     617.500 60.96368929      11.06979954      8.83822320       64.00068084     
     618.000 60.96029248      11.09012358      8.83837392       62.45316495     
     618.500 60.64072940      11.08979308      8.83852465       59.17493951     
     619.000 60.31779155      11.09007041      8.83867537       56.72089622     
     619.500 60.63771289      11.08982849      8.83882609       51.66948959     
     620.000 61.59744283      11.09002109      8.83897681       51.19664252     
     620.500 62.55776941      11.08988880      8.83912753       54.51451451     
     621.000 63.20047443      11.09000492      8.83927826       55.27527528     
     621.500 63.83547615      11.08993476      8.83942898       58.35835836     
     622.000 64.48274237      11.08998456      8.83957970       59.75975976     
     622.500 64.46989989      11.08996663      8.83973042       59.75975976     
     623.000 64.16638659      11.08997574      8.83988114       59.47947948     
     623.500 63.18609218      11.08997033      8.84003187       59.47947948     
     624.000 63.21145426      11.08997722      8.84018259       59.19919920     
     624.500 63.82006199      11.08998421      8.84033331       59.68880881     
     625.000 65.13481315      11.08998178      8.84048403       60.25525526     
     625.500 64.45608925      11.09000000      8.84063475       60.88088088     
     626.000 60.34299738      11.09000000      8.84078548       60.80080080     
     626.500 57.74053459      11.09000000      8.84093620       59.71971972     
     627.000 53.63152440      11.09000000      8.84108692       59.27927928     
     627.500 53.26597070      11.09000000      8.84123764       58.63863864     
     628.000 54.27258197      11.09000000      8.84138836       58.31831832     
     628.500 55.82651716      11.09000000      8.84153909       57.79779780     
     629.000 57.14771143      11.09000000      8.84168981       56.54949495     
     629.500 58.38665281      11.09000000      8.84184053       55.32033852     
     630.000 58.48323020      11.09000000      8.84199125       53.88888889     
     630.500 58.70933659      11.09000000      8.84214197       52.67267267     
     631.000 59.37571187      11.09000000      8.84229270       52.43243243     
     631.500 59.35243117      11.09000000      8.84244342       52.51251251     
     632.000 59.69156839      11.09000000      8.84259414       52.91291291     
     632.500 60.31523685      11.09000000      8.84274486       54.75475475     
     633.000 60.64743580      11.09000000      8.84289558       56.31631632     
     633.500 61.27620734      11.09000000      8.84304631       57.27861195     
     634.000 62.46492706      11.09000000      8.84319703       57.78438438     
     634.500 63.83285535      11.09000000      8.84334775       58.47847848     
     635.000 65.43452733      11.09001822      8.84349847       59.11911912     
     635.500 67.02762759      11.08999757      8.84364919       59.15915916     
     636.000 67.35288391      11.09004344      8.84379992       58.59824222     
     636.500 67.02917926      11.08998379      8.84395064       56.05084080     
     637.000 65.43742063      11.09006569      8.84410136       55.47602602     
     637.500 63.19449351      11.08995392      8.84425208       54.65525344     
     638.000 61.92289575      11.09010199      8.84440280       51.79268081     
     638.500 61.91686997      11.08991272      8.84455353       48.66205801     
     639.000 62.24562753      11.09016454      8.84470425       47.82943249     
     639.500 62.23664805      11.08986476      8.84485497       51.61287363     
     640.000 61.92660130      11.09023446      8.84500569       56.55688448     
     640.500 60.00127152      11.08980910      8.84515641       61.19936088     
     641.000 60.64716362      11.09031213      8.84530714       63.32273775     
     641.500 63.20122136      11.08978239      8.84545786       62.16067532     
     642.000 63.20185118      11.09055587      8.84560858       60.84073809     
     642.500 62.24511809      11.10970527      8.84575930       61.48076591     
     643.000 59.04012481      11.11011854      8.84591002       61.04053054     
     643.500 58.73328014      11.12960440      8.84606075       60.08041442     
