~Version Information Block
 VERS.                2.00:     CWLS LOG ASCII STANDARD - VERSION 2.000000
 WRAP.                  NO:     One Line Per Depth Step
#
~Well Information Block
#MNEM.UNIT                     Data                         Information
#----------   ------------------------------------------   ----------------
 STRT.FT                                       50.0000:     START DEPTH
 STOP.FT                                     3000.0000:     STOP DEPTH
 STEP.FT                                        0.5000:     STEP
 NULL.                                       -999.2500:     NULL VALUE
 COMP.                        BUTTES GAS & OIL COMPANY:     COMPANY
 WELL.                               #1-25 NAVAJO #461:     WELL
 FLD .                                         WILDCAT:     FIELD
 LOC .                             660 N & 660 W OF SE:     LOCATION
 SEC .                                              25:     SECTION
 TWP .                                             35N:     TOWNSHIP
 RANG.                                             28E:     RANGE
 CNTY.                                          APACHE:     COUNTY
 STAT.                                         ARIZONA:     STATE
 CTRY.                                                :     COUNTRY
 SRVC.                                    SCHLUMBERGER:     SERVICE COMPANY
 DATE.                                      06/07/1968:     DATE
 API .                                    02-001-20078:     API NUMBER
 UWI .                                    02-001-20078:     UWI NUMBER
 TVD .                                              NO:     TVD flag
 WSTA.                                              OG:     Well status
#
~Curve Information Block
#MNEM.UNIT       API CODE      Curve Description
#----------    -------------   -------------------
 DEPT.FT                   :   Depth in Feet
 GR  .GAPI     35 310 01 01:   Gamma Ray
 CALI.IN       70 280 01 01:   Caliper
 BIT .IN                   :   Bituminous Rocks Facies
 DT  .US/F     60 520 08 01:   Delta-T
#
~Parameter Information Block
#MNEM.UNIT            Value               Description
#----------    --------------------    -------------------
 DATE.                    6/7/1968:    Date As Month-Day-Year
 RUN .                         ONE:    Run Number
 PDAT.                          KB:    Permanent Datum
 EPD .FT                 6359.0000:    Elevation Of Perm. Datum
 LMF .                          KB:    Log Measured From
 FAPD.FT                   11.0000:    Feet Above Perm. Datum
 DMF .                          KB:    Drilling Measured From
 EKB .FT                 6359.0000:    Elevation Of Kelly Bushing
 EDF .FT                 6358.0000:    Elevation Of Derrick Floor
 EGL .FT                 6343.0000:    Elevation Of Ground Level
 TD  .FT                 3000.0000:    Total Depth
 DF  .         Precambrian metamor:    
 DD  .FT                 3000.0000:    Depth Driller
 DL  .FT                 2996.0000:    Depth Logger
 BLI .FT                 2994.0000:    Bottom Log Interval
 TLI .FT                  271.0000:    Top Log Interval
 CBL1.                         271:    Casing Bottom (Logger) 1
 BS  .IN                     8 3/4:    Bit Size
 DFT .                         FGM:    Drilling Fluid Type
 DFV .S                    55.0000:    Drilling Fluid Viscosity
 DFD .LB/G                  9.1000:    Drilling Fluid Density
 DFL .ML                    5.8000:    Drilling Fluid Loss
 DFPH.                      9.0000:    Drilling Fluid Ph
 MSS .                    MUD TANK:    Mud Sample Source
 RMS .OHMM                  2.8800:    Resistivity Of Mud Sample
 MST .DEGF                 73.0000:    Mud Sample Temperature
 RMF .OHMM                  2.8100:    Mud Filtrate Resistivity
 MFST.DEGF                 75.0000:    Mud Filtrate Sample Temperature
 MFSS.                           M:    Mud Filtrate Sample Source
 RMC .OHMM                  1.8700:    Mud Cake Resistivity
 MCST.DEGF                112.0000:    Mud Cake Sample Temperature
 RMB .OHMM                  1.8800:    Mud Resistivity At Bht
 BHT .DEGF                112.0000:    Bottom Hole Temperature
 TCS .                     3 HOURS:    Time Circulation Stopped
 TLAB.                     3 HOURS:    Time Logger At Bottom
 MRT .DEGF                112.0000:    Maximum Recorded Temperature
 LUN .                        4542:    Logging Unit Number
 LUL .                        FARM:    Logging Unit Location
 ENGI.                       RUSEN:    Engineer'S Name
 WITN.                 MR. WHITLEY:    Witness' Name
 DGBY.                          LS:    
 WSTA.                          OG:    
#
~Other Information Block
<DescLogPlotStart>   NEURALOG PLOT DEFINITION
PLOTDEFVERSION: 3
LASFILE: O:\OG_Data\RMCCS digitized wells project\Leah Spencer\las\0461BHCS.las
DEPTHSCALE: 600.000013
RESOLUTION: 200
DEPTHLABELFREQ: 100.000000
HEAVYGRIDFREQ: 50.000000
MEDIUMGRIDFREQ: 50.000000
LIGHTGRIDFREQ: 50.000000
#
#   TRACK 1
#
STARTTRACK: 
 LEFTX: 0.500000 inch
 RIGHTX: 3.000000 inch
 SCALETYPE: Linear
 NUMCHARTDIVISIONS: 10
CURVE: GR    0.000000   160.000000 (0,0,255)      Solid             2     Y    
BACKUP: 160.000000 320.000000 (131,0,131)    Solid             2    
CURVE: CALI  6.000000   16.000000  (0,131,131)    Dot               2     N    
CURVE: BIT   6.000000   16.000000  (255,0,255)    Short_Dash        2     N    
ENDTRACK: 
#
#   TRACK 2
#
STARTTRACK: 
 LEFTX: 3.500000 inch
 RIGHTX: 8.500000 inch
 SCALETYPE: Linear
 NUMCHARTDIVISIONS: 20
CURVE: DT    80.000000  40.000000  (131,0,255)    Solid             2     Y    
BACKUP: 120.000000 80.000000  (255,0,0)      Solid             2    
ENDTRACK: 
<DescLogPlotEnd>
<DescLog>Borehole Comp Sonic Log Gamma R
<DescOSVS>IES
<DescOSVS>
<DescOSVS>
~A DEPTH     GR               CALI             BIT              DT              
# ...
     446.000 44.00329573      9.45635481       8.79684365       47.71871872     
     446.500 40.57973696      9.35034094       8.79695860       46.74674675     
     447.000 36.97221351      9.33535635       8.79707355       46.98698699     
     447.500 35.67448973      9.32250341       8.79718850       46.66666667     
     448.000 36.65549248      9.31008573       8.79730345       46.02602603     
     448.500 40.47030134      9.29037493       8.79741840       45.86586587     
     449.000 42.09206963      9.29017962       8.79753335       45.94594595     
     449.500 42.07113504      9.29029945       8.79764830       46.06606607     
     450.000 41.77369475      9.29026653       8.79776325       46.40640641     
     450.500 41.43402919      9.31814064       8.79787820       47.18718719     
     451.000 41.45470556      9.34472691       8.79799315       46.46646647     
     451.500 41.43725232      9.37006992       8.79810810       46.50650651     
     452.000 41.77343268      9.38677024       8.79822305       48.57937938     
     452.500 42.39693605      9.40229059       8.79833800       49.95595596     
     453.000 43.36905036      9.41857117       8.79845295       51.51151151     
     453.500 44.31531973      9.43400713       8.79856790       52.75275275     
     454.000 44.64435811      9.45030778       8.79868285       51.39139139     
     454.500 45.27364477      9.50978320       8.79879780       49.82982983     
     455.000 47.83706928      9.53792185       8.79891275       48.70870871     
     455.500 51.35106651      9.55331987       8.79902770       49.10910911     
     456.000 51.99308299      9.56952135       8.79914265       48.86886887     
     456.500 52.31779521      9.58499530       8.79925760       49.02902903     
     457.000 52.63107143      9.60112371       8.79937255       49.18918919     
     457.500 53.28006102      9.61239791       8.79948750       48.14763534     
     458.000 53.58446752      9.61859533       8.79960245       47.92135153     
     458.500 53.60255714      9.62443547       8.79971740       47.58761890     
     459.000 53.26148849      9.63054720       8.79983235       47.54088638     
     459.500 50.72953445      9.63646387       8.79994730       47.50799477     
     460.000 49.10365624      9.64249937       8.80006225       47.06682506     
     460.500 46.57618415      9.64992378       8.80017720       47.32970214     
     461.000 45.58556960      9.66466171       8.80029215       48.00899892     
     461.500 45.61762331      9.68412521       8.80040710       48.89967434     
     462.000 46.22459084      9.70356965       8.80052205       49.98880887     
     462.500 47.21607364      9.71106603       8.80063700       50.67260008     
     463.000 49.10586948      9.71269274       8.80075195       50.25260630     
     463.500 50.73437491      9.71438990       8.80086690       49.63234071     
     464.000 51.98836529      9.71602145       8.80098185       49.46789075     
     464.500 52.65098265      9.71771260       8.80109680       48.35179655     
     465.000 51.99296994      9.71935106       8.80121175       48.42661163     
     465.500 50.09139718      9.72103035       8.80132670       48.62862863     
     466.000 49.43989140      9.72267227       8.80144165       48.55735736     
     466.500 49.77003250      9.72434351       8.80155660       48.46846847     
     467.000 51.04268204      9.72598117       8.80167155       48.66866867     
     467.500 52.00282086      9.72763755       8.80178650       48.18818819     
     468.000 52.00228007      9.72927691       8.80190145       49.91185471     
     468.500 51.35787820      9.73093341       8.80201640       50.83083083     
     469.000 50.07921125      9.73256680       8.80213135       51.87774441     
     469.500 49.43275002      9.73424222       8.80224630       52.85585586     
     470.000 49.43114570      9.73588670       8.80236125       53.61494828     
     470.500 49.43329939      9.73756174       8.80247620       54.87487487     
     471.000 50.06811881      9.73919131       8.80259116       55.19519520     
     471.500 52.31929780      9.74087498       8.80270611       57.18342342     
     472.000 53.25853173      9.74249734       8.80282106       57.79779780     
     472.500 54.56847579      9.74418645       8.80293601       56.49809810     
     473.000 55.48463829      9.74580539       8.80305096       56.07607608     
     473.500 56.49651712      9.74749613       8.80316591       -999.25000000   
     474.000 58.34808921      9.74912725       8.80328086       -999.25000000   
     474.500 60.02364033      9.73819836       8.80339581       -999.25000000   
     475.000 59.93558624      9.71595919       8.80351076       -999.25000000   
     475.500 59.07467161      9.69374973       8.80362571       -999.25000000   
     476.000 58.32950214      9.67001571       8.80374066       -999.25000000   
     476.500 51.40761155      9.63376412       8.80385561       -999.25000000   
     477.000 45.21849790      9.61009222       8.80397056       -999.25000000   
     477.500 35.04739506      9.60778627       8.80408551       -999.25000000   
     478.000 32.75203656      9.60524855       8.80420046       -999.25000000   
     478.500 32.86407414      9.60260609       8.80431541       -999.25000000   
     479.000 33.71709747      9.60009193       8.80443036       -999.25000000   
     479.500 34.29553388      9.59743481       8.80454531       -999.25000000   
     480.000 35.00417284      9.59491184       8.80466026       50.07007007     
     480.500 35.08981540      9.59225233       8.80477521       51.23123123     
     481.000 34.37426444      9.59016183       8.80489016       50.99099099     
     481.500 33.16407554      9.60023313       8.80500511       48.34834835     
     482.000 31.04476817      9.60890431       8.80512006       48.06806807     
     482.500 29.64589229      9.61753068       8.80523501       46.22622623     
     483.000 29.59946968      9.62614538       8.80534996       45.46546547     
     483.500 29.64291033      9.63482332       8.80546491       45.86586587     
     484.000 30.88150956      9.64338186       8.80557986       45.70570571     
     484.500 32.51286342      9.65210273       8.80569481       46.34634635     
     485.000 35.03298207      9.66062407       8.80580976       46.30630631     
     485.500 36.01971606      9.67007294       8.80592471       46.45365365     
     486.000 36.31005240      9.68786199       8.80603966       46.82682683     
     486.500 36.33612067      9.70744118       8.80615461       46.78678679     
     487.000 36.31209551      9.72978543       8.80626956       46.42642643     
     487.500 35.69580577      9.72994884       8.80638451       46.08608609     
     488.000 35.67904406      9.72978576       8.80649946       45.86586587     
     488.500 35.69376321      9.72993825       8.80661441       45.82743408     
     489.000 35.68297187      9.72979726       8.80672936       46.10651887     
     489.500 37.60616565      9.72993076       8.80684431       46.02799738     
     490.000 42.39991194      9.72982410       8.80695926       46.06800448     
     490.500 46.55272161      9.72991816       8.80707421       45.06726413     
     491.000 48.79903423      9.72985297       8.80718916       45.02736925     
     491.500 50.06536629      9.72990535       8.80730411       45.13947219     
     492.000 50.72212352      9.72988024       8.80741906       45.30826655     
     492.500 50.70237476      9.72989587       8.80753401       46.70678468     
     493.000 50.40713691      9.72990263       8.80764896       47.55141535     
     493.500 49.74212855      9.72989327       8.80776391       48.17243004     
     494.000 47.23145379      9.69238827       8.80787886       48.55277376     
     494.500 46.86415096      9.61458055       8.80799381       48.58642946     
     495.000 47.85265024      9.57009430       8.80810876       47.91358038     
