~Version Information Block
 VERS.                2.00:     CWLS LOG ASCII STANDARD - VERSION 2.000000
 WRAP.                  NO:     One Line Per Depth Step
#
~Well Information Block
#MNEM.UNIT                     Data                         Information
#----------   ------------------------------------------   ----------------
 STRT.FT                                       50.0000:     START DEPTH
 STOP.FT                                     3000.0000:     STOP DEPTH
 STEP.FT                                        0.5000:     STEP
 NULL.                                       -999.2500:     NULL VALUE
 COMP.                        BUTTES GAS & OIL COMPANY:     COMPANY
 WELL.                               #1-25 NAVAJO #461:     WELL
 FLD .                                         WILDCAT:     FIELD
 LOC .                             660 N & 660 W OF SE:     LOCATION
 SEC .                                              25:     SECTION
 TWP .                                             35N:     TOWNSHIP
 RANG.                                             28E:     RANGE
 CNTY.                                          APACHE:     COUNTY
 STAT.                                         ARIZONA:     STATE
 CTRY.                                                :     COUNTRY
 SRVC.                                    SCHLUMBERGER:     SERVICE COMPANY
 DATE.                                      06/07/1968:     DATE
 API .                                    02-001-20078:     API NUMBER
 UWI .                                    02-001-20078:     UWI NUMBER
 TVD .                                              NO:     TVD flag
 WSTA.                                              OG:     Well status
#
~Curve Information Block
#MNEM.UNIT       API CODE      Curve Description
#----------    -------------   -------------------
 DEPT.FT                   :   Depth in Feet
 GR  .GAPI     35 310 01 01:   Gamma Ray
 CALI.IN       70 280 01 01:   Caliper
 BIT .IN                   :   Bituminous Rocks Facies
 DT  .US/F     60 520 08 01:   Delta-T
#
~Parameter Information Block
#MNEM.UNIT            Value               Description
#----------    --------------------    -------------------
 DATE.                    6/7/1968:    Date As Month-Day-Year
 RUN .                         ONE:    Run Number
 PDAT.                          KB:    Permanent Datum
 EPD .FT                 6359.0000:    Elevation Of Perm. Datum
 LMF .                          KB:    Log Measured From
 FAPD.FT                   11.0000:    Feet Above Perm. Datum
 DMF .                          KB:    Drilling Measured From
 EKB .FT                 6359.0000:    Elevation Of Kelly Bushing
 EDF .FT                 6358.0000:    Elevation Of Derrick Floor
 EGL .FT                 6343.0000:    Elevation Of Ground Level
 TD  .FT                 3000.0000:    Total Depth
 DF  .         Precambrian metamor:    
 DD  .FT                 3000.0000:    Depth Driller
 DL  .FT                 2996.0000:    Depth Logger
 BLI .FT                 2994.0000:    Bottom Log Interval
 TLI .FT                  271.0000:    Top Log Interval
 CBL1.                         271:    Casing Bottom (Logger) 1
 BS  .IN                     8 3/4:    Bit Size
 DFT .                         FGM:    Drilling Fluid Type
 DFV .S                    55.0000:    Drilling Fluid Viscosity
 DFD .LB/G                  9.1000:    Drilling Fluid Density
 DFL .ML                    5.8000:    Drilling Fluid Loss
 DFPH.                      9.0000:    Drilling Fluid Ph
 MSS .                    MUD TANK:    Mud Sample Source
 RMS .OHMM                  2.8800:    Resistivity Of Mud Sample
 MST .DEGF                 73.0000:    Mud Sample Temperature
 RMF .OHMM                  2.8100:    Mud Filtrate Resistivity
 MFST.DEGF                 75.0000:    Mud Filtrate Sample Temperature
 MFSS.                           M:    Mud Filtrate Sample Source
 RMC .OHMM                  1.8700:    Mud Cake Resistivity
 MCST.DEGF                112.0000:    Mud Cake Sample Temperature
 RMB .OHMM                  1.8800:    Mud Resistivity At Bht
 BHT .DEGF                112.0000:    Bottom Hole Temperature
 TCS .                     3 HOURS:    Time Circulation Stopped
 TLAB.                     3 HOURS:    Time Logger At Bottom
 MRT .DEGF                112.0000:    Maximum Recorded Temperature
 LUN .                        4542:    Logging Unit Number
 LUL .                        FARM:    Logging Unit Location
 ENGI.                       RUSEN:    Engineer'S Name
 WITN.                 MR. WHITLEY:    Witness' Name
 DGBY.                          LS:    
 WSTA.                          OG:    
#
~Other Information Block
<DescLogPlotStart>   NEURALOG PLOT DEFINITION
PLOTDEFVERSION: 3
LASFILE: O:\OG_Data\RMCCS digitized wells project\Leah Spencer\las\0461BHCS.las
DEPTHSCALE: 600.000013
RESOLUTION: 200
DEPTHLABELFREQ: 100.000000
HEAVYGRIDFREQ: 50.000000
MEDIUMGRIDFREQ: 50.000000
LIGHTGRIDFREQ: 50.000000
#
#   TRACK 1
#
STARTTRACK: 
 LEFTX: 0.500000 inch
 RIGHTX: 3.000000 inch
 SCALETYPE: Linear
 NUMCHARTDIVISIONS: 10
CURVE: GR    0.000000   160.000000 (0,0,255)      Solid             2     Y    
BACKUP: 160.000000 320.000000 (131,0,131)    Solid             2    
CURVE: CALI  6.000000   16.000000  (0,131,131)    Dot               2     N    
CURVE: BIT   6.000000   16.000000  (255,0,255)    Short_Dash        2     N    
ENDTRACK: 
#
#   TRACK 2
#
STARTTRACK: 
 LEFTX: 3.500000 inch
 RIGHTX: 8.500000 inch
 SCALETYPE: Linear
 NUMCHARTDIVISIONS: 20
CURVE: DT    80.000000  40.000000  (131,0,255)    Solid             2     Y    
BACKUP: 120.000000 80.000000  (255,0,0)      Solid             2    
ENDTRACK: 
<DescLogPlotEnd>
<DescLog>Borehole Comp Sonic Log Gamma R
<DescOSVS>IES
<DescOSVS>
<DescOSVS>
~A DEPTH     GR               CALI             BIT              DT              
# ...
    2079.500 59.99322051      10.02284554      8.82999978       65.06238238     
    2080.000 60.02482372      10.02231328      8.82999977       69.16916917     
    2080.500 59.97175516      10.02178169      8.82999982       71.41141141     
    2081.000 60.01630086      10.02125378      8.82999981       70.77077077     
    2081.500 59.63014421      10.02072588      8.82999986       70.41041041     
    2082.000 58.72986541      10.02019797      8.82999985       70.37037037     
    2082.500 57.09730513      10.01967006      8.82999989       69.92992993     
    2083.000 52.02896932      10.01914215      8.82999989       70.85085085     
    2083.500 42.12253217      10.01861424      8.82999993       70.49049049     
    2084.000 30.27755467      10.01808633      8.82999994       65.60560561     
    2084.500 30.23322426      10.01755798      8.82999996       60.76076076     
    2085.000 30.59691854      10.01702993      8.82999998       55.91591592     
    2085.500 31.83599056      10.01650143      8.83000000       52.31231231     
    2086.000 32.19161794      10.01597357      8.83000000       53.19319319     
    2086.500 32.15743452      10.01544484      8.83000000       55.83583584     
    2087.000 32.50769265      10.01491726      8.83000000       55.83583584     
    2087.500 32.80110485      10.01438822      8.83000000       55.15515516     
    2088.000 34.11914925      10.01386095      8.83000000       54.43443443     
    2088.500 36.64203054      10.01333160      8.83000000       56.83683684     
    2089.000 41.78868755      10.01280462      8.83000000       60.72072072     
    2089.500 43.67758297      10.01227501      8.83000000       62.84284284     
    2090.000 43.70454886      10.01174826      8.83000000       62.68268268     
    2090.500 42.39767387      10.01121848      8.83000000       55.83583584     
    2091.000 39.86407934      10.01069183      8.83000000       52.31231231     
    2091.500 40.14936076      10.01016201      8.83000000       51.43143143     
    2092.000 41.45591926      10.00914916      8.83000000       51.79179179     
    2092.500 45.09583766      10.00790019      8.83000000       51.43143143     
    2093.000 46.89481573      10.00665662      8.83000000       51.31131131     
    2093.500 47.90151228      10.00540596      8.83000000       50.75075075     
    2094.000 48.81857184      10.00416435      8.83000000       50.71071071     
    2094.500 51.36370125      10.00291154      8.83000000       51.15115115     
    2095.000 53.60548049      10.00167217      8.83000000       54.91491491     
    2095.500 53.90429928      10.00041713      8.83000000       59.15915916     
    2096.000 53.92001302      9.99918423       8.83000000       61.03543544     
    2096.500 53.91170262      9.99793075       8.83000000       62.00200200     
    2097.000 53.59997859      9.99670060       8.83000000       60.94334334     
    2097.500 53.59885056      9.99544471       8.83000000       58.15815816     
    2098.000 53.59559596      9.99421651       8.83000000       57.95795796     
    2098.500 53.92105518      9.99295922       8.83000000       57.35735736     
    2099.000 54.22976877      9.99173180       8.83000000       56.95695696     
    2099.500 55.84170090      9.99047439       8.83000000       57.55755756     
    2100.000 59.34247693      9.98190620       8.83000000       61.04104104     
    2100.500 61.50462309      9.96771875       8.83000000       67.44627039     
    2101.000 63.49787336      9.95355715       8.83000000       74.01546230     
    2101.500 63.83501678      9.93937222       8.83000000       75.05211057     
    2102.000 63.81735754      9.92520181       8.83000000       70.32539882     
    2102.500 63.19522862      9.91101321       8.83000000       62.08335484     
    2103.000 60.94192930      9.89683815       8.83000000       52.65626137     
    2103.500 59.03511861      9.88741968       8.83000000       48.51337225     
    2104.000 59.02490949      9.88245934       8.83000000       49.37196185     
    2104.500 59.35047897      9.87749786       8.83000000       50.07557978     
    2105.000 59.66664013      9.87253730       8.83000000       50.06847223     
    2105.500 59.66629208      9.86757588       8.83000000       49.51697514     
    2106.000 59.67014815      9.86261540       8.83000000       50.02531363     
    2106.500 59.66361767      9.85765378       8.83000000       50.67860683     
    2107.000 59.35413636      9.85269359       8.83000000       51.02361403     
    2107.500 56.95220354      9.84773164       8.83000000       51.00157451     
    2108.000 52.96706910      9.84276431       8.83000000       50.78129172     
    2108.500 51.31991711      9.83779874       8.83000000       49.30930931     
    2109.000 49.61359409      9.83282962       8.83000000       49.22922923     
    2109.500 47.87463247      9.82144733       8.83000000       53.47347347     
    2110.000 46.08943358      9.80159636       8.83000000       62.68268268     
    2110.500 44.32515746      9.78175532       8.83000000       -999.25000000   
    2111.000 42.09638142      9.76190218       8.83000000       -999.25000000   
    2111.500 40.48741117      9.74959423       8.83000000       -999.25000000   
    2112.000 39.21472237      9.74843173       8.83000000       -999.25000000   
    2112.500 38.25063002      9.74728961       8.83000000       -999.25000000   
    2113.000 37.93125890      9.74612501       8.83000000       68.56856857     
    2113.500 37.92972347      9.74498444       8.83000000       60.20020020     
    2114.000 38.24058273      9.74381892       8.83000000       54.11411411     
    2114.500 38.89078994      9.74267861       8.83000000       54.15415415     
    2115.000 39.83596646      9.74151349       8.83000000       53.75375375     
    2115.500 42.40919623      9.74037213       8.83000000       53.27327327     
    2116.000 48.14233791      9.73920866       8.83000000       52.95295295     
    2116.500 51.68582894      9.73806513       8.83000000       54.99499499     
    2117.000 52.29320416      9.73690425       8.83000000       56.65745746     
    2117.500 52.33442264      9.73575128       8.83000000       58.68978069     
    2118.000 51.96669734      9.73458694       8.83000000       60.85733734     
    2118.500 50.42142041      9.73343027       8.83000000       62.64124124     
    2119.000 48.11704015      9.73226893       8.83000000       64.00400400     
    2119.500 46.58773366      9.73111776       8.83000000       64.24424424     
    2120.000 44.26835470      9.72996659       8.83000000       64.40440440     
    2120.500 42.06132922      9.72881543       8.83000000       64.16416416     
    2121.000 37.81823278      9.72766426       8.83000000       61.72172172     
    2121.500 28.69415249      9.72651378       8.83000000       60.56943610     
    2122.000 28.58690089      9.72536288       8.83000000       58.51851852     
    2122.500 28.69909680      9.72421262       8.83000000       57.67767768     
    2123.000 28.90776626      9.72306143       8.83000000       57.71771772     
    2123.500 30.94596120      9.72191152       8.83000000       58.48858859     
    2124.000 32.75586029      9.72075994       8.83000000       58.21574302     
    2124.500 34.46807763      9.71961045       8.83000000       57.35520976     
    2125.000 40.11506801      9.71845843       8.83000000       56.21621622     
    2125.500 41.17639806      9.71730937       8.83000000       55.47547548     
    2126.000 41.07782355      9.71615695       8.83000000       55.67927928     
    2126.500 37.00221774      9.71500825       8.83000000       55.91591592     
    2127.000 32.78432364      9.71385553       8.83000000       55.91591592     
    2127.500 29.96539455      9.71270705       8.83000000       56.11611612     
    2128.000 27.29388081      9.71155420       8.83000000       56.07732177     
    2128.500 25.13472409      9.71060188       8.83000000       55.98781003     
