~Version Information Block
 VERS.                2.00:     CWLS LOG ASCII STANDARD - VERSION 2.000000
 WRAP.                  NO:     One Line Per Depth Step
#
~Well Information Block
#MNEM.UNIT                     Data                         Information
#----------   ------------------------------------------   ----------------
 STRT.FT                                       50.0000:     START DEPTH
 STOP.FT                                     3000.0000:     STOP DEPTH
 STEP.FT                                        0.5000:     STEP
 NULL.                                       -999.2500:     NULL VALUE
 COMP.                        BUTTES GAS & OIL COMPANY:     COMPANY
 WELL.                               #1-25 NAVAJO #461:     WELL
 FLD .                                         WILDCAT:     FIELD
 LOC .                             660 N & 660 W OF SE:     LOCATION
 SEC .                                              25:     SECTION
 TWP .                                             35N:     TOWNSHIP
 RANG.                                             28E:     RANGE
 CNTY.                                          APACHE:     COUNTY
 STAT.                                         ARIZONA:     STATE
 CTRY.                                                :     COUNTRY
 SRVC.                                    SCHLUMBERGER:     SERVICE COMPANY
 DATE.                                      06/07/1968:     DATE
 API .                                    02-001-20078:     API NUMBER
 UWI .                                    02-001-20078:     UWI NUMBER
 TVD .                                              NO:     TVD flag
 WSTA.                                              OG:     Well status
#
~Curve Information Block
#MNEM.UNIT       API CODE      Curve Description
#----------    -------------   -------------------
 DEPT.FT                   :   Depth in Feet
 GR  .GAPI     35 310 01 01:   Gamma Ray
 CALI.IN       70 280 01 01:   Caliper
 BIT .IN                   :   Bituminous Rocks Facies
 DT  .US/F     60 520 08 01:   Delta-T
#
~Parameter Information Block
#MNEM.UNIT            Value               Description
#----------    --------------------    -------------------
 DATE.                    6/7/1968:    Date As Month-Day-Year
 RUN .                         ONE:    Run Number
 PDAT.                          KB:    Permanent Datum
 EPD .FT                 6359.0000:    Elevation Of Perm. Datum
 LMF .                          KB:    Log Measured From
 FAPD.FT                   11.0000:    Feet Above Perm. Datum
 DMF .                          KB:    Drilling Measured From
 EKB .FT                 6359.0000:    Elevation Of Kelly Bushing
 EDF .FT                 6358.0000:    Elevation Of Derrick Floor
 EGL .FT                 6343.0000:    Elevation Of Ground Level
 TD  .FT                 3000.0000:    Total Depth
 DF  .         Precambrian metamor:    
 DD  .FT                 3000.0000:    Depth Driller
 DL  .FT                 2996.0000:    Depth Logger
 BLI .FT                 2994.0000:    Bottom Log Interval
 TLI .FT                  271.0000:    Top Log Interval
 CBL1.                         271:    Casing Bottom (Logger) 1
 BS  .IN                     8 3/4:    Bit Size
 DFT .                         FGM:    Drilling Fluid Type
 DFV .S                    55.0000:    Drilling Fluid Viscosity
 DFD .LB/G                  9.1000:    Drilling Fluid Density
 DFL .ML                    5.8000:    Drilling Fluid Loss
 DFPH.                      9.0000:    Drilling Fluid Ph
 MSS .                    MUD TANK:    Mud Sample Source
 RMS .OHMM                  2.8800:    Resistivity Of Mud Sample
 MST .DEGF                 73.0000:    Mud Sample Temperature
 RMF .OHMM                  2.8100:    Mud Filtrate Resistivity
 MFST.DEGF                 75.0000:    Mud Filtrate Sample Temperature
 MFSS.                           M:    Mud Filtrate Sample Source
 RMC .OHMM                  1.8700:    Mud Cake Resistivity
 MCST.DEGF                112.0000:    Mud Cake Sample Temperature
 RMB .OHMM                  1.8800:    Mud Resistivity At Bht
 BHT .DEGF                112.0000:    Bottom Hole Temperature
 TCS .                     3 HOURS:    Time Circulation Stopped
 TLAB.                     3 HOURS:    Time Logger At Bottom
 MRT .DEGF                112.0000:    Maximum Recorded Temperature
 LUN .                        4542:    Logging Unit Number
 LUL .                        FARM:    Logging Unit Location
 ENGI.                       RUSEN:    Engineer'S Name
 WITN.                 MR. WHITLEY:    Witness' Name
 DGBY.                          LS:    
 WSTA.                          OG:    
#
~Other Information Block
<DescLogPlotStart>   NEURALOG PLOT DEFINITION
PLOTDEFVERSION: 3
LASFILE: O:\OG_Data\RMCCS digitized wells project\Leah Spencer\las\0461BHCS.las
DEPTHSCALE: 600.000013
RESOLUTION: 200
DEPTHLABELFREQ: 100.000000
HEAVYGRIDFREQ: 50.000000
MEDIUMGRIDFREQ: 50.000000
LIGHTGRIDFREQ: 50.000000
#
#   TRACK 1
#
STARTTRACK: 
 LEFTX: 0.500000 inch
 RIGHTX: 3.000000 inch
 SCALETYPE: Linear
 NUMCHARTDIVISIONS: 10
CURVE: GR    0.000000   160.000000 (0,0,255)      Solid             2     Y    
BACKUP: 160.000000 320.000000 (131,0,131)    Solid             2    
CURVE: CALI  6.000000   16.000000  (0,131,131)    Dot               2     N    
CURVE: BIT   6.000000   16.000000  (255,0,255)    Short_Dash        2     N    
ENDTRACK: 
#
#   TRACK 2
#
STARTTRACK: 
 LEFTX: 3.500000 inch
 RIGHTX: 8.500000 inch
 SCALETYPE: Linear
 NUMCHARTDIVISIONS: 20
CURVE: DT    80.000000  40.000000  (131,0,255)    Solid             2     Y    
BACKUP: 120.000000 80.000000  (255,0,0)      Solid             2    
ENDTRACK: 
<DescLogPlotEnd>
<DescLog>Borehole Comp Sonic Log Gamma R
<DescOSVS>IES
<DescOSVS>
<DescOSVS>
~A DEPTH     GR               CALI             BIT              DT              
# ...
    2624.000 36.04251537      9.16958023       8.80107176       55.47547548     
    2624.500 35.01505442      9.11016538       8.80103307       55.39539540     
    2625.000 34.76533840      9.08161925       8.80099437       54.95495495     
    2625.500 35.65509950      9.05105706       8.80095568       51.83183183     
    2626.000 41.48224006      9.01964720       8.80091699       51.79179179     
    2626.500 42.37619643      8.98898185       8.80087829       50.91091091     
    2627.000 42.11625713      8.96786274       8.80083960       50.03003003     
    2627.500 39.50165719      8.96292386       8.80080091       49.42979302     
    2628.000 36.03136982      8.95754228       8.80076222       46.22724895     
    2628.500 35.03229951      8.95252154       8.80072352       46.06800032     
    2629.000 35.06699089      8.94721157       8.80068483       46.06669548     
    2629.500 35.36137515      8.94211421       8.80064614       46.26843990     
    2630.000 36.34116928      8.93682682       8.80060744       47.48736500     
    2630.500 37.28245687      8.93168638       8.80056875       51.55359502     
    2631.000 38.91454307      8.92642765       8.80053006       54.47097796     
    2631.500 41.44186728      8.92124554       8.80049136       55.11801431     
    2632.000 44.33117406      8.91596988       8.80045267       54.47254849     
    2632.500 48.47700688      8.91011246       8.80041398       48.67291084     
    2633.000 51.04665797      8.91171007       8.80037529       46.70504310     
    2633.500 55.51243668      8.91363565       8.80033659       45.98996141     
    2634.000 56.16508256      8.91547888       8.80029790       46.38391443     
    2634.500 54.55293322      8.91740443       8.80025921       48.99213660     
    2635.000 50.72577411      8.91926080       8.80022051       52.40909326     
    2635.500 46.23388853      8.92119361       8.80018182       56.55655656     
    2636.000 46.24567527      8.92305790       8.80014313       60.08008008     
    2636.500 49.43249784      8.92498223       8.80010443       60.04004004     
    2637.000 56.80226906      8.92685518       8.80006574       59.51951952     
    2637.500 64.78749487      8.92877104       8.80002705       59.91991992     
    2638.000 74.07528875      8.92999487       8.79998836       60.16016016     
    2638.500 82.37104064      8.93000488       8.79994966       60.92092092     
    2639.000 83.02871960      8.92999272       8.79991097       61.68168168     
    2639.500 82.68840865      8.92999834       8.79987228       60.88088088     
    2640.000 79.83225014      8.92998898       8.79983358       58.09809810     
    2640.500 74.05613703      8.92999279       8.79979489       55.19519520     
    2641.000 67.68384654      8.92999074       8.79975620       51.99466133     
    2641.500 64.14624311      8.92999421       8.79971750       48.42842843     
    2642.000 62.57179825      8.92999281       8.79967881       48.50850851     
    2642.500 60.31243576      8.92999557       8.79964012       49.54954955     
    2643.000 56.17749305      8.92999490       8.79960143       48.79168337     
    2643.500 55.51475863      8.92999696       8.79956273       50.10932738     
    2644.000 55.94719272      8.92999693       8.79952404       50.11351287     
    2644.500 57.19332722      8.92999842       8.79948535       51.67154947     
    2645.000 60.02455806      8.92999887       8.79944665       52.43438469     
    2645.500 60.63498025      8.93000000       8.79940796       51.49669048     
    2646.000 60.35866743      8.92999893       8.79936927       49.95107323     
    2646.500 54.55778916      8.92999859       8.79933058       50.31304834     
    2647.000 48.52737497      8.92999718       8.79929188       52.39239877     
    2647.500 48.47736458      8.92999732       8.79925319       53.95734920     
    2648.000 49.47927040      8.92999531       8.79921450       54.03156098     
    2648.500 55.50339480      8.92999613       8.79917580       50.82248431     
    2649.000 58.73974396      8.92999339       8.79913711       49.06962206     
    2649.500 67.33300597      8.92999497       8.79909842       48.22291716     
    2650.000 76.63731904      8.92999147       8.79905972       47.90380865     
    2650.500 83.00318773      8.92999377       8.79902103       48.55322176     
    2651.000 88.13371667      8.92998962       8.79898234       52.59832378     
    2651.500 91.64368459      8.92999247       8.79894365       55.24377410     
    2652.000 93.55969072      8.92998790       8.79890495       57.03135855     
    2652.500 93.57256933      8.92999102       8.79886626       56.43881872     
    2653.000 91.94934104      8.92998634       8.79882757       54.02997831     
    2653.500 87.19550109      8.92881924       8.79878887       52.87468885     
    2654.000 83.34577429      8.92711423       8.79875018       56.23247368     
    2654.500 79.51713334      8.92541640       8.79871149       58.91871218     
    2655.000 75.02503204      8.92371189       8.79867279       59.75672453     
    2655.500 67.67987506      8.92201345       8.79863410       58.21965738     
    2656.000 60.30818585      8.92030963       8.79859541       55.15381318     
    2656.500 52.64337071      8.91861045       8.79855672       54.59337845     
    2657.000 49.11207234      8.91690740       8.79851802       53.23253109     
    2657.500 45.28560638      8.91520746       8.79847933       51.74330092     
    2658.000 41.43692192      8.91350512       8.79844064       49.73963220     
    2658.500 35.36738232      8.91180455       8.79840194       47.30730731     
    2659.000 33.44103988      8.91010274       8.79836325       46.66666667     
    2659.500 33.12693337      8.90840176       8.79832456       46.82682683     
    2660.000 31.20380575      8.90670021       8.79828586       46.78678679     
    2660.500 27.36776893      8.90499913       8.79824717       46.90690691     
    2661.000 20.96864769      8.90329753       8.79820848       46.46646647     
    2661.500 18.10658255      8.90159545       8.79816979       46.26626627     
    2662.000 15.87061796      8.89989337       8.79813109       46.78678679     
    2662.500 15.22349485      8.89819128       8.79809240       46.86686687     
    2663.000 15.22826963      8.89648920       8.79805371       46.94694695     
    2663.500 15.21542127      8.89478816       8.79801501       47.18718719     
    2664.000 15.54228027      8.89308727       8.79797632       47.22722723     
    2664.500 16.16941731      8.89138645       8.79793763       47.54754755     
    2665.000 18.09701805      8.88968543       8.79789894       47.54754755     
    2665.500 19.36397190      8.88798464       8.79786024       47.25325325     
    2666.000 20.01105867      8.88628368       8.79782155       46.74674675     
    2666.500 20.31922527      8.88458274       8.79778286       46.66666667     
    2667.000 20.32972760      8.88288203       8.79774416       46.30630631     
    2667.500 22.87916734      8.88118075       8.79770547       46.34634635     
    2668.000 28.96753676      8.87948045       8.79766678       48.22822823     
    2668.500 39.19284762      8.87777871       8.79762808       48.38838839     
    2669.000 47.20009034      8.87607890       8.79758939       49.10910911     
    2669.500 49.42540405      8.87437666       8.79755070       49.18918919     
    2670.000 49.11589272      8.87267734       8.79751201       49.07507508     
    2670.500 45.89567461      8.87097465       8.79747331       48.30830831     
    2671.000 40.48090639      8.87041341       8.79743462       48.66866867     
    2671.500 37.25717965      8.87131274       8.79739593       48.50850851     
    2672.000 34.73019290      8.87221638       8.79735723       48.86886887     
    2672.500 32.45848094      8.87311557       8.79731854       49.82982983     
    2673.000 28.66883798      8.87401924       8.79727985       49.62962963     
