~Version Information Block
 VERS.                2.00:     CWLS LOG ASCII STANDARD - VERSION 2.000000
 WRAP.                  NO:     One Line Per Depth Step
#
~Well Information Block
#MNEM.UNIT                     Data                         Information
#----------   ------------------------------------------   ----------------
 STRT.FT                                       50.0000:     START DEPTH
 STOP.FT                                     3000.0000:     STOP DEPTH
 STEP.FT                                        0.5000:     STEP
 NULL.                                       -999.2500:     NULL VALUE
 COMP.                        BUTTES GAS & OIL COMPANY:     COMPANY
 WELL.                               #1-25 NAVAJO #461:     WELL
 FLD .                                         WILDCAT:     FIELD
 LOC .                             660 N & 660 W OF SE:     LOCATION
 SEC .                                              25:     SECTION
 TWP .                                             35N:     TOWNSHIP
 RANG.                                             28E:     RANGE
 CNTY.                                          APACHE:     COUNTY
 STAT.                                         ARIZONA:     STATE
 CTRY.                                                :     COUNTRY
 SRVC.                                    SCHLUMBERGER:     SERVICE COMPANY
 DATE.                                      06/07/1968:     DATE
 API .                                    02-001-20078:     API NUMBER
 UWI .                                    02-001-20078:     UWI NUMBER
 TVD .                                              NO:     TVD flag
 WSTA.                                              OG:     Well status
#
~Curve Information Block
#MNEM.UNIT       API CODE      Curve Description
#----------    -------------   -------------------
 DEPT.FT                   :   Depth in Feet
 GR  .GAPI     35 310 01 01:   Gamma Ray
 CALI.IN       70 280 01 01:   Caliper
 BIT .IN                   :   Bituminous Rocks Facies
 DT  .US/F     60 520 08 01:   Delta-T
#
~Parameter Information Block
#MNEM.UNIT            Value               Description
#----------    --------------------    -------------------
 DATE.                    6/7/1968:    Date As Month-Day-Year
 RUN .                         ONE:    Run Number
 PDAT.                          KB:    Permanent Datum
 EPD .FT                 6359.0000:    Elevation Of Perm. Datum
 LMF .                          KB:    Log Measured From
 FAPD.FT                   11.0000:    Feet Above Perm. Datum
 DMF .                          KB:    Drilling Measured From
 EKB .FT                 6359.0000:    Elevation Of Kelly Bushing
 EDF .FT                 6358.0000:    Elevation Of Derrick Floor
 EGL .FT                 6343.0000:    Elevation Of Ground Level
 TD  .FT                 3000.0000:    Total Depth
 DF  .         Precambrian metamor:    
 DD  .FT                 3000.0000:    Depth Driller
 DL  .FT                 2996.0000:    Depth Logger
 BLI .FT                 2994.0000:    Bottom Log Interval
 TLI .FT                  271.0000:    Top Log Interval
 CBL1.                         271:    Casing Bottom (Logger) 1
 BS  .IN                     8 3/4:    Bit Size
 DFT .                         FGM:    Drilling Fluid Type
 DFV .S                    55.0000:    Drilling Fluid Viscosity
 DFD .LB/G                  9.1000:    Drilling Fluid Density
 DFL .ML                    5.8000:    Drilling Fluid Loss
 DFPH.                      9.0000:    Drilling Fluid Ph
 MSS .                    MUD TANK:    Mud Sample Source
 RMS .OHMM                  2.8800:    Resistivity Of Mud Sample
 MST .DEGF                 73.0000:    Mud Sample Temperature
 RMF .OHMM                  2.8100:    Mud Filtrate Resistivity
 MFST.DEGF                 75.0000:    Mud Filtrate Sample Temperature
 MFSS.                           M:    Mud Filtrate Sample Source
 RMC .OHMM                  1.8700:    Mud Cake Resistivity
 MCST.DEGF                112.0000:    Mud Cake Sample Temperature
 RMB .OHMM                  1.8800:    Mud Resistivity At Bht
 BHT .DEGF                112.0000:    Bottom Hole Temperature
 TCS .                     3 HOURS:    Time Circulation Stopped
 TLAB.                     3 HOURS:    Time Logger At Bottom
 MRT .DEGF                112.0000:    Maximum Recorded Temperature
 LUN .                        4542:    Logging Unit Number
 LUL .                        FARM:    Logging Unit Location
 ENGI.                       RUSEN:    Engineer'S Name
 WITN.                 MR. WHITLEY:    Witness' Name
 DGBY.                          LS:    
 WSTA.                          OG:    
#
~Other Information Block
<DescLogPlotStart>   NEURALOG PLOT DEFINITION
PLOTDEFVERSION: 3
LASFILE: O:\OG_Data\RMCCS digitized wells project\Leah Spencer\las\0461BHCS.las
DEPTHSCALE: 600.000013
RESOLUTION: 200
DEPTHLABELFREQ: 100.000000
HEAVYGRIDFREQ: 50.000000
MEDIUMGRIDFREQ: 50.000000
LIGHTGRIDFREQ: 50.000000
#
#   TRACK 1
#
STARTTRACK: 
 LEFTX: 0.500000 inch
 RIGHTX: 3.000000 inch
 SCALETYPE: Linear
 NUMCHARTDIVISIONS: 10
CURVE: GR    0.000000   160.000000 (0,0,255)      Solid             2     Y    
BACKUP: 160.000000 320.000000 (131,0,131)    Solid             2    
CURVE: CALI  6.000000   16.000000  (0,131,131)    Dot               2     N    
CURVE: BIT   6.000000   16.000000  (255,0,255)    Short_Dash        2     N    
ENDTRACK: 
#
#   TRACK 2
#
STARTTRACK: 
 LEFTX: 3.500000 inch
 RIGHTX: 8.500000 inch
 SCALETYPE: Linear
 NUMCHARTDIVISIONS: 20
CURVE: DT    80.000000  40.000000  (131,0,255)    Solid             2     Y    
BACKUP: 120.000000 80.000000  (255,0,0)      Solid             2    
ENDTRACK: 
<DescLogPlotEnd>
<DescLog>Borehole Comp Sonic Log Gamma R
<DescOSVS>IES
<DescOSVS>
<DescOSVS>
~A DEPTH     GR               CALI             BIT              DT              
# ...
    2228.000 58.41982916      9.94022311       8.83680606       60.78406406     
    2228.500 59.06497806      9.97891707       8.83740716       57.99015015     
    2229.000 60.01097853      10.01051531      8.83800773       56.59659660     
    2229.500 63.91491696      10.23953802      8.83860867       56.55655656     
    2230.000 65.86107827      10.42724632      8.83920936       56.83683684     
    2230.500 67.04515032      10.61397472      8.83981042       57.03703704     
    2231.000 71.83079033      10.72942172      8.84041149       54.51451451     
    2231.500 74.58226850      10.72966688      8.84101252       53.39499499     
    2232.000 76.86129552      10.68889045      8.84161307       52.15215215     
    2232.500 80.14970060      10.50135424      8.84221417       52.15215215     
    2233.000 81.10681881      10.31141144      8.84281453       52.23223223     
    2233.500 81.10458396      10.25053645      8.84341593       51.07683684     
    2234.000 80.46652779      10.24850624      8.84401588       50.02112112     
    2234.500 77.89979199      10.25077830      8.84461778       49.42942943     
    2235.000 76.30397392      10.26833537      8.84521716       48.38838839     
    2235.500 75.33312072      10.29072012      8.84581967       52.91291291     
    2236.000 75.02127848      10.52811928      8.84641842       -999.25000000   
    2236.500 75.01286811      10.57039505      8.84702156       -999.25000000   
    2237.000 75.98063720      10.60827891      8.84761972       -999.25000000   
    2237.500 79.81552464      10.65026404      8.84822338       -999.25000000   
    2238.000 80.13730647      10.66871426      8.84882111       -999.25000000   
    2238.500 80.14304253      10.67006584      8.84942510       57.27727728     
    2239.000 80.13714769      10.54929345      8.84999415       51.75175175     
    2239.500 80.47072116      10.30291156      8.84999769       52.60380380     
    2240.000 80.45332688      10.00553597      8.84999476       60.81184749     
    2240.500 79.19934953      9.80996194       8.84999811       -999.25000000   
    2241.000 75.65316411      9.77047652       8.84999549       -999.25000000   
    2241.500 67.69639220      9.76968349       8.84999842       -999.25000000   
    2242.000 58.70543231      9.77069017       8.84999631       -999.25000000   
    2242.500 46.27621813      9.74956793       8.84999866       66.91366879     
    2243.000 36.63990979      9.59091954       8.84999718       65.85478674     
    2243.500 29.96974816      9.56975883       8.84999889       65.63344515     
    2244.000 28.96529838      9.57113083       8.84999802       65.65432801     
    2244.500 29.32933152      9.57072433       8.84999916       66.03298628     
    2245.000 30.88647824      9.57421149       8.84999880       65.85425243     
    2245.500 33.48584325      9.57537897       8.84999952       66.31290856     
    2246.000 36.32408412      9.57864969       8.84999948       64.49328965     
    2246.500 38.59840551      9.58003963       8.85000000       63.31165043     
    2247.000 38.88428167      9.58305716       8.85000000       62.13170089     
    2247.500 39.23515564      9.58451140       8.85000000       61.91090605     
    2248.000 39.20519228      9.58735103       8.85000000       61.56156156     
    2248.500 39.87044064      9.58900643       8.85000000       63.48348348     
    2249.000 45.59619998      9.59731895       8.85000000       64.64424424     
    2249.500 51.05371737      9.60654614       8.85000000       64.68468468     
    2250.000 54.54076266      9.61025280       8.85000000       62.76276276     
    2250.500 56.47854352      9.58959137       8.85000000       61.98918919     
    2251.000 57.72069630      9.59017335       8.85000000       61.28568569     
    2251.500 57.74770735      9.62949275       8.85000000       60.52052052     
    2252.000 57.71329843      9.63015300       8.85000000       55.31531532     
    2252.500 57.74403292      9.60950918       8.85000000       54.95495495     
    2253.000 56.75462571      9.49021880       8.85000000       53.39915916     
    2253.500 54.86962259      9.37957639       8.85000000       53.03303303     
    2254.000 53.88644046      9.32323391       8.85000000       56.43643644     
    2254.500 52.96234479      9.30986382       8.85000000       63.12312312     
    2255.000 52.29726992      9.31036934       8.85000000       63.20320320     
    2255.500 51.05398109      9.30997681       8.85000000       62.82384737     
    2256.000 48.79349211      9.31034289       8.85000000       54.61391263     
    2256.500 45.30446706      9.31010365       8.85000000       53.41775077     
    2257.000 42.72509449      9.31030265       8.85000000       54.77902089     
    2257.500 39.86509149      9.31020637       8.85000000       57.58296219     
    2258.000 36.96567916      9.31022965       8.85000000       57.77267654     
    2258.500 33.12815480      9.30715305       8.85000000       56.70528088     
    2259.000 28.32484153      9.29917071       8.85000000       55.72781596     
    2259.500 21.60854129      9.29031487       8.85000000       55.82626008     
    2260.000 16.81064359      9.29842469       8.85000000       56.96474932     
    2260.500 16.16766929      9.31032052       8.85000000       60.83332934     
    2261.000 16.81217530      9.31391648       8.85000000       60.84482964     
    2261.500 23.84102504      9.31918884       8.85000000       61.51704790     
    2262.000 35.04735548      9.32363823       8.85000000       61.28331263     
    2262.500 43.35053939      9.32905644       8.85000000       59.87916104     
    2263.000 55.52131450      9.37857583       8.85000000       59.92037891     
    2263.500 68.93781340      9.43026587       8.85000000       -999.25000000   
    2264.000 74.39434238      9.47754487       8.85000000       -999.25000000   
    2264.500 74.05266950      9.51751753       8.85000000       -999.25000000   
    2265.000 65.43755742      9.52952560       8.85000000       -999.25000000   
    2265.500 54.21938168      9.53024845       8.85000000       -999.25000000   
    2266.000 43.04609259      9.50956050       8.85000000       -999.25000000   
    2266.500 35.34793993      9.43034334       8.85000000       61.56423090     
    2267.000 29.61116146      9.41506935       8.85000000       56.51651652     
    2267.500 27.99394747      9.41299390       8.85000000       56.23623624     
    2268.000 26.40916363      9.41689896       8.85000000       56.23623624     
    2268.500 24.79768915      9.42171174       8.85000000       57.87787788     
    2269.000 23.84402387      9.42565375       8.85000000       59.59959960     
    2269.500 23.52302097      9.43019049       8.85000000       -999.25000000   
    2270.000 23.20145642      9.43452131       8.85000000       -999.25000000   
    2270.500 22.25239947      9.43875784       8.85000000       -999.25000000   
    2271.000 21.28085096      9.44355208       8.85000000       -999.25000000   
    2271.500 19.70679269      9.44734004       8.85000000       -999.25000000   
    2272.000 18.08289070      9.45926361       8.85000000       -999.25000000   
    2272.500 18.12019411      9.47779786       8.85000000       -999.25000000   
    2273.000 19.67927632      9.49885912       8.85000000       -999.25000000   
    2273.500 22.92065512      9.51686027       8.85000000       -999.25000000   
    2274.000 28.94095269      9.53838806       8.85000000       -999.25000000   
    2274.500 36.37200529      9.58105015       8.85000000       -999.25000000   
    2275.000 47.80233533      9.69122392       8.85000000       -999.25000000   
    2275.500 48.84390480      9.90859655       8.85000000       -999.25000000   
    2276.000 48.76035428      9.95109067       8.85000000       -999.25000000   
    2276.500 41.48513110      9.86861001       8.85000000       -999.25000000   
    2277.000 34.37156647      9.71131314       8.85000000       52.39239239     
