~Version Information Block
 VERS.                2.00:     CWLS LOG ASCII STANDARD - VERSION 2.000000
 WRAP.                  NO:     One Line Per Depth Step
#
~Well Information Block
#MNEM.UNIT                     Data                         Information
#----------   ------------------------------------------   ----------------
 STRT.FT                                       50.0000:     START DEPTH
 STOP.FT                                     3000.0000:     STOP DEPTH
 STEP.FT                                        0.5000:     STEP
 NULL.                                       -999.2500:     NULL VALUE
 COMP.                        BUTTES GAS & OIL COMPANY:     COMPANY
 WELL.                               #1-25 NAVAJO #461:     WELL
 FLD .                                         WILDCAT:     FIELD
 LOC .                             660 N & 660 W OF SE:     LOCATION
 SEC .                                              25:     SECTION
 TWP .                                             35N:     TOWNSHIP
 RANG.                                             28E:     RANGE
 CNTY.                                          APACHE:     COUNTY
 STAT.                                         ARIZONA:     STATE
 CTRY.                                                :     COUNTRY
 SRVC.                                    SCHLUMBERGER:     SERVICE COMPANY
 DATE.                                      06/07/1968:     DATE
 API .                                    02-001-20078:     API NUMBER
 UWI .                                    02-001-20078:     UWI NUMBER
 TVD .                                              NO:     TVD flag
 WSTA.                                              OG:     Well status
#
~Curve Information Block
#MNEM.UNIT       API CODE      Curve Description
#----------    -------------   -------------------
 DEPT.FT                   :   Depth in Feet
 GR  .GAPI     35 310 01 01:   Gamma Ray
 CALI.IN       70 280 01 01:   Caliper
 BIT .IN                   :   Bituminous Rocks Facies
 DT  .US/F     60 520 08 01:   Delta-T
#
~Parameter Information Block
#MNEM.UNIT            Value               Description
#----------    --------------------    -------------------
 DATE.                    6/7/1968:    Date As Month-Day-Year
 RUN .                         ONE:    Run Number
 PDAT.                          KB:    Permanent Datum
 EPD .FT                 6359.0000:    Elevation Of Perm. Datum
 LMF .                          KB:    Log Measured From
 FAPD.FT                   11.0000:    Feet Above Perm. Datum
 DMF .                          KB:    Drilling Measured From
 EKB .FT                 6359.0000:    Elevation Of Kelly Bushing
 EDF .FT                 6358.0000:    Elevation Of Derrick Floor
 EGL .FT                 6343.0000:    Elevation Of Ground Level
 TD  .FT                 3000.0000:    Total Depth
 DF  .         Precambrian metamor:    
 DD  .FT                 3000.0000:    Depth Driller
 DL  .FT                 2996.0000:    Depth Logger
 BLI .FT                 2994.0000:    Bottom Log Interval
 TLI .FT                  271.0000:    Top Log Interval
 CBL1.                         271:    Casing Bottom (Logger) 1
 BS  .IN                     8 3/4:    Bit Size
 DFT .                         FGM:    Drilling Fluid Type
 DFV .S                    55.0000:    Drilling Fluid Viscosity
 DFD .LB/G                  9.1000:    Drilling Fluid Density
 DFL .ML                    5.8000:    Drilling Fluid Loss
 DFPH.                      9.0000:    Drilling Fluid Ph
 MSS .                    MUD TANK:    Mud Sample Source
 RMS .OHMM                  2.8800:    Resistivity Of Mud Sample
 MST .DEGF                 73.0000:    Mud Sample Temperature
 RMF .OHMM                  2.8100:    Mud Filtrate Resistivity
 MFST.DEGF                 75.0000:    Mud Filtrate Sample Temperature
 MFSS.                           M:    Mud Filtrate Sample Source
 RMC .OHMM                  1.8700:    Mud Cake Resistivity
 MCST.DEGF                112.0000:    Mud Cake Sample Temperature
 RMB .OHMM                  1.8800:    Mud Resistivity At Bht
 BHT .DEGF                112.0000:    Bottom Hole Temperature
 TCS .                     3 HOURS:    Time Circulation Stopped
 TLAB.                     3 HOURS:    Time Logger At Bottom
 MRT .DEGF                112.0000:    Maximum Recorded Temperature
 LUN .                        4542:    Logging Unit Number
 LUL .                        FARM:    Logging Unit Location
 ENGI.                       RUSEN:    Engineer'S Name
 WITN.                 MR. WHITLEY:    Witness' Name
 DGBY.                          LS:    
 WSTA.                          OG:    
#
~Other Information Block
<DescLogPlotStart>   NEURALOG PLOT DEFINITION
PLOTDEFVERSION: 3
LASFILE: O:\OG_Data\RMCCS digitized wells project\Leah Spencer\las\0461BHCS.las
DEPTHSCALE: 600.000013
RESOLUTION: 200
DEPTHLABELFREQ: 100.000000
HEAVYGRIDFREQ: 50.000000
MEDIUMGRIDFREQ: 50.000000
LIGHTGRIDFREQ: 50.000000
#
#   TRACK 1
#
STARTTRACK: 
 LEFTX: 0.500000 inch
 RIGHTX: 3.000000 inch
 SCALETYPE: Linear
 NUMCHARTDIVISIONS: 10
CURVE: GR    0.000000   160.000000 (0,0,255)      Solid             2     Y    
BACKUP: 160.000000 320.000000 (131,0,131)    Solid             2    
CURVE: CALI  6.000000   16.000000  (0,131,131)    Dot               2     N    
CURVE: BIT   6.000000   16.000000  (255,0,255)    Short_Dash        2     N    
ENDTRACK: 
#
#   TRACK 2
#
STARTTRACK: 
 LEFTX: 3.500000 inch
 RIGHTX: 8.500000 inch
 SCALETYPE: Linear
 NUMCHARTDIVISIONS: 20
CURVE: DT    80.000000  40.000000  (131,0,255)    Solid             2     Y    
BACKUP: 120.000000 80.000000  (255,0,0)      Solid             2    
ENDTRACK: 
<DescLogPlotEnd>
<DescLog>Borehole Comp Sonic Log Gamma R
<DescOSVS>IES
<DescOSVS>
<DescOSVS>
~A DEPTH     GR               CALI             BIT              DT              
# ...
    2970.500 21.14401833      8.55012625       8.85000000       58.07643592     
    2971.000 20.32983012      8.54817761       8.85000000       58.64028223     
    2971.500 21.25575768      8.54680596       8.85000000       58.43767500     
    2972.000 21.88133391      8.54489003       8.85000000       58.92153983     
    2972.500 22.43561660      8.54333640       8.85000000       59.39837479     
    2973.000 23.19836798      8.54164199       8.85000000       57.32045134     
    2973.500 27.70511940      8.53983687       8.85000000       57.15629658     
    2974.000 26.39026562      8.53841291       8.85000000       57.12064548     
    2974.500 22.92676756      8.53633033       8.85000000       57.11624320     
    2975.000 23.62533029      8.53517488       8.85000000       57.36132400     
    2975.500 24.21655198      8.53283528       8.85000000       57.27564951     
    2976.000 24.10720958      8.53190503       8.85000000       56.68066800     
    2976.500 23.91569138      8.52950662       8.85000000       55.79579580     
    2977.000 22.78769859      8.53040026       8.85000000       55.19519520     
    2977.500 22.01512532      8.52947182       8.85000000       55.31531532     
    2978.000 22.12330138      8.39052268       8.85000000       58.35835836     
    2978.500 36.74791494      8.32963959       8.85000000       63.60360360     
    2979.000 71.84000000      8.33053260       8.85000000       66.78198198     
    2979.500 80.16000000      8.32969809       8.85000000       70.13013013     
    2980.000 71.50177627      8.33045684       8.85000000       70.09009009     
    2980.500 45.60000000      8.32978162       8.85000000       69.36936937     
    2981.000 44.32000000      8.33036325       8.85000000       69.40940941     
    2981.500 48.48000000      8.32987503       8.85000000       69.08908909     
    2982.000 63.84000000      8.33026811       8.85000000       68.76876877     
    2982.500 62.56000000      8.32996167       8.85000000       68.00800801     
    2983.000 53.28000000      8.33018768       8.85000000       65.36536537     
    2983.500 52.00000000      8.33002642       8.85000000       64.80480480     
    2984.000 45.60000000      8.33011001       8.85000000       62.36826827     
    2984.500 13.08033446      8.33003253       8.85000000       59.33546880     
    2985.000 2.08000000       8.33007995       8.85000000       56.03603604     
    2985.500 2.07012418       8.33000710       8.85000000       51.27127127     
    2986.000 2.05928877       8.32993874       8.85000000       50.27027027     
    2986.500 2.04845337       8.32987592       8.85000000       50.19019019     
    2987.000 2.01398840       8.32986306       8.85000000       50.19019019     
    2987.500 2.08668080       8.32996365       8.85000000       50.19786453     
    2988.000 2.00110511       8.32991104       8.85000000       50.20452452     
    2988.500 2.03904704       8.33003205       8.85000000       50.21118452     
    2989.000 1.98894067       8.32997337       8.85000000       50.21784451     
    2989.500 2.01141326       8.33005799       8.85000000       50.22450450     
    2990.000 1.98281223       8.32958815       8.85000000       50.27027027     
    2990.500 1.98276349       8.33014672       8.85000000       50.35035035     
    2991.000 1.96074952       8.32943195       8.85000000       50.27027027     
    2991.500 1.95770647       8.30271529       8.85000000       50.27027027     
    2992.000 1.93548652       8.26921522       8.85000000       50.23023023     
    2992.500 1.91843029       8.26049310       8.85000000       50.23023023     
    2993.000 1.90759894       8.22890974       8.85000000       50.31031031     
    2993.500 1.89676624       8.21114250       8.85000000       50.23023023     
    2994.000 1.88593437       8.12593997       8.85000000       50.15015015     
    2994.500 1.87510995       8.03164238       8.85000000       50.19019019     
    2995.000 1.86428154       8.14832450       8.85000000       50.19019019     
    2995.500 1.85344787       8.19980704       8.85000000       50.27027027     
    2996.000 1.84262190       8.24803345       8.85000000       50.27027027     
    2996.500 1.83178538       8.37172511       8.85000000       50.16570857     
    2997.000 1.82096256       8.32790008       8.85000000       50.11011011     
    2997.500 1.81012274       7.97207350       8.85000000       50.21132243     
    2998.000 1.79930323       7.96831664       8.85000000       50.31031031     
    2998.500 1.78846024       7.97191298       8.85000000       50.27232232     
    2999.000 1.77764361       7.96854076       8.85000000       50.19019019     
    2999.500 1.76679815       7.97160720       8.85000000       50.19012641     
    3000.000 1.76008231       7.96883549       8.85000000       50.19025261     
