~Version Information Block
 VERS.                2.00:     CWLS LOG ASCII STANDARD - VERSION 2.000000
 WRAP.                  NO:     One Line Per Depth Step
#
~Well Information Block
#MNEM.UNIT                     Data                         Information
#----------   ------------------------------------------   ----------------
 STRT.FT                                       50.0000:     START DEPTH
 STOP.FT                                     3000.0000:     STOP DEPTH
 STEP.FT                                        0.5000:     STEP
 NULL.                                       -999.2500:     NULL VALUE
 COMP.                        BUTTES GAS & OIL COMPANY:     COMPANY
 WELL.                               #1-25 NAVAJO #461:     WELL
 FLD .                                         WILDCAT:     FIELD
 LOC .                             660 N & 660 W OF SE:     LOCATION
 SEC .                                              25:     SECTION
 TWP .                                             35N:     TOWNSHIP
 RANG.                                             28E:     RANGE
 CNTY.                                          APACHE:     COUNTY
 STAT.                                         ARIZONA:     STATE
 CTRY.                                                :     COUNTRY
 SRVC.                                    SCHLUMBERGER:     SERVICE COMPANY
 DATE.                                      06/07/1968:     DATE
 API .                                    02-001-20078:     API NUMBER
 UWI .                                    02-001-20078:     UWI NUMBER
 TVD .                                              NO:     TVD flag
 WSTA.                                              OG:     Well status
#
~Curve Information Block
#MNEM.UNIT       API CODE      Curve Description
#----------    -------------   -------------------
 DEPT.FT                   :   Depth in Feet
 GR  .GAPI     35 310 01 01:   Gamma Ray
 CALI.IN       70 280 01 01:   Caliper
 BIT .IN                   :   Bituminous Rocks Facies
 DT  .US/F     60 520 08 01:   Delta-T
#
~Parameter Information Block
#MNEM.UNIT            Value               Description
#----------    --------------------    -------------------
 DATE.                    6/7/1968:    Date As Month-Day-Year
 RUN .                         ONE:    Run Number
 PDAT.                          KB:    Permanent Datum
 EPD .FT                 6359.0000:    Elevation Of Perm. Datum
 LMF .                          KB:    Log Measured From
 FAPD.FT                   11.0000:    Feet Above Perm. Datum
 DMF .                          KB:    Drilling Measured From
 EKB .FT                 6359.0000:    Elevation Of Kelly Bushing
 EDF .FT                 6358.0000:    Elevation Of Derrick Floor
 EGL .FT                 6343.0000:    Elevation Of Ground Level
 TD  .FT                 3000.0000:    Total Depth
 DF  .         Precambrian metamor:    
 DD  .FT                 3000.0000:    Depth Driller
 DL  .FT                 2996.0000:    Depth Logger
 BLI .FT                 2994.0000:    Bottom Log Interval
 TLI .FT                  271.0000:    Top Log Interval
 CBL1.                         271:    Casing Bottom (Logger) 1
 BS  .IN                     8 3/4:    Bit Size
 DFT .                         FGM:    Drilling Fluid Type
 DFV .S                    55.0000:    Drilling Fluid Viscosity
 DFD .LB/G                  9.1000:    Drilling Fluid Density
 DFL .ML                    5.8000:    Drilling Fluid Loss
 DFPH.                      9.0000:    Drilling Fluid Ph
 MSS .                    MUD TANK:    Mud Sample Source
 RMS .OHMM                  2.8800:    Resistivity Of Mud Sample
 MST .DEGF                 73.0000:    Mud Sample Temperature
 RMF .OHMM                  2.8100:    Mud Filtrate Resistivity
 MFST.DEGF                 75.0000:    Mud Filtrate Sample Temperature
 MFSS.                           M:    Mud Filtrate Sample Source
 RMC .OHMM                  1.8700:    Mud Cake Resistivity
 MCST.DEGF                112.0000:    Mud Cake Sample Temperature
 RMB .OHMM                  1.8800:    Mud Resistivity At Bht
 BHT .DEGF                112.0000:    Bottom Hole Temperature
 TCS .                     3 HOURS:    Time Circulation Stopped
 TLAB.                     3 HOURS:    Time Logger At Bottom
 MRT .DEGF                112.0000:    Maximum Recorded Temperature
 LUN .                        4542:    Logging Unit Number
 LUL .                        FARM:    Logging Unit Location
 ENGI.                       RUSEN:    Engineer'S Name
 WITN.                 MR. WHITLEY:    Witness' Name
 DGBY.                          LS:    
 WSTA.                          OG:    
#
~Other Information Block
<DescLogPlotStart>   NEURALOG PLOT DEFINITION
PLOTDEFVERSION: 3
LASFILE: O:\OG_Data\RMCCS digitized wells project\Leah Spencer\las\0461BHCS.las
DEPTHSCALE: 600.000013
RESOLUTION: 200
DEPTHLABELFREQ: 100.000000
HEAVYGRIDFREQ: 50.000000
MEDIUMGRIDFREQ: 50.000000
LIGHTGRIDFREQ: 50.000000
#
#   TRACK 1
#
STARTTRACK: 
 LEFTX: 0.500000 inch
 RIGHTX: 3.000000 inch
 SCALETYPE: Linear
 NUMCHARTDIVISIONS: 10
CURVE: GR    0.000000   160.000000 (0,0,255)      Solid             2     Y    
BACKUP: 160.000000 320.000000 (131,0,131)    Solid             2    
CURVE: CALI  6.000000   16.000000  (0,131,131)    Dot               2     N    
CURVE: BIT   6.000000   16.000000  (255,0,255)    Short_Dash        2     N    
ENDTRACK: 
#
#   TRACK 2
#
STARTTRACK: 
 LEFTX: 3.500000 inch
 RIGHTX: 8.500000 inch
 SCALETYPE: Linear
 NUMCHARTDIVISIONS: 20
CURVE: DT    80.000000  40.000000  (131,0,255)    Solid             2     Y    
BACKUP: 120.000000 80.000000  (255,0,0)      Solid             2    
ENDTRACK: 
<DescLogPlotEnd>
<DescLog>Borehole Comp Sonic Log Gamma R
<DescOSVS>IES
<DescOSVS>
<DescOSVS>
~A DEPTH     GR               CALI             BIT              DT              
# ...
    1683.500 59.65491950      10.15053434      8.84142215       73.44844845     
    1684.000 57.78372290      10.21110875      8.84145619       68.16282950     
    1684.500 57.73379374      10.32989897      8.84149023       63.89795510     
    1685.000 59.06215822      10.61929383      8.84152426       60.40040040     
    1685.500 60.29069089      11.02857848      8.84155830       60.92092092     
    1686.000 60.65653181      11.03024204      8.84159234       60.96096096     
    1686.500 59.01439845      10.78820034      8.84162638       59.51951952     
    1687.000 56.81662868      10.79086478      8.84166042       59.47947948     
    1687.500 56.46456103      10.88764713      8.84169446       59.83983984     
    1688.000 56.49226422      10.95122495      8.84172850       60.83263263     
    1688.500 59.03130626      10.98713663      8.84176253       61.12112112     
    1689.000 60.64242878      11.01160531      8.84179657       61.44144144     
    1689.500 62.87717776      11.02679566      8.84183061       60.88088088     
    1690.000 63.51242619      11.17979188      8.84186465       60.96337388     
    1690.500 63.52712375      11.16655199      8.84189869       60.44406519     
    1691.000 62.22550467      10.31313447      8.84193273       61.36382653     
    1691.500 57.77865538      10.09157296      8.84196677       62.60352688     
    1692.000 55.82353124      10.05325675      8.84200080       66.68071621     
    1692.500 56.18524872      10.04719973      8.84203484       71.37058467     
    1693.000 58.37990618      10.05313282      8.84206888       74.13447196     
    1693.500 60.02539057      10.04805258      8.84210292       75.81236677     
    1694.000 63.17594367      10.05254455      8.84213696       74.81593184     
    1694.500 64.49739032      10.04848784      8.84217100       75.53149420     
    1695.000 67.97111192      10.05189177      8.84220504       73.57469690     
    1695.500 68.32860668      10.05121352      8.84223907       73.56867878     
    1696.000 67.65741081      10.05574237      8.84227311       73.61383751     
    1696.500 66.08842681      10.05661486      8.84230715       74.64859143     
    1697.000 62.23136291      10.06013324      8.84234119       76.96081501     
    1697.500 61.60997239      10.06180796      8.84237523       78.21821822     
    1698.000 61.27821040      10.06486724      8.84240927       78.21821822     
    1698.500 61.28789649      10.06668336      8.84244331       73.97397397     
    1699.000 61.28125126      10.06889782      8.84247734       71.25125125     
    1699.500 61.28218722      10.07132433      8.84251138       70.13013013     
    1700.000 61.60040416      10.07365811      8.84254542       71.38714613     
    1700.500 62.55890528      10.07615706      8.84257946       72.49295963     
    1701.000 63.51918405      10.07845946      8.84261350       73.98698699     
    1701.500 63.51960596      10.08098723      8.84264754       77.38563564     
    1702.000 62.88335283      10.08325664      8.84268158       75.33533534     
    1702.500 60.64615991      10.08584403      8.84271561       74.85485485     
    1703.000 60.32945209      10.08836261      8.84274965       67.01981982     
    1703.500 60.96610196      10.09034793      8.84278369       61.78338338     
    1704.000 62.24607140      10.11107013      8.84281773       57.19719720     
    1704.500 64.47849908      10.12783522      8.84285177       57.11711712     
    1705.000 65.11715758      10.14523375      8.84288581       60.68068068     
    1705.500 66.07192873      10.15456408      8.84291985       61.06458458     
    1706.000 67.67027757      10.16429668      8.84295388       61.68168168     
    1706.500 69.26960071      10.16984293      8.84298792       61.83743744     
    1707.000 69.58826468      10.18098562      8.84302196       62.03883884     
    1707.500 69.27197412      10.18471421      8.84305600       62.48248248     
    1708.000 67.34779676      10.19800783      8.84309004       63.04304304     
    1708.500 65.43578377      10.19934299      8.84312408       62.88248248     
    1709.000 65.42728660      10.21412770      8.84315812       62.68268268     
    1709.500 66.71700411      10.20496538      8.84319215       62.72272272     
    1710.000 69.26271573      10.25529703      8.84322619       63.96396396     
    1710.500 70.23210456      10.58363123      8.84326023       66.37357357     
    1711.000 70.22261730      10.83605195      8.84329427       70.29669670     
    1711.500 68.63123940      11.00247004      8.84332831       74.04297631     
    1712.000 66.07146191      11.01598560      8.84336235       75.73573574     
    1712.500 62.23607869      11.00229713      8.84339639       75.57557558     
    1713.000 57.44752854      10.05678996      8.84343042       71.09845846     
    1713.500 52.96319094      10.02354626      8.84346446       66.21207875     
    1714.000 52.98252748      10.03623281      8.84349850       60.80080080     
    1714.500 54.24175197      10.02450350      8.84353254       60.44044044     
    1715.000 54.58977090      10.03543675      8.84356658       60.08008008     
    1715.500 54.23730939      10.02578188      8.84360062       61.16156156     
    1716.000 50.43467674      10.03435164      8.84363466       62.40768769     
    1716.500 50.07272785      10.02704175      8.84366869       63.46238238     
    1717.000 50.43191827      10.03292682      8.84370273       65.01317317     
    1717.500 51.35096134      10.02811918      8.84373677       66.90530531     
    1718.000 51.39423932      10.03199462      8.84377081       69.12939606     
    1718.500 51.35303830      10.02939729      8.84380485       69.96996997     
    1719.000 50.75321134      10.03155064      8.84383889       70.01001001     
    1719.500 51.03371049      10.03011799      8.84387293       68.28588589     
    1720.000 52.98483546      10.03105247      8.84390697       66.44644645     
    1720.500 55.50891673      10.03025244      8.84394100       66.64664665     
    1721.000 59.36973255      10.03006291      8.84397504       67.22402402     
    1721.500 63.50193778      10.05041488      8.84400908       69.09789790     
    1722.000 67.67927555      10.18983662      8.84404312       73.57357357     
    1722.500 71.50146989      10.43067606      8.84407716       75.01501502     
    1723.000 71.51490699      10.54978107      8.84411120       77.33733734     
    1723.500 70.86553818      10.71070311      8.84414524       77.41741742     
    1724.000 66.39415254      10.70941865      8.84417927       75.05505506     
    1724.500 60.95326174      10.45003473      8.84421331       73.89389389     
    1725.000 60.63195041      10.40961617      8.84424735       70.40540541     
    1725.500 61.26504957      10.44963665      8.84428139       68.72872873     
    1726.000 61.90723142      10.55015019      8.84431543       68.68868869     
    1726.500 61.90463474      10.62854256      8.84434947       69.16916917     
    1727.000 61.27248539      10.63126506      8.84438351       69.83959960     
    1727.500 60.30609749      10.48730935      8.84441754       70.21021021     
    1728.000 59.36036001      10.43295325      8.84445158       70.17017017     
    1728.500 58.38343904      10.42580972      8.84448562       69.92702346     
    1729.000 58.41014097      10.49446372      8.84451966       69.75455365     
    1729.500 59.65972196      10.58421155      8.84455370       69.60864713     
    1730.000 61.93822568      11.05543888      8.84458774       69.45131895     
    1730.500 64.13382254      11.60236591      8.84462178       69.35963029     
    1731.000 65.46288295      11.63590700      8.84465581       69.21186234     
    1731.500 65.73059144      11.62193571      8.84468985       67.80409176     
    1732.000 62.26926724      10.46586075      8.84472389       64.62084723     
    1732.500 55.49912895      10.32301357      8.84475793       62.03968268     
