~Version Information Block
 VERS.                2.00:     CWLS LOG ASCII STANDARD - VERSION 2.000000
 WRAP.                  NO:     One Line Per Depth Step
#
~Well Information Block
#MNEM.UNIT                     Data                         Information
#----------   ------------------------------------------   ----------------
 STRT.FT                                       50.0000:     START DEPTH
 STOP.FT                                     3000.0000:     STOP DEPTH
 STEP.FT                                        0.5000:     STEP
 NULL.                                       -999.2500:     NULL VALUE
 COMP.                        BUTTES GAS & OIL COMPANY:     COMPANY
 WELL.                               #1-25 NAVAJO #461:     WELL
 FLD .                                         WILDCAT:     FIELD
 LOC .                             660 N & 660 W OF SE:     LOCATION
 SEC .                                              25:     SECTION
 TWP .                                             35N:     TOWNSHIP
 RANG.                                             28E:     RANGE
 CNTY.                                          APACHE:     COUNTY
 STAT.                                         ARIZONA:     STATE
 CTRY.                                                :     COUNTRY
 SRVC.                                    SCHLUMBERGER:     SERVICE COMPANY
 DATE.                                      06/07/1968:     DATE
 API .                                    02-001-20078:     API NUMBER
 UWI .                                    02-001-20078:     UWI NUMBER
 TVD .                                              NO:     TVD flag
 WSTA.                                              OG:     Well status
#
~Curve Information Block
#MNEM.UNIT       API CODE      Curve Description
#----------    -------------   -------------------
 DEPT.FT                   :   Depth in Feet
 GR  .GAPI     35 310 01 01:   Gamma Ray
 CALI.IN       70 280 01 01:   Caliper
 BIT .IN                   :   Bituminous Rocks Facies
 DT  .US/F     60 520 08 01:   Delta-T
#
~Parameter Information Block
#MNEM.UNIT            Value               Description
#----------    --------------------    -------------------
 DATE.                    6/7/1968:    Date As Month-Day-Year
 RUN .                         ONE:    Run Number
 PDAT.                          KB:    Permanent Datum
 EPD .FT                 6359.0000:    Elevation Of Perm. Datum
 LMF .                          KB:    Log Measured From
 FAPD.FT                   11.0000:    Feet Above Perm. Datum
 DMF .                          KB:    Drilling Measured From
 EKB .FT                 6359.0000:    Elevation Of Kelly Bushing
 EDF .FT                 6358.0000:    Elevation Of Derrick Floor
 EGL .FT                 6343.0000:    Elevation Of Ground Level
 TD  .FT                 3000.0000:    Total Depth
 DF  .         Precambrian metamor:    
 DD  .FT                 3000.0000:    Depth Driller
 DL  .FT                 2996.0000:    Depth Logger
 BLI .FT                 2994.0000:    Bottom Log Interval
 TLI .FT                  271.0000:    Top Log Interval
 CBL1.                         271:    Casing Bottom (Logger) 1
 BS  .IN                     8 3/4:    Bit Size
 DFT .                         FGM:    Drilling Fluid Type
 DFV .S                    55.0000:    Drilling Fluid Viscosity
 DFD .LB/G                  9.1000:    Drilling Fluid Density
 DFL .ML                    5.8000:    Drilling Fluid Loss
 DFPH.                      9.0000:    Drilling Fluid Ph
 MSS .                    MUD TANK:    Mud Sample Source
 RMS .OHMM                  2.8800:    Resistivity Of Mud Sample
 MST .DEGF                 73.0000:    Mud Sample Temperature
 RMF .OHMM                  2.8100:    Mud Filtrate Resistivity
 MFST.DEGF                 75.0000:    Mud Filtrate Sample Temperature
 MFSS.                           M:    Mud Filtrate Sample Source
 RMC .OHMM                  1.8700:    Mud Cake Resistivity
 MCST.DEGF                112.0000:    Mud Cake Sample Temperature
 RMB .OHMM                  1.8800:    Mud Resistivity At Bht
 BHT .DEGF                112.0000:    Bottom Hole Temperature
 TCS .                     3 HOURS:    Time Circulation Stopped
 TLAB.                     3 HOURS:    Time Logger At Bottom
 MRT .DEGF                112.0000:    Maximum Recorded Temperature
 LUN .                        4542:    Logging Unit Number
 LUL .                        FARM:    Logging Unit Location
 ENGI.                       RUSEN:    Engineer'S Name
 WITN.                 MR. WHITLEY:    Witness' Name
 DGBY.                          LS:    
 WSTA.                          OG:    
#
~Other Information Block
<DescLogPlotStart>   NEURALOG PLOT DEFINITION
PLOTDEFVERSION: 3
LASFILE: O:\OG_Data\RMCCS digitized wells project\Leah Spencer\las\0461BHCS.las
DEPTHSCALE: 600.000013
RESOLUTION: 200
DEPTHLABELFREQ: 100.000000
HEAVYGRIDFREQ: 50.000000
MEDIUMGRIDFREQ: 50.000000
LIGHTGRIDFREQ: 50.000000
#
#   TRACK 1
#
STARTTRACK: 
 LEFTX: 0.500000 inch
 RIGHTX: 3.000000 inch
 SCALETYPE: Linear
 NUMCHARTDIVISIONS: 10
CURVE: GR    0.000000   160.000000 (0,0,255)      Solid             2     Y    
BACKUP: 160.000000 320.000000 (131,0,131)    Solid             2    
CURVE: CALI  6.000000   16.000000  (0,131,131)    Dot               2     N    
CURVE: BIT   6.000000   16.000000  (255,0,255)    Short_Dash        2     N    
ENDTRACK: 
#
#   TRACK 2
#
STARTTRACK: 
 LEFTX: 3.500000 inch
 RIGHTX: 8.500000 inch
 SCALETYPE: Linear
 NUMCHARTDIVISIONS: 20
CURVE: DT    80.000000  40.000000  (131,0,255)    Solid             2     Y    
BACKUP: 120.000000 80.000000  (255,0,0)      Solid             2    
ENDTRACK: 
<DescLogPlotEnd>
<DescLog>Borehole Comp Sonic Log Gamma R
<DescOSVS>IES
<DescOSVS>
<DescOSVS>
~A DEPTH     GR               CALI             BIT              DT              
# ...
    1337.000 65.76726623      9.77018007       8.80387531       63.60894228     
    1337.500 62.55501197      9.77004640       8.80394840       64.80480480     
    1338.000 55.85168481      9.77017958       8.80402149       66.84734735     
    1338.500 53.27963840      9.77003926       8.80409458       68.24824825     
    1339.000 53.28770328      9.77009818       8.80416766       68.40840841     
    1339.500 53.59602232      9.77003446       8.80424075       67.43743744     
    1340.000 59.04184511      9.77011567       8.80431384       66.52652653     
    1340.500 64.14991009      9.77003122       8.80438693       65.96596597     
    1341.000 65.75772421      9.77013592       8.80446002       67.00700701     
    1341.500 66.07130074      9.78112392       8.80453311       69.46317746     
    1342.000 66.07999315      9.79770483       8.80460620       70.49049049     
    1342.500 66.07531664      9.81402253       8.80467929       69.69369369     
    1343.000 66.08369298      9.83062568       8.80475238       67.37194337     
    1343.500 65.43983465      9.84692259       8.80482547       64.72472472     
    1344.000 63.21352145      9.86354586       8.80489856       64.12412412     
    1344.500 61.92514716      9.88894843       8.80497165       64.52452452     
    1345.000 61.93834485      9.92072422       8.80504474       64.64464464     
    1345.500 62.88019412      9.95000589       8.80511782       64.40440440     
    1346.000 63.53255894      9.95402331       8.80519091       62.96296296     
    1346.500 63.51487194      9.95744934       8.80526400       61.68168168     
    1347.000 63.21358364      9.96106004       8.80533709       61.44144144     
    1347.500 63.19021526      9.96442213       8.80541018       61.63663664     
    1348.000 63.53816795      9.96804801       8.80548327       62.03203203     
    1348.500 64.46319689      9.97159616       8.80555636       62.31717432     
    1349.000 65.94664497      9.97522046       8.80562945       62.59659660     
    1349.500 67.54564647      9.97878627       8.80570254       63.68168168     
    1350.000 69.23675704      9.98239941       8.80577563       65.16516517     
    1350.500 70.82417630      9.98599233       8.80584872       67.48748749     
    1351.000 72.52769355      9.98980312       8.80592181       67.96796797     
    1351.500 74.99311133      10.00217375      8.80599490       66.96216216     
    1352.000 78.26155259      10.02976068      8.80606799       65.16516517     
    1352.500 83.62002941      10.06981554      8.80614107       62.26626627     
    1353.000 83.70106234      10.20960162      8.80621416       61.68168168     
    1353.500 83.62096078      10.34961186      8.80628725       62.61701702     
    1354.000 83.06401420      10.32947087      8.80636034       64.09102436     
    1354.500 81.38410757      10.19785324      8.80643343       64.80480480     
    1355.000 78.26538101      9.94100580       8.80650652       64.56456456     
    1355.500 74.67470887      9.75021156       8.80657961       63.41888555     
    1356.000 67.39234907      9.74587594       8.80665270       62.24224224     
    1356.500 63.17623952      9.74121173       8.80672579       62.24224224     
    1357.000 60.67551316      9.73599737       8.80679888       62.52252252     
    1357.500 59.98979254      9.73024705       8.80687197       62.71471471     
    1358.000 59.71014353      9.72989393       8.80694506       63.04304304     
    1358.500 59.35684864      9.73019703       8.80701815       63.16316316     
    1359.000 59.38221026      9.72987300       8.80709124       64.28428428     
    1359.500 59.36327532      9.73021594       8.80716432       64.52452452     
    1360.000 60.01862579      9.72988865       8.80723741       64.68468468     
    1360.500 60.97037360      9.73026450       8.80731050       64.27307307     
    1361.000 63.53380501      9.73001217       8.80738359       63.63623624     
    1361.500 64.81059268      9.73038642       8.80745668       63.02193959     
    1362.000 64.81210707      9.72998990       8.80752977       62.71452629     
    1362.500 64.81041552      9.73026790       8.80760286       62.40711300     
    1363.000 65.13028329      9.72974481       8.80767595       61.88188188     
    1363.500 67.68378390      9.73012349       8.80774904       61.88188188     
    1364.000 71.83933633      9.72971673       8.80782213       61.92192192     
    1364.500 75.03099005      9.73013711       8.80789522       62.39039039     
    1365.000 76.63491544      9.71769669       8.80796831       62.88288288     
    1365.500 76.62766808      9.63022551       8.80804140       64.08728729     
    1366.000 73.76000579      9.56985542       8.80811449       64.96496496     
    1366.500 70.55196207      9.55028381       8.80818757       64.92492492     
    1367.000 68.64552729      9.54989745       8.80826066       64.72472472     
    1367.500 67.35192920      9.55025474       8.80833375       63.92792793     
    1368.000 67.36633847      9.54993364       8.80840684       62.80280280     
    1368.500 68.94870944      9.55021629       8.80847993       62.56256256     
    1369.000 70.56626514      9.54997587       8.80855302       62.04204204     
    1369.500 72.14714219      9.55017541       8.80862611       61.88188188     
    1370.000 73.12620688      9.55001684       8.80869920       62.24224224     
    1370.500 74.06563440      9.55013937       8.80877229       62.04204204     
    1371.000 74.72528572      9.55004965       8.80884538       62.52252252     
    1371.500 74.70561689      9.55011442       8.80891847       62.56256256     
    1372.000 74.08833632      9.55046360       8.80899156       61.96196196     
    1372.500 74.54223260      9.55140091       8.80906465       61.96196196     
    1373.000 75.07089843      9.55225791       8.80913774       63.32332332     
    1373.500 76.30999107      9.55312521       8.80921082       63.12312312     
    1374.000 76.96713539      9.55400984       8.80928391       63.28328328     
    1374.500 76.30856087      9.55491117       8.80935700       62.48248248     
    1375.000 74.40638913      9.55581396       8.80943009       61.28128128     
    1375.500 72.15078448      9.55671539       8.80950318       62.24224224     
    1376.000 70.24816199      9.55761806       8.80957627       62.64264264     
    1376.500 69.91304593      9.55851963       8.80964936       64.04404404     
    1377.000 71.20773421      9.55942214       8.80972245       68.88888889     
    1377.500 72.79206174      9.56032388       8.80979554       72.81281281     
    1378.000 73.76738507      9.56122622       8.80986863       -999.25000000   
    1378.500 73.43331020      9.56212812       8.80994172       -999.25000000   
    1379.000 71.53158583      9.56303031       8.81001481       -999.25000000   
    1379.500 70.23581035      9.56393234       8.81008790       -999.25000000   
    1380.000 70.89314161      9.56483484       8.81016099       -999.25000000   
    1380.500 73.11308495      9.56573733       8.81023407       -999.25000000   
    1381.000 75.05104237      9.56663982       8.81030716       -999.25000000   
    1381.500 76.94905388      9.56754231       8.81038025       -999.25000000   
    1382.000 77.60937515      9.56844480       8.81045334       -999.25000000   
    1382.500 76.94704114      9.56934729       8.81052643       60.05184059     
    1383.000 75.68962552      9.57024979       8.81059952       60.05184059     
    1383.500 74.06676630      9.57115228       8.81067261       61.41364917     
    1384.000 72.17085639      9.57205477       8.81074570       61.86839061     
    1384.500 71.50908214      9.57295726       8.81081879       63.97794816     
    1385.000 71.53270101      9.57385975       8.81089188       65.87046350     
    1385.500 72.79086562      9.57476225       8.81096497       74.02939358     
    1386.000 74.09127985      9.57566474       8.81103806       76.37768077     
