~Version Information Block
 VERS.                2.00:     CWLS LOG ASCII STANDARD - VERSION 2.000000
 WRAP.                  NO:     One Line Per Depth Step
#
~Well Information Block
#MNEM.UNIT                     Data                         Information
#----------   ------------------------------------------   ----------------
 STRT.FT                                       50.0000:     START DEPTH
 STOP.FT                                     3000.0000:     STOP DEPTH
 STEP.FT                                        0.5000:     STEP
 NULL.                                       -999.2500:     NULL VALUE
 COMP.                        BUTTES GAS & OIL COMPANY:     COMPANY
 WELL.                               #1-25 NAVAJO #461:     WELL
 FLD .                                         WILDCAT:     FIELD
 LOC .                             660 N & 660 W OF SE:     LOCATION
 SEC .                                              25:     SECTION
 TWP .                                             35N:     TOWNSHIP
 RANG.                                             28E:     RANGE
 CNTY.                                          APACHE:     COUNTY
 STAT.                                         ARIZONA:     STATE
 CTRY.                                                :     COUNTRY
 SRVC.                                    SCHLUMBERGER:     SERVICE COMPANY
 DATE.                                      06/07/1968:     DATE
 API .                                    02-001-20078:     API NUMBER
 UWI .                                    02-001-20078:     UWI NUMBER
 TVD .                                              NO:     TVD flag
 WSTA.                                              OG:     Well status
#
~Curve Information Block
#MNEM.UNIT       API CODE      Curve Description
#----------    -------------   -------------------
 DEPT.FT                   :   Depth in Feet
 GR  .GAPI     35 310 01 01:   Gamma Ray
 CALI.IN       70 280 01 01:   Caliper
 BIT .IN                   :   Bituminous Rocks Facies
 DT  .US/F     60 520 08 01:   Delta-T
#
~Parameter Information Block
#MNEM.UNIT            Value               Description
#----------    --------------------    -------------------
 DATE.                    6/7/1968:    Date As Month-Day-Year
 RUN .                         ONE:    Run Number
 PDAT.                          KB:    Permanent Datum
 EPD .FT                 6359.0000:    Elevation Of Perm. Datum
 LMF .                          KB:    Log Measured From
 FAPD.FT                   11.0000:    Feet Above Perm. Datum
 DMF .                          KB:    Drilling Measured From
 EKB .FT                 6359.0000:    Elevation Of Kelly Bushing
 EDF .FT                 6358.0000:    Elevation Of Derrick Floor
 EGL .FT                 6343.0000:    Elevation Of Ground Level
 TD  .FT                 3000.0000:    Total Depth
 DF  .         Precambrian metamor:    
 DD  .FT                 3000.0000:    Depth Driller
 DL  .FT                 2996.0000:    Depth Logger
 BLI .FT                 2994.0000:    Bottom Log Interval
 TLI .FT                  271.0000:    Top Log Interval
 CBL1.                         271:    Casing Bottom (Logger) 1
 BS  .IN                     8 3/4:    Bit Size
 DFT .                         FGM:    Drilling Fluid Type
 DFV .S                    55.0000:    Drilling Fluid Viscosity
 DFD .LB/G                  9.1000:    Drilling Fluid Density
 DFL .ML                    5.8000:    Drilling Fluid Loss
 DFPH.                      9.0000:    Drilling Fluid Ph
 MSS .                    MUD TANK:    Mud Sample Source
 RMS .OHMM                  2.8800:    Resistivity Of Mud Sample
 MST .DEGF                 73.0000:    Mud Sample Temperature
 RMF .OHMM                  2.8100:    Mud Filtrate Resistivity
 MFST.DEGF                 75.0000:    Mud Filtrate Sample Temperature
 MFSS.                           M:    Mud Filtrate Sample Source
 RMC .OHMM                  1.8700:    Mud Cake Resistivity
 MCST.DEGF                112.0000:    Mud Cake Sample Temperature
 RMB .OHMM                  1.8800:    Mud Resistivity At Bht
 BHT .DEGF                112.0000:    Bottom Hole Temperature
 TCS .                     3 HOURS:    Time Circulation Stopped
 TLAB.                     3 HOURS:    Time Logger At Bottom
 MRT .DEGF                112.0000:    Maximum Recorded Temperature
 LUN .                        4542:    Logging Unit Number
 LUL .                        FARM:    Logging Unit Location
 ENGI.                       RUSEN:    Engineer'S Name
 WITN.                 MR. WHITLEY:    Witness' Name
 DGBY.                          LS:    
 WSTA.                          OG:    
#
~Other Information Block
<DescLogPlotStart>   NEURALOG PLOT DEFINITION
PLOTDEFVERSION: 3
LASFILE: O:\OG_Data\RMCCS digitized wells project\Leah Spencer\las\0461BHCS.las
DEPTHSCALE: 600.000013
RESOLUTION: 200
DEPTHLABELFREQ: 100.000000
HEAVYGRIDFREQ: 50.000000
MEDIUMGRIDFREQ: 50.000000
LIGHTGRIDFREQ: 50.000000
#
#   TRACK 1
#
STARTTRACK: 
 LEFTX: 0.500000 inch
 RIGHTX: 3.000000 inch
 SCALETYPE: Linear
 NUMCHARTDIVISIONS: 10
CURVE: GR    0.000000   160.000000 (0,0,255)      Solid             2     Y    
BACKUP: 160.000000 320.000000 (131,0,131)    Solid             2    
CURVE: CALI  6.000000   16.000000  (0,131,131)    Dot               2     N    
CURVE: BIT   6.000000   16.000000  (255,0,255)    Short_Dash        2     N    
ENDTRACK: 
#
#   TRACK 2
#
STARTTRACK: 
 LEFTX: 3.500000 inch
 RIGHTX: 8.500000 inch
 SCALETYPE: Linear
 NUMCHARTDIVISIONS: 20
CURVE: DT    80.000000  40.000000  (131,0,255)    Solid             2     Y    
BACKUP: 120.000000 80.000000  (255,0,0)      Solid             2    
ENDTRACK: 
<DescLogPlotEnd>
<DescLog>Borehole Comp Sonic Log Gamma R
<DescOSVS>IES
<DescOSVS>
<DescOSVS>
~A DEPTH     GR               CALI             BIT              DT              
# ...
     990.500 72.52284671      9.86996927       8.75417077       70.92399066     
     991.000 72.79240668      9.86992594       8.75382202       71.09109109     
     991.500 73.15650994      9.86997397       8.75347326       71.17117117     
     992.000 75.67711632      9.86992758       8.75312451       70.93093093     
     992.500 78.58350691      9.86996209       8.75277575       70.61061061     
     993.000 80.47444578      9.86989736       8.75242700       71.01101101     
     993.500 80.16851770      9.86204567       8.75207824       71.21121121     
     994.000 77.91161477      9.84859993       8.75172949       72.49249249     
     994.500 75.68576256      9.83543150       8.75138074       72.85285285     
     995.000 75.67549167      9.82194889       8.75103198       72.77277277     
     995.500 76.96506026      9.81000855       8.75068323       73.49349349     
     996.000 82.00156451      9.80715468       8.75033447       73.73373373     
     996.500 88.15913868      9.80521159       8.74998572       73.73373373     
     997.000 92.29586104      9.80235804       8.74963696       73.89389389     
     997.500 97.43875672      9.80063630       8.74928821       73.69369369     
     998.000 98.04457916      9.79754529       8.74893946       72.73273273     
     998.500 98.08571025      9.79606676       8.74859070       72.77277277     
     999.000 98.03629298      9.79273752       8.74824195       72.45245245     
     999.500 96.81315995      9.79148161       8.74789319       71.59639640     
    1000.000 93.23488776      9.76675829       8.74754444       70.81081081     
    1000.500 85.30868784      9.72813485       8.74719569       67.47595596     
    1001.000 76.92496442      9.68932198       8.74684693       65.44544545     
    1001.500 65.16761720      9.55590981       8.74649818       62.72272272     
    1002.000 64.45351961      9.50947618       8.74614942       62.60260260     
    1002.500 65.80500860      9.47079815       8.74580067       63.96396396     
    1003.000 73.40798488      9.46955403       8.74545191       67.36736737     
    1003.500 80.50985272      9.47071126       8.74510316       72.81944802     
    1004.000 81.08908121      9.46964739       8.74475441       76.00992993     
    1004.500 81.14399655      9.47059793       8.74440565       76.86509367     
    1005.000 80.45986155      9.46976699       8.74405690       77.33013013     
    1005.500 79.54120489      9.47046898       8.74370814       78.44756757     
    1006.000 78.55089785      9.46989112       8.74335939       79.81981982     
    1006.500 76.97593414      9.47034670       8.74301064       78.71092911     
    1007.000 76.00006647      9.46999782       8.74266188       77.25725726     
    1007.500 75.05003032      9.47025168       8.74231313       74.33433433     
    1008.000 74.72389930      9.47004718       8.74196437       73.41341341     
    1008.500 75.36439801      9.47016781       8.74161562       69.84984985     
    1009.000 77.92229384      9.47003627       8.74126686       73.57357357     
    1009.500 80.47140249      9.47003644       8.74091811       76.97034177     
    1010.000 80.48022932      9.47000000       8.74056936       -999.25000000   
    1010.500 78.86719153      9.47000000       8.74022060       -999.25000000   
    1011.000 76.96721135      9.47000000       8.73987185       -999.25000000   
    1011.500 73.75551497      9.47000000       8.73952309       -999.25000000   
    1012.000 69.29716207      9.47000000       8.73917434       -999.25000000   
    1012.500 68.96529894      9.47000000       8.73882559       -999.25000000   
    1013.000 69.62337425      9.47000000       8.73847683       -999.25000000   
    1013.500 70.88971698      9.47000000       8.73812808       -999.25000000   
    1014.000 71.85991966      9.47000000       8.73777932       72.45245245     
    1014.500 71.85128852      9.47000000       8.73743057       69.64804805     
    1015.000 71.85432534      9.47000000       8.73708181       67.96796797     
    1015.500 72.49459432      9.47000000       8.73673306       70.49023272     
    1016.000 78.48623460      9.47000000       8.73638431       70.69090676     
    1016.500 84.96806297      9.47000000       8.73603555       71.29181944     
    1017.000 85.26901614      9.47000000       8.73568680       74.85357724     
    1017.500 84.71070781      9.47000000       8.73533804       72.97510261     
    1018.000 80.21403168      9.47000000       8.73498964       72.23270108     
    1018.500 74.73789921      9.47000000       8.73464099       70.58048041     
    1019.000 74.39081579      9.47000000       8.73429270       68.40652109     
    1019.500 75.06561678      9.47000000       8.73394389       67.01162223     
    1020.000 82.38192550      9.47000000       8.73359580       68.04600572     
    1020.500 90.41708763      9.47000000       8.73324677       69.10922069     
    1021.000 96.44794135      9.47000000       8.73289892       70.24788826     
    1021.500 98.73584241      9.47000000       8.73254963       71.25420338     
    1022.000 98.68435834      9.47000000       8.73220203       71.36850176     
    1022.500 98.74105316      9.47000000       8.73185251       71.05295130     
    1023.000 98.04006985      9.47000000       8.73150513       70.96880776     
    1023.500 97.46249741      9.47000000       8.73115542       71.57157157     
    1024.000 95.79939947      9.47000000       8.73080818       72.01201201     
    1024.500 91.71186237      9.47000000       8.73045838       72.05205205     
    1025.000 86.84672093      9.47000000       8.73011118       72.25225225     
    1025.500 82.11976903      9.47000000       8.73014373       71.85185185     
    1026.000 82.04883434      9.47000000       8.73034740       71.93193193     
    1026.500 85.63214086      9.47000000       8.73054868       71.92072072     
    1027.000 97.07730390      9.47000000       8.73075219       71.81181181     
    1027.500 100.01592234     9.47000000       8.73095367       71.61161161     
    1028.000 100.27833885     9.47000000       8.73115695       71.53153153     
    1028.500 99.69315147      9.47000000       8.73135868       70.29029029     
    1029.000 99.32048478      9.47000000       8.73156170       69.28928929     
    1029.500 102.24734576     9.47000000       8.73176368       68.96896897     
    1030.000 102.84182719     9.47000000       8.73196647       69.54314314     
    1030.500 102.24595451     9.47000000       8.73216866       71.04624625     
    1031.000 97.08873619      9.47000000       8.73237127       74.13196477     
    1031.500 91.05931180      9.47000000       8.73257360       75.09729329     
    1032.000 90.37405994      9.47000000       8.73277612       75.89400937     
    1032.500 91.38391534      9.47000000       8.73297849       76.01782104     
    1033.000 93.56833620      9.47000000       8.73318102       75.37408986     
    1033.500 95.22942373      9.47000000       8.73338371       75.33667485     
    1034.000 95.17022835      9.47000000       8.73358641       75.61465992     
    1034.500 92.67050364      9.47000000       8.73378910       75.49653104     
    1035.000 87.49298664      9.47000000       8.73399179       75.87919442     
    1035.500 80.20172706      9.47000000       8.73419448       76.69735889     
    1036.000 73.73374977      9.47000000       8.73439717       76.97623383     
    1036.500 63.57178591      9.47000000       8.73459986       77.89788249     
    1037.000 62.21586750      9.47000000       8.73480255       77.97676526     
    1037.500 62.93433586      9.47000000       8.73500524       77.61732052     
    1038.000 64.13497581      9.47000000       8.73520793       77.61619281     
    1038.500 67.09358440      9.47000000       8.73541062       77.89760623     
    1039.000 74.04934621      9.47000000       8.73561331       78.97897898     
    1039.500 78.92329278      9.47000000       8.73581601       79.40116116     
