~Version Information Block
 VERS.                2.00:     CWLS LOG ASCII STANDARD - VERSION 2.000000
 WRAP.                  NO:     One Line Per Depth Step
#
~Well Information Block
#MNEM.UNIT                     Data                         Information
#----------   ------------------------------------------   ----------------
 STRT.FT                                       50.0000:     START DEPTH
 STOP.FT                                     3000.0000:     STOP DEPTH
 STEP.FT                                        0.5000:     STEP
 NULL.                                       -999.2500:     NULL VALUE
 COMP.                        BUTTES GAS & OIL COMPANY:     COMPANY
 WELL.                               #1-25 NAVAJO #461:     WELL
 FLD .                                         WILDCAT:     FIELD
 LOC .                             660 N & 660 W OF SE:     LOCATION
 SEC .                                              25:     SECTION
 TWP .                                             35N:     TOWNSHIP
 RANG.                                             28E:     RANGE
 CNTY.                                          APACHE:     COUNTY
 STAT.                                         ARIZONA:     STATE
 CTRY.                                                :     COUNTRY
 SRVC.                                    SCHLUMBERGER:     SERVICE COMPANY
 DATE.                                      06/07/1968:     DATE
 API .                                    02-001-20078:     API NUMBER
 UWI .                                    02-001-20078:     UWI NUMBER
 TVD .                                              NO:     TVD flag
 WSTA.                                              OG:     Well status
#
~Curve Information Block
#MNEM.UNIT       API CODE      Curve Description
#----------    -------------   -------------------
 DEPT.FT                   :   Depth in Feet
 GR  .GAPI     35 310 01 01:   Gamma Ray
 CALI.IN       70 280 01 01:   Caliper
 BIT .IN                   :   Bituminous Rocks Facies
 DT  .US/F     60 520 08 01:   Delta-T
#
~Parameter Information Block
#MNEM.UNIT            Value               Description
#----------    --------------------    -------------------
 DATE.                    6/7/1968:    Date As Month-Day-Year
 RUN .                         ONE:    Run Number
 PDAT.                          KB:    Permanent Datum
 EPD .FT                 6359.0000:    Elevation Of Perm. Datum
 LMF .                          KB:    Log Measured From
 FAPD.FT                   11.0000:    Feet Above Perm. Datum
 DMF .                          KB:    Drilling Measured From
 EKB .FT                 6359.0000:    Elevation Of Kelly Bushing
 EDF .FT                 6358.0000:    Elevation Of Derrick Floor
 EGL .FT                 6343.0000:    Elevation Of Ground Level
 TD  .FT                 3000.0000:    Total Depth
 DF  .         Precambrian metamor:    
 DD  .FT                 3000.0000:    Depth Driller
 DL  .FT                 2996.0000:    Depth Logger
 BLI .FT                 2994.0000:    Bottom Log Interval
 TLI .FT                  271.0000:    Top Log Interval
 CBL1.                         271:    Casing Bottom (Logger) 1
 BS  .IN                     8 3/4:    Bit Size
 DFT .                         FGM:    Drilling Fluid Type
 DFV .S                    55.0000:    Drilling Fluid Viscosity
 DFD .LB/G                  9.1000:    Drilling Fluid Density
 DFL .ML                    5.8000:    Drilling Fluid Loss
 DFPH.                      9.0000:    Drilling Fluid Ph
 MSS .                    MUD TANK:    Mud Sample Source
 RMS .OHMM                  2.8800:    Resistivity Of Mud Sample
 MST .DEGF                 73.0000:    Mud Sample Temperature
 RMF .OHMM                  2.8100:    Mud Filtrate Resistivity
 MFST.DEGF                 75.0000:    Mud Filtrate Sample Temperature
 MFSS.                           M:    Mud Filtrate Sample Source
 RMC .OHMM                  1.8700:    Mud Cake Resistivity
 MCST.DEGF                112.0000:    Mud Cake Sample Temperature
 RMB .OHMM                  1.8800:    Mud Resistivity At Bht
 BHT .DEGF                112.0000:    Bottom Hole Temperature
 TCS .                     3 HOURS:    Time Circulation Stopped
 TLAB.                     3 HOURS:    Time Logger At Bottom
 MRT .DEGF                112.0000:    Maximum Recorded Temperature
 LUN .                        4542:    Logging Unit Number
 LUL .                        FARM:    Logging Unit Location
 ENGI.                       RUSEN:    Engineer'S Name
 WITN.                 MR. WHITLEY:    Witness' Name
 DGBY.                          LS:    
 WSTA.                          OG:    
#
~Other Information Block
<DescLogPlotStart>   NEURALOG PLOT DEFINITION
PLOTDEFVERSION: 3
LASFILE: O:\OG_Data\RMCCS digitized wells project\Leah Spencer\las\0461BHCS.las
DEPTHSCALE: 600.000013
RESOLUTION: 200
DEPTHLABELFREQ: 100.000000
HEAVYGRIDFREQ: 50.000000
MEDIUMGRIDFREQ: 50.000000
LIGHTGRIDFREQ: 50.000000
#
#   TRACK 1
#
STARTTRACK: 
 LEFTX: 0.500000 inch
 RIGHTX: 3.000000 inch
 SCALETYPE: Linear
 NUMCHARTDIVISIONS: 10
CURVE: GR    0.000000   160.000000 (0,0,255)      Solid             2     Y    
BACKUP: 160.000000 320.000000 (131,0,131)    Solid             2    
CURVE: CALI  6.000000   16.000000  (0,131,131)    Dot               2     N    
CURVE: BIT   6.000000   16.000000  (255,0,255)    Short_Dash        2     N    
ENDTRACK: 
#
#   TRACK 2
#
STARTTRACK: 
 LEFTX: 3.500000 inch
 RIGHTX: 8.500000 inch
 SCALETYPE: Linear
 NUMCHARTDIVISIONS: 20
CURVE: DT    80.000000  40.000000  (131,0,255)    Solid             2     Y    
BACKUP: 120.000000 80.000000  (255,0,0)      Solid             2    
ENDTRACK: 
<DescLogPlotEnd>
<DescLog>Borehole Comp Sonic Log Gamma R
<DescOSVS>IES
<DescOSVS>
<DescOSVS>
~A DEPTH     GR               CALI             BIT              DT              
# ...
    2426.000 29.55543745      9.24982715       8.85000000       50.27027027     
    2426.500 25.78546765      9.20795548       8.85000000       50.27027027     
    2427.000 23.16743165      9.16990814       8.85000000       50.79079079     
    2427.500 20.66745839      9.14659980       8.85000000       52.95295295     
    2428.000 18.37923988      9.12386812       8.85000000       52.75275275     
    2428.500 17.14467953      9.10145933       8.85000000       52.23223223     
    2429.000 16.14947191      9.09041916       8.85000000       52.39239239     
    2429.500 15.22068115      9.09133606       8.85000000       50.79079079     
    2430.000 15.19889229      9.09205197       8.85000000       50.31031031     
    2430.500 15.21478968      9.09292692       8.85000000       51.07107107     
    2431.000 15.84433635      9.09368232       8.85000000       50.79079079     
    2431.500 16.48847576      9.09452195       8.85000000       50.15015015     
    2432.000 16.17070269      9.09530700       8.85000000       49.74974975     
    2432.500 14.88598985      9.09612389       8.85000000       49.26926927     
    2433.000 12.97472063      9.09692387       8.85000000       49.70620621     
    2433.500 12.32268317      9.09773415       8.85000000       50.11011011     
    2434.000 12.33409348      9.09854160       8.85000000       50.15015015     
    2434.500 12.95818578      9.09932201       8.85000000       50.11011011     
    2435.000 13.61183331      9.10013104       8.85000000       49.90990991     
    2435.500 14.87444430      9.10091045       8.85000000       49.42942943     
    2436.000 15.84823451      9.10172386       8.85000000       50.79079079     
    2436.500 17.75153564      9.10249644       8.85000000       55.63563564     
    2437.000 19.68292773      9.10333162       8.85000000       55.87587588     
    2437.500 20.31023129      9.10409976       8.85000000       56.15615616     
    2438.000 20.00251414      9.10495199       8.85000000       52.78192478     
    2438.500 18.07567132      9.10570188       8.85000000       49.58958959     
    2439.000 15.84755772      9.10657275       8.85000000       49.66966967     
    2439.500 15.20033119      9.10732482       8.85000000       50.11011011     
    2440.000 13.92709318      9.10821093       8.85000000       50.47047047     
    2440.500 12.96003739      9.10894724       8.85000000       50.91091091     
    2441.000 12.96443339      9.10981091       8.85000000       50.87087087     
    2441.500 12.95823863      9.12073379       8.85000000       49.90990991     
    2442.000 13.60366321      9.13640705       8.85000000       49.62962963     
    2442.500 14.23674282      9.14996066       8.85000000       49.30930931     
    2443.000 14.88407567      9.14996493       8.85000000       48.90890891     
    2443.500 15.51579086      9.14998829       8.85000000       48.90890891     
    2444.000 15.84490178      9.14993445       8.85000000       48.94894895     
    2444.500 15.83669066      9.15002501       8.85000000       48.90890891     
    2445.000 16.48660657      9.14989777       8.85000000       48.82882883     
    2445.500 18.07687065      9.15006474       8.85000000       48.78878879     
    2446.000 20.00629188      9.14986144       8.85000000       48.98898899     
    2446.500 22.55488748      9.15010075       8.85000000       49.26926927     
    2447.000 22.56561719      9.17218054       8.85000000       49.42942943     
    2447.500 21.59684711      9.19592938       8.85000000       49.26926927     
    2448.000 19.68674796      9.20976044       8.85000000       49.26926927     
    2448.500 17.75916926      9.19836901       8.85000000       49.18918919     
    2449.000 16.80726960      9.16677139       8.85000000       49.34934935     
    2449.500 15.83916689      9.13016350       8.85000000       49.34934935     
    2450.000 15.84708046      9.13026764       8.85000000       49.62962963     
    2450.500 15.83839068      9.13106959       8.85000000       49.22922923     
    2451.000 15.84670525      9.13129316       8.85000000       49.30930931     
    2451.500 15.83819006      9.13204608       8.85000000       49.62962963     
    2452.000 15.84736282      9.13232454       8.85000000       51.79179179     
    2452.500 16.15839757      9.13301913       8.85000000       53.63363363     
    2453.000 18.08689812      9.13335680       8.85000000       53.99399399     
    2453.500 21.91502695      9.13399388       8.85000000       53.91391391     
    2454.000 25.76245061      9.13438487       8.85000000       52.53973974     
    2454.500 30.22943189      9.13497509       8.85000000       51.39139139     
    2455.000 31.51564822      9.13542732       8.85000000       51.43143143     
    2455.500 31.50687516      9.13598284       8.85000000       50.95095095     
    2456.000 30.87258812      9.13645451       8.85000000       50.67067067     
    2456.500 28.62829245      9.13696573       8.85000000       50.71071071     
    2457.000 26.71377356      9.13743329       8.85000000       50.75075075     
    2457.500 24.79195548      9.13793481       8.85000000       50.55055055     
    2458.000 23.51506699      9.13843642       8.85000000       49.68319431     
    2458.500 22.23689617      9.13893803       8.85000000       49.05785786     
    2459.000 21.59776296      9.13943963       8.85000000       48.54854855     
    2459.500 21.91826788      9.13994124       8.85000000       48.42842843     
    2460.000 22.55585185      9.14044285       8.85000000       48.38838839     
    2460.500 23.51586057      9.14094446       8.85000000       48.44379379     
    2461.000 24.04064433      9.14144607       8.85000000       48.50032533     
    2461.500 24.79590972      9.14194767       8.85000000       48.55685686     
    2462.000 24.47971577      9.14244931       8.85000000       48.61338839     
    2462.500 22.87965106      9.14296168       8.85000000       48.66991992     
    2463.000 21.92491654      9.14345760       8.85000000       48.72645145     
    2463.500 20.64026870      9.14396770       8.85000000       48.66866867     
    2464.000 20.00773749      9.14445606       8.85000000       48.42842843     
    2464.500 19.67969338      9.14497488       8.85000000       49.06906907     
    2465.000 19.04851500      9.14545304       8.85000000       49.27170072     
    2465.500 19.03838134      9.14598279       8.85000000       51.78966985     
    2466.000 20.32416804      9.14644976       8.85000000       52.07284000     
    2466.500 22.87309425      9.14699044       8.85000000       52.07136222     
    2467.000 22.87943052      9.14744723       8.85000000       51.52796325     
    2467.500 22.23471520      9.14799690       8.85000000       50.83217407     
    2468.000 20.96052952      9.14844630       8.85000000       50.86788612     
    2468.500 19.68117345      9.14900141       8.85000000       50.95453296     
    2469.000 18.72090684      9.14944757       8.85000000       51.69127272     
    2469.500 17.44637404      9.15003015       8.85000000       52.64652712     
    2470.000 17.43786195      9.16231571       8.85000000       54.11270204     
    2470.500 17.44832799      9.17000954       8.85000000       55.68195824     
    2471.000 17.43562066      9.16996198       8.85000000       57.62844430     
    2471.500 18.18777823      9.16982498       8.85000000       56.48333566     
    2472.000 19.67339239      9.16929801       8.85000000       56.02693700     
    2472.500 20.97226679      9.16884204       8.85000000       50.60393727     
    2473.000 20.94707221      9.16832613       8.84999937       49.98998999     
    2473.500 18.73269013      9.16785896       8.84999945       50.35035035     
    2474.000 17.58446586      9.16735388       8.84999858       51.34574575     
    2474.500 16.49741571      9.16687672       8.84999904       51.95195195     
    2475.000 15.82882738      9.16638037       8.84999765       51.23123123     
