~Version Information Block
 VERS.                2.00:     CWLS LOG ASCII STANDARD - VERSION 2.000000
 WRAP.                  NO:     One Line Per Depth Step
#
~Well Information Block
#MNEM.UNIT                     Data                         Information
#----------   ------------------------------------------   ----------------
 STRT.FT                                       50.0000:     START DEPTH
 STOP.FT                                     3000.0000:     STOP DEPTH
 STEP.FT                                        0.5000:     STEP
 NULL.                                       -999.2500:     NULL VALUE
 COMP.                        BUTTES GAS & OIL COMPANY:     COMPANY
 WELL.                               #1-25 NAVAJO #461:     WELL
 FLD .                                         WILDCAT:     FIELD
 LOC .                             660 N & 660 W OF SE:     LOCATION
 SEC .                                              25:     SECTION
 TWP .                                             35N:     TOWNSHIP
 RANG.                                             28E:     RANGE
 CNTY.                                          APACHE:     COUNTY
 STAT.                                         ARIZONA:     STATE
 CTRY.                                                :     COUNTRY
 SRVC.                                    SCHLUMBERGER:     SERVICE COMPANY
 DATE.                                      06/07/1968:     DATE
 API .                                    02-001-20078:     API NUMBER
 UWI .                                    02-001-20078:     UWI NUMBER
 TVD .                                              NO:     TVD flag
 WSTA.                                              OG:     Well status
#
~Curve Information Block
#MNEM.UNIT       API CODE      Curve Description
#----------    -------------   -------------------
 DEPT.FT                   :   Depth in Feet
 GR  .GAPI     35 310 01 01:   Gamma Ray
 CALI.IN       70 280 01 01:   Caliper
 BIT .IN                   :   Bituminous Rocks Facies
 DT  .US/F     60 520 08 01:   Delta-T
#
~Parameter Information Block
#MNEM.UNIT            Value               Description
#----------    --------------------    -------------------
 DATE.                    6/7/1968:    Date As Month-Day-Year
 RUN .                         ONE:    Run Number
 PDAT.                          KB:    Permanent Datum
 EPD .FT                 6359.0000:    Elevation Of Perm. Datum
 LMF .                          KB:    Log Measured From
 FAPD.FT                   11.0000:    Feet Above Perm. Datum
 DMF .                          KB:    Drilling Measured From
 EKB .FT                 6359.0000:    Elevation Of Kelly Bushing
 EDF .FT                 6358.0000:    Elevation Of Derrick Floor
 EGL .FT                 6343.0000:    Elevation Of Ground Level
 TD  .FT                 3000.0000:    Total Depth
 DF  .         Precambrian metamor:    
 DD  .FT                 3000.0000:    Depth Driller
 DL  .FT                 2996.0000:    Depth Logger
 BLI .FT                 2994.0000:    Bottom Log Interval
 TLI .FT                  271.0000:    Top Log Interval
 CBL1.                         271:    Casing Bottom (Logger) 1
 BS  .IN                     8 3/4:    Bit Size
 DFT .                         FGM:    Drilling Fluid Type
 DFV .S                    55.0000:    Drilling Fluid Viscosity
 DFD .LB/G                  9.1000:    Drilling Fluid Density
 DFL .ML                    5.8000:    Drilling Fluid Loss
 DFPH.                      9.0000:    Drilling Fluid Ph
 MSS .                    MUD TANK:    Mud Sample Source
 RMS .OHMM                  2.8800:    Resistivity Of Mud Sample
 MST .DEGF                 73.0000:    Mud Sample Temperature
 RMF .OHMM                  2.8100:    Mud Filtrate Resistivity
 MFST.DEGF                 75.0000:    Mud Filtrate Sample Temperature
 MFSS.                           M:    Mud Filtrate Sample Source
 RMC .OHMM                  1.8700:    Mud Cake Resistivity
 MCST.DEGF                112.0000:    Mud Cake Sample Temperature
 RMB .OHMM                  1.8800:    Mud Resistivity At Bht
 BHT .DEGF                112.0000:    Bottom Hole Temperature
 TCS .                     3 HOURS:    Time Circulation Stopped
 TLAB.                     3 HOURS:    Time Logger At Bottom
 MRT .DEGF                112.0000:    Maximum Recorded Temperature
 LUN .                        4542:    Logging Unit Number
 LUL .                        FARM:    Logging Unit Location
 ENGI.                       RUSEN:    Engineer'S Name
 WITN.                 MR. WHITLEY:    Witness' Name
 DGBY.                          LS:    
 WSTA.                          OG:    
#
~Other Information Block
<DescLogPlotStart>   NEURALOG PLOT DEFINITION
PLOTDEFVERSION: 3
LASFILE: O:\OG_Data\RMCCS digitized wells project\Leah Spencer\las\0461BHCS.las
DEPTHSCALE: 600.000013
RESOLUTION: 200
DEPTHLABELFREQ: 100.000000
HEAVYGRIDFREQ: 50.000000
MEDIUMGRIDFREQ: 50.000000
LIGHTGRIDFREQ: 50.000000
#
#   TRACK 1
#
STARTTRACK: 
 LEFTX: 0.500000 inch
 RIGHTX: 3.000000 inch
 SCALETYPE: Linear
 NUMCHARTDIVISIONS: 10
CURVE: GR    0.000000   160.000000 (0,0,255)      Solid             2     Y    
BACKUP: 160.000000 320.000000 (131,0,131)    Solid             2    
CURVE: CALI  6.000000   16.000000  (0,131,131)    Dot               2     N    
CURVE: BIT   6.000000   16.000000  (255,0,255)    Short_Dash        2     N    
ENDTRACK: 
#
#   TRACK 2
#
STARTTRACK: 
 LEFTX: 3.500000 inch
 RIGHTX: 8.500000 inch
 SCALETYPE: Linear
 NUMCHARTDIVISIONS: 20
CURVE: DT    80.000000  40.000000  (131,0,255)    Solid             2     Y    
BACKUP: 120.000000 80.000000  (255,0,0)      Solid             2    
ENDTRACK: 
<DescLogPlotEnd>
<DescLog>Borehole Comp Sonic Log Gamma R
<DescOSVS>IES
<DescOSVS>
<DescOSVS>
~A DEPTH     GR               CALI             BIT              DT              
# ...
     248.000 27.99422989      -999.25000000    -999.25000000    -999.25000000   
     248.500 28.01045066      -999.25000000    -999.25000000    -999.25000000   
     249.000 28.30946472      -999.25000000    -999.25000000    -999.25000000   
     249.500 29.28732595      -999.25000000    -999.25000000    -999.25000000   
     250.000 31.50516944      -999.25000000    -999.25000000    -999.25000000   
     250.500 31.84396287      -999.25000000    -999.25000000    -999.25000000   
     251.000 31.82555292      -999.25000000    -999.25000000    -999.25000000   
     251.500 31.84389654      -999.25000000    -999.25000000    -999.25000000   
     252.000 31.18925330      -999.25000000    -999.25000000    -999.25000000   
     252.500 29.92461803      -999.25000000    -999.25000000    -999.25000000   
     253.000 29.27472511      -999.25000000    -999.25000000    -999.25000000   
     253.500 29.28514401      -999.25000000    -999.25000000    -999.25000000   
     254.000 29.27772912      -999.25000000    -999.25000000    -999.25000000   
     254.500 29.81311623      -999.25000000    -999.25000000    -999.25000000   
     255.000 30.43934525      -999.25000000    -999.25000000    -999.25000000   
     255.500 30.87948483      -999.25000000    -999.25000000    -999.25000000   
     256.000 30.55762638      -999.25000000    -999.25000000    -999.25000000   
     256.500 28.96070244      -999.25000000    -999.25000000    -999.25000000   
     257.000 26.87060015      -999.25000000    -999.25000000    -999.25000000   
     257.500 25.76468278      9.29000000       -999.25000000    -999.25000000   
     258.000 25.12630995      9.29000000       -999.25000000    -999.25000000   
     258.500 24.16653221      9.29000000       -999.25000000    -999.25000000   
     259.000 24.48767980      9.29000000       8.81000000       -999.25000000   
     259.500 25.76361825      9.29000000       8.81000000       -999.25000000   
     260.000 27.68375765      9.29000000       8.81000000       -999.25000000   
     260.500 29.59693920      9.29000000       8.81000000       -999.25000000   
     261.000 30.56102581      9.29000000       8.80992588       -999.25000000   
     261.500 31.19431009      9.29000000       8.80981487       -999.25000000   
     262.000 31.20133503      9.29000000       8.80970387       -999.25000000   
     262.500 30.55433580      9.29000000       8.80959286       -999.25000000   
     263.000 29.92389076      9.29000000       8.80948185       -999.25000000   
     263.500 29.91443679      9.29000000       8.80937084       -999.25000000   
     264.000 29.92300680      9.29000000       8.80925984       -999.25000000   
     264.500 30.40875927      9.28148728       8.80914883       -999.25000000   
     265.000 30.86902393      9.29012721       8.80903782       -999.25000000   
     265.500 31.31162495      9.28989894       8.80892681       -999.25000000   
     266.000 31.83945947      9.29020500       8.80089963       -999.25000000   
     266.500 32.15114130      9.28997823       8.80881558       -999.25000000   
     267.000 31.20040692      9.29060450       8.80870460       -999.25000000   
     267.500 29.91579404      9.29047694       8.80859366       -999.25000000   
     268.000 28.64526619      9.29071989       8.80848269       -999.25000000   
     268.500 28.00083600      9.29059134       8.80837174       -999.25000000   
     269.000 28.00732620      9.29062274       8.80826077       -999.25000000   
     269.500 27.68133547      9.31082080       8.80814976       -999.25000000   
     270.000 27.68691208      9.31037691       8.80803875       -999.25000000   
     270.500 27.67993287      9.33122820       8.80792775       -999.25000000   
     271.000 27.36688854      9.33001101       8.80781674       -999.25000000   
     271.500 26.40110860      9.35166434       8.80770573       -999.25000000   
     272.000 25.44973993      9.34956463       8.80759472       58.55855856     
     272.500 25.76193896      9.35210098       8.80748372       57.73465773     
     273.000 26.72895610      9.34910493       8.80737271       57.34811735     
     273.500 28.31917274      9.37240879       8.80726170       56.99699700     
     274.000 29.05989751      9.52869094       8.80715070       54.55455455     
     274.500 29.91706153      9.91215936       8.80703969       53.61361361     
     275.000 30.88448772      10.52763891      8.80692868       54.03403403     
     275.500 32.15364412      10.61135108      8.80681767       53.87387387     
     276.000 33.76055392      10.68758975      8.80670667       54.71471471     
     276.500 34.39080228      10.72295511      8.80659566       56.23623624     
     277.000 34.07920189      10.75936330      8.80648465       56.11611612     
     277.500 33.11201884      10.83043985      8.80637364       56.15615616     
     278.000 32.48009573      10.90834526      8.80626264       55.27527528     
     278.500 32.47481076      10.96968595      8.80615163       54.19419419     
     279.000 32.79923985      10.98756551      8.80604062       54.13510604     
     279.500 33.75426902      11.00915631      8.80592961       53.35554115     
     280.000 33.75582389      11.00766453      8.80581861       52.07132665     
     280.500 33.43590261      10.94947869      8.80570760       53.11551030     
     281.000 32.79477649      10.90710859      8.80559659       53.07194742     
     281.500 32.16041947      10.97048057      8.80548558       52.11453400     
     282.000 31.51489070      10.98588114      8.80537458       53.15172817     
     282.500 31.20436671      10.97239023      8.80526357       51.87380992     
     283.000 31.19445327      10.74492803      8.80515256       51.91078270     
     283.500 30.88813294      -999.25000000    8.80504155       52.39412214     
     284.000 30.55557202      -999.25000000    8.80493055       52.75163499     
     284.500 29.61096063      -999.25000000    8.80481954       52.90618935     
     285.000 29.59520438      -999.25000000    8.80470853       53.03242938     
     285.500 29.60967743      -999.25000000    8.80459752       53.59483186     
     286.000 31.19298646      -999.25000000    8.80448652       53.27299339     
     286.500 32.16677342      9.23909457       8.80437551       53.35413348     
     287.000 32.15464041      9.20255681       8.80426450       54.11117784     
     287.500 32.16741833      9.21871948       8.80415349       54.74140807     
     288.000 31.19831748      9.20287979       8.80404249       55.11511512     
     288.500 30.24806197      9.21725358       8.80393148       55.19519520     
     289.000 30.24054065      9.20369031       8.80382047       54.51451451     
     289.500 30.56573104      9.21538703       8.80370946       53.43343343     
     290.000 30.88062649      9.20492295       8.80359846       53.43343343     
     290.500 31.20332747      9.21322255       8.80348745       53.95395395     
     291.000 31.83960428      9.20599429       8.80337644       53.95395395     
     291.500 32.48024521      9.21121816       8.80326544       53.81557558     
     292.000 32.47838902      9.20695527       8.80315443       53.31331331     
     292.500 32.15776963      9.20965083       8.80304342       53.43343343     
     293.000 31.51725151      9.20737461       8.80293241       54.71471471     
     293.500 30.87766067      9.20870335       8.80282141       54.83483483     
     294.000 31.19975703      9.20712562       8.80271040       54.87487487     
     294.500 32.30452998      9.20689387       8.80259939       54.75475475     
     295.000 33.75888220      9.20668035       8.80248838       54.27427427     
     295.500 35.03389569      9.20646673       8.80237738       55.11671672     
     296.000 35.99723239      9.20625312       8.80226637       55.91751752     
     296.500 36.31100216      9.20603951       8.80215536       56.42842843     
     297.000 36.31699907      9.20582589       8.80204435       56.59659660     
