~Version Information Block
 VERS.                2.00:     CWLS LOG ASCII STANDARD - VERSION 2.000000
 WRAP.                  NO:     One Line Per Depth Step
#
~Well Information Block
#MNEM.UNIT                     Data                         Information
#----------   ------------------------------------------   ----------------
 STRT.FT                                       50.0000:     START DEPTH
 STOP.FT                                     3000.0000:     STOP DEPTH
 STEP.FT                                        0.5000:     STEP
 NULL.                                       -999.2500:     NULL VALUE
 COMP.                        BUTTES GAS & OIL COMPANY:     COMPANY
 WELL.                               #1-25 NAVAJO #461:     WELL
 FLD .                                         WILDCAT:     FIELD
 LOC .                             660 N & 660 W OF SE:     LOCATION
 SEC .                                              25:     SECTION
 TWP .                                             35N:     TOWNSHIP
 RANG.                                             28E:     RANGE
 CNTY.                                          APACHE:     COUNTY
 STAT.                                         ARIZONA:     STATE
 CTRY.                                                :     COUNTRY
 SRVC.                                    SCHLUMBERGER:     SERVICE COMPANY
 DATE.                                      06/07/1968:     DATE
 API .                                    02-001-20078:     API NUMBER
 UWI .                                    02-001-20078:     UWI NUMBER
 TVD .                                              NO:     TVD flag
 WSTA.                                              OG:     Well status
#
~Curve Information Block
#MNEM.UNIT       API CODE      Curve Description
#----------    -------------   -------------------
 DEPT.FT                   :   Depth in Feet
 GR  .GAPI     35 310 01 01:   Gamma Ray
 CALI.IN       70 280 01 01:   Caliper
 BIT .IN                   :   Bituminous Rocks Facies
 DT  .US/F     60 520 08 01:   Delta-T
#
~Parameter Information Block
#MNEM.UNIT            Value               Description
#----------    --------------------    -------------------
 DATE.                    6/7/1968:    Date As Month-Day-Year
 RUN .                         ONE:    Run Number
 PDAT.                          KB:    Permanent Datum
 EPD .FT                 6359.0000:    Elevation Of Perm. Datum
 LMF .                          KB:    Log Measured From
 FAPD.FT                   11.0000:    Feet Above Perm. Datum
 DMF .                          KB:    Drilling Measured From
 EKB .FT                 6359.0000:    Elevation Of Kelly Bushing
 EDF .FT                 6358.0000:    Elevation Of Derrick Floor
 EGL .FT                 6343.0000:    Elevation Of Ground Level
 TD  .FT                 3000.0000:    Total Depth
 DF  .         Precambrian metamor:    
 DD  .FT                 3000.0000:    Depth Driller
 DL  .FT                 2996.0000:    Depth Logger
 BLI .FT                 2994.0000:    Bottom Log Interval
 TLI .FT                  271.0000:    Top Log Interval
 CBL1.                         271:    Casing Bottom (Logger) 1
 BS  .IN                     8 3/4:    Bit Size
 DFT .                         FGM:    Drilling Fluid Type
 DFV .S                    55.0000:    Drilling Fluid Viscosity
 DFD .LB/G                  9.1000:    Drilling Fluid Density
 DFL .ML                    5.8000:    Drilling Fluid Loss
 DFPH.                      9.0000:    Drilling Fluid Ph
 MSS .                    MUD TANK:    Mud Sample Source
 RMS .OHMM                  2.8800:    Resistivity Of Mud Sample
 MST .DEGF                 73.0000:    Mud Sample Temperature
 RMF .OHMM                  2.8100:    Mud Filtrate Resistivity
 MFST.DEGF                 75.0000:    Mud Filtrate Sample Temperature
 MFSS.                           M:    Mud Filtrate Sample Source
 RMC .OHMM                  1.8700:    Mud Cake Resistivity
 MCST.DEGF                112.0000:    Mud Cake Sample Temperature
 RMB .OHMM                  1.8800:    Mud Resistivity At Bht
 BHT .DEGF                112.0000:    Bottom Hole Temperature
 TCS .                     3 HOURS:    Time Circulation Stopped
 TLAB.                     3 HOURS:    Time Logger At Bottom
 MRT .DEGF                112.0000:    Maximum Recorded Temperature
 LUN .                        4542:    Logging Unit Number
 LUL .                        FARM:    Logging Unit Location
 ENGI.                       RUSEN:    Engineer'S Name
 WITN.                 MR. WHITLEY:    Witness' Name
 DGBY.                          LS:    
 WSTA.                          OG:    
#
~Other Information Block
<DescLogPlotStart>   NEURALOG PLOT DEFINITION
PLOTDEFVERSION: 3
LASFILE: O:\OG_Data\RMCCS digitized wells project\Leah Spencer\las\0461BHCS.las
DEPTHSCALE: 600.000013
RESOLUTION: 200
DEPTHLABELFREQ: 100.000000
HEAVYGRIDFREQ: 50.000000
MEDIUMGRIDFREQ: 50.000000
LIGHTGRIDFREQ: 50.000000
#
#   TRACK 1
#
STARTTRACK: 
 LEFTX: 0.500000 inch
 RIGHTX: 3.000000 inch
 SCALETYPE: Linear
 NUMCHARTDIVISIONS: 10
CURVE: GR    0.000000   160.000000 (0,0,255)      Solid             2     Y    
BACKUP: 160.000000 320.000000 (131,0,131)    Solid             2    
CURVE: CALI  6.000000   16.000000  (0,131,131)    Dot               2     N    
CURVE: BIT   6.000000   16.000000  (255,0,255)    Short_Dash        2     N    
ENDTRACK: 
#
#   TRACK 2
#
STARTTRACK: 
 LEFTX: 3.500000 inch
 RIGHTX: 8.500000 inch
 SCALETYPE: Linear
 NUMCHARTDIVISIONS: 20
CURVE: DT    80.000000  40.000000  (131,0,255)    Solid             2     Y    
BACKUP: 120.000000 80.000000  (255,0,0)      Solid             2    
ENDTRACK: 
<DescLogPlotEnd>
<DescLog>Borehole Comp Sonic Log Gamma R
<DescOSVS>IES
<DescOSVS>
<DescOSVS>
~A DEPTH     GR               CALI             BIT              DT              
# ...
     792.500 54.24603630      11.93200782      8.85000000       73.37337337     
     793.000 53.91721969      11.95828408      8.85000000       70.92829973     
     793.500 52.96887734      11.98440627      8.85000000       66.34451594     
     794.000 51.99940009      12.01070758      8.85000000       61.76073216     
     794.500 51.37104529      12.03680602      8.85000000       58.99899900     
     795.000 51.04068453      12.06312884      8.85000000       58.67867868     
     795.500 51.05106717      12.08977280      8.85000000       61.62696029     
     796.000 51.03911560      12.10145137      8.85000000       63.00300300     
     796.500 51.05114990      12.11311548      8.85000000       59.83983984     
     797.000 51.03695067      12.12507786      8.85000000       60.32032032     
     797.500 51.05084942      12.13673067      8.85000000       62.04204204     
     798.000 51.67492004      12.14867977      8.85000000       -999.25000000   
     798.500 52.65112346      12.16032547      8.85000000       -999.25000000   
     799.000 53.58820302      12.17227336      8.85000000       -999.25000000   
     799.500 53.61107082      12.18392413      8.85000000       -999.25000000   
     800.000 53.90370865      12.19586331      8.85000000       -999.25000000   
     800.500 54.25405615      12.20981210      8.85000000       -999.25000000   
     801.000 55.81821079      12.20995067      8.85000000       -999.25000000   
     801.500 58.41369908      12.20984434      8.85000000       54.62591121     
     802.000 59.33060097      12.20996467      8.85000000       56.12625231     
     802.500 59.37557236      12.20987721      8.85000000       57.30785263     
     803.000 59.00883694      12.20939476      8.85000000       56.64595527     
     803.500 56.18192828      12.20885679      8.85000000       57.42957362     
     804.000 54.53164648      12.20845768      8.85000000       55.92418638     
     804.500 52.66625984      12.20793910      8.85000000       55.90940795     
     805.000 53.24293155      12.20752048      8.85000000       57.64393933     
     805.500 54.26161211      12.20702091      8.85000000       57.55280877     
     806.000 54.21256331      12.20658461      8.85000000       56.52131100     
     806.500 51.38181550      12.20610063      8.85000000       56.67667668     
     807.000 49.74083227      12.20565148      8.85000000       -999.25000000   
     807.500 49.13903324      12.20517708      8.85000000       -999.25000000   
     808.000 49.42668730      12.20472198      8.85000000       -999.25000000   
     808.500 49.77291431      12.20425205      8.85000000       -999.25000000   
     809.000 50.39353727      12.20378356      8.85000000       -999.25000000   
     809.500 50.40949329      12.20331405      8.85000000       -999.25000000   
     810.000 50.40048191      12.20284529      8.85000000       -999.25000000   
     810.500 51.68305649      12.20237589      8.85000000       -999.25000000   
     811.000 52.96129485      12.20190658      8.85000000       -999.25000000   
     811.500 53.27558711      12.20143728      8.85000000       -999.25000000   
     812.000 53.60116468      12.20096798      8.85000000       -999.25000000   
     812.500 53.27261998      12.20049868      8.85000000       -999.25000000   
     813.000 50.40509444      12.20002938      8.85000000       -999.25000000   
     813.500 49.11764499      12.19956008      8.85000000       -999.25000000   
     814.000 48.48644018      12.19909078      8.85000000       -999.25000000   
     814.500 48.15991376      12.19862148      8.85000000       -999.25000000   
     815.000 47.84612960      12.19815218      8.85000000       -999.25000000   
     815.500 47.84601690      12.19768288      8.85000000       -999.25000000   
     816.000 47.84669297      12.19721358      8.85000000       -999.25000000   
     816.500 47.84989815      12.19674455      8.85000000       -999.25000000   
     817.000 49.12325854      12.19603848      8.85000000       -999.25000000   
     817.500 49.45101504      12.19580163      8.85000000       -999.25000000   
     818.000 49.12050277      12.19501415      8.85000000       -999.25000000   
     818.500 48.49407563      12.19499691      8.85000000       -999.25000000   
     819.000 48.16044826      12.19389997      8.85000000       -999.25000000   
     819.500 47.85411032      12.19426903      8.85000000       -999.25000000   
     820.000 47.83828776      12.19272465      8.85000000       -999.25000000   
     820.500 47.85262808      12.19358317      8.85000000       -999.25000000   
     821.000 47.83645501      12.19152861      8.85000000       -999.25000000   
     821.500 48.81008622      12.19289555      8.85000000       -999.25000000   
     822.000 51.35377563      12.19035696      8.85000000       -999.25000000   
     822.500 54.24440273      12.19216188      8.85000000       -999.25000000   
     823.000 58.62514042      12.18925108      8.85000000       -999.25000000   
     823.500 61.91542964      12.19134559      8.85000000       -999.25000000   
     824.000 62.54211111      12.18853591      8.85000000       -999.25000000   
     824.500 62.55599701      11.93142468      8.85000000       -999.25000000   
     825.000 62.54341524      11.88884452      8.85000000       -999.25000000   
     825.500 61.91772554      11.89137020      8.85000000       -999.25000000   
     826.000 60.94412663      11.88898268      8.85000000       -999.25000000   
     826.500 60.32049698      11.89076368      8.85000000       -999.25000000   
     827.000 58.38625570      11.88837890      8.85000000       -999.25000000   
     827.500 55.52577004      11.88973257      8.85000000       -999.25000000   
     828.000 54.86854435      11.88784302      8.85000000       -999.25000000   
     828.500 54.88724569      11.88868503      8.85000000       -999.25000000   
     829.000 55.18799559      11.88730088      8.85000000       -999.25000000   
     829.500 55.52918785      11.88766593      8.85000000       -999.25000000   
     830.000 55.82890158      11.88670965      8.85000000       -999.25000000   
     830.500 54.25138739      11.88671407      8.85000000       -999.25000000   
     831.000 52.31467724      11.88603634      8.85000000       -999.25000000   
     831.500 52.01509205      11.88585513      8.85000000       -999.25000000   
     832.000 52.95537510      11.88526402      8.85000000       -999.25000000   
     832.500 53.61087592      11.88483295      8.85000000       -999.25000000   
     833.000 53.97862598      11.88443767      8.85000000       -999.25000000   
     833.500 54.14831930      11.88404287      8.85000000       -999.25000000   
     834.000 55.51144617      11.88364766      8.85000000       -999.25000000   
     834.500 56.48081233      11.88325247      8.85000000       -999.25000000   
     835.000 56.79083065      11.88285729      8.85000000       -999.25000000   
     835.500 56.79869907      11.88246210      8.85000000       -999.25000000   
     836.000 56.79248871      11.88206692      8.85000000       -999.25000000   
     836.500 57.43854340      11.88167173      8.85000000       -999.25000000   
     837.000 58.39097784      11.88127654      8.85000000       -999.25000000   
     837.500 58.08003793      11.88088136      8.85000000       -999.25000000   
     838.000 55.83350080      11.88048617      8.85000000       -999.25000000   
     838.500 54.24360105      11.88009098      8.85000000       -999.25000000   
     839.000 53.59196285      11.87969580      8.85000000       -999.25000000   
     839.500 53.28519951      11.87930061      8.85000000       -999.25000000   
     840.000 51.67005448      11.87890542      8.85000000       -999.25000000   
     840.500 49.12842112      11.87851024      8.85000000       -999.25000000   
     841.000 46.55372944      11.87811505      8.85000000       -999.25000000   
     841.500 44.01484608      11.87771986      8.85000000       -999.25000000   
