~Version Information Block
 VERS.                2.00:     CWLS LOG ASCII STANDARD - VERSION 2.000000
 WRAP.                  NO:     One Line Per Depth Step
#
~Well Information Block
#MNEM.UNIT                     Data                         Information
#----------   ------------------------------------------   ----------------
 STRT.FT                                       50.0000:     START DEPTH
 STOP.FT                                     3000.0000:     STOP DEPTH
 STEP.FT                                        0.5000:     STEP
 NULL.                                       -999.2500:     NULL VALUE
 COMP.                        BUTTES GAS & OIL COMPANY:     COMPANY
 WELL.                               #1-25 NAVAJO #461:     WELL
 FLD .                                         WILDCAT:     FIELD
 LOC .                             660 N & 660 W OF SE:     LOCATION
 SEC .                                              25:     SECTION
 TWP .                                             35N:     TOWNSHIP
 RANG.                                             28E:     RANGE
 CNTY.                                          APACHE:     COUNTY
 STAT.                                         ARIZONA:     STATE
 CTRY.                                                :     COUNTRY
 SRVC.                                    SCHLUMBERGER:     SERVICE COMPANY
 DATE.                                      06/07/1968:     DATE
 API .                                    02-001-20078:     API NUMBER
 UWI .                                    02-001-20078:     UWI NUMBER
 TVD .                                              NO:     TVD flag
 WSTA.                                              OG:     Well status
#
~Curve Information Block
#MNEM.UNIT       API CODE      Curve Description
#----------    -------------   -------------------
 DEPT.FT                   :   Depth in Feet
 GR  .GAPI     35 310 01 01:   Gamma Ray
 CALI.IN       70 280 01 01:   Caliper
 BIT .IN                   :   Bituminous Rocks Facies
 DT  .US/F     60 520 08 01:   Delta-T
#
~Parameter Information Block
#MNEM.UNIT            Value               Description
#----------    --------------------    -------------------
 DATE.                    6/7/1968:    Date As Month-Day-Year
 RUN .                         ONE:    Run Number
 PDAT.                          KB:    Permanent Datum
 EPD .FT                 6359.0000:    Elevation Of Perm. Datum
 LMF .                          KB:    Log Measured From
 FAPD.FT                   11.0000:    Feet Above Perm. Datum
 DMF .                          KB:    Drilling Measured From
 EKB .FT                 6359.0000:    Elevation Of Kelly Bushing
 EDF .FT                 6358.0000:    Elevation Of Derrick Floor
 EGL .FT                 6343.0000:    Elevation Of Ground Level
 TD  .FT                 3000.0000:    Total Depth
 DF  .         Precambrian metamor:    
 DD  .FT                 3000.0000:    Depth Driller
 DL  .FT                 2996.0000:    Depth Logger
 BLI .FT                 2994.0000:    Bottom Log Interval
 TLI .FT                  271.0000:    Top Log Interval
 CBL1.                         271:    Casing Bottom (Logger) 1
 BS  .IN                     8 3/4:    Bit Size
 DFT .                         FGM:    Drilling Fluid Type
 DFV .S                    55.0000:    Drilling Fluid Viscosity
 DFD .LB/G                  9.1000:    Drilling Fluid Density
 DFL .ML                    5.8000:    Drilling Fluid Loss
 DFPH.                      9.0000:    Drilling Fluid Ph
 MSS .                    MUD TANK:    Mud Sample Source
 RMS .OHMM                  2.8800:    Resistivity Of Mud Sample
 MST .DEGF                 73.0000:    Mud Sample Temperature
 RMF .OHMM                  2.8100:    Mud Filtrate Resistivity
 MFST.DEGF                 75.0000:    Mud Filtrate Sample Temperature
 MFSS.                           M:    Mud Filtrate Sample Source
 RMC .OHMM                  1.8700:    Mud Cake Resistivity
 MCST.DEGF                112.0000:    Mud Cake Sample Temperature
 RMB .OHMM                  1.8800:    Mud Resistivity At Bht
 BHT .DEGF                112.0000:    Bottom Hole Temperature
 TCS .                     3 HOURS:    Time Circulation Stopped
 TLAB.                     3 HOURS:    Time Logger At Bottom
 MRT .DEGF                112.0000:    Maximum Recorded Temperature
 LUN .                        4542:    Logging Unit Number
 LUL .                        FARM:    Logging Unit Location
 ENGI.                       RUSEN:    Engineer'S Name
 WITN.                 MR. WHITLEY:    Witness' Name
 DGBY.                          LS:    
 WSTA.                          OG:    
#
~Other Information Block
<DescLogPlotStart>   NEURALOG PLOT DEFINITION
PLOTDEFVERSION: 3
LASFILE: O:\OG_Data\RMCCS digitized wells project\Leah Spencer\las\0461BHCS.las
DEPTHSCALE: 600.000013
RESOLUTION: 200
DEPTHLABELFREQ: 100.000000
HEAVYGRIDFREQ: 50.000000
MEDIUMGRIDFREQ: 50.000000
LIGHTGRIDFREQ: 50.000000
#
#   TRACK 1
#
STARTTRACK: 
 LEFTX: 0.500000 inch
 RIGHTX: 3.000000 inch
 SCALETYPE: Linear
 NUMCHARTDIVISIONS: 10
CURVE: GR    0.000000   160.000000 (0,0,255)      Solid             2     Y    
BACKUP: 160.000000 320.000000 (131,0,131)    Solid             2    
CURVE: CALI  6.000000   16.000000  (0,131,131)    Dot               2     N    
CURVE: BIT   6.000000   16.000000  (255,0,255)    Short_Dash        2     N    
ENDTRACK: 
#
#   TRACK 2
#
STARTTRACK: 
 LEFTX: 3.500000 inch
 RIGHTX: 8.500000 inch
 SCALETYPE: Linear
 NUMCHARTDIVISIONS: 20
CURVE: DT    80.000000  40.000000  (131,0,255)    Solid             2     Y    
BACKUP: 120.000000 80.000000  (255,0,0)      Solid             2    
ENDTRACK: 
<DescLogPlotEnd>
<DescLog>Borehole Comp Sonic Log Gamma R
<DescOSVS>IES
<DescOSVS>
<DescOSVS>
~A DEPTH     GR               CALI             BIT              DT              
# ...
    1881.500 38.61352741      9.43965100       8.81314555       -999.25000000   
    1882.000 43.36000000      9.44830646       8.81318849       -999.25000000   
    1882.500 49.76000000      9.57014776       8.81323142       -999.25000000   
    1883.000 55.52000000      9.65789362       8.81327436       -999.25000000   
    1883.500 57.12000000      9.73227744       8.81331729       -999.25000000   
    1884.000 57.12000000      9.80786975       8.81336023       -999.25000000   
    1884.500 56.48000000      9.88242823       8.81340316       -999.25000000   
    1885.000 56.48000000      9.96893642       8.81344610       -999.25000000   
    1885.500 57.76000000      10.06158485      8.81348903       -999.25000000   
    1886.000 60.00000000      10.15448674      8.81353197       -999.25000000   
    1886.500 63.51895576      10.33541045      8.81357491       -999.25000000   
    1887.000 68.93160102      10.55046762      8.81361784       -999.25000000   
    1887.500 69.27247722      10.59062861      8.81366078       -999.25000000   
    1888.000 69.25174235      10.59064190      8.81370371       103.76376376    
    1888.500 61.27423698      10.63451256      8.81374665       101.20120120    
    1889.000 51.67007909      10.71030131      8.81378958       102.87476047    
    1889.500 49.76252199      10.78608363      8.81383252       106.48648649    
    1890.000 49.12084700      10.86203852      8.81387545       108.40840841    
    1890.500 49.76289476      10.93753616      8.81391839       112.57257257    
    1891.000 51.68750806      11.01076861      8.81396132       111.56116116    
    1891.500 54.09789011      11.19291523      8.81400426       109.45969085    
    1892.000 55.52790380      11.36937656      8.81404719       108.35464784    
    1892.500 57.43067337      11.54426521      8.81409013       105.41313241    
    1893.000 58.09014672      12.03879601      8.81413306       103.55311349    
    1893.500 59.03094753      12.56974722      8.81417600       102.08777522    
    1894.000 60.01454378      12.72970176      8.81421894       100.79376157    
    1894.500 59.99106379      12.76827356      8.81426187       100.23433454    
    1895.000 59.37836453      12.91843765      8.81430481       103.71881148    
    1895.500 58.07242669      13.18797385      8.81434774       104.51414899    
    1896.000 56.81660137      13.19932989      8.81439068       -999.25000000   
    1896.500 56.46741911      13.20797371      8.81443361       -999.25000000   
    1897.000 56.17011252      13.38780569      8.81447655       -999.25000000   
    1897.500 56.46890976      13.48757511      8.81451948       -999.25000000   
    1898.000 57.12937591      13.47007248      8.81456242       -999.25000000   
    1898.500 57.11104429      13.44740897      8.81460535       -999.25000000   
    1899.000 55.84917204      13.51044194      8.81464829       -999.25000000   
    1899.500 55.83486029      13.52722365      8.81469122       -999.25000000   
    1900.000 56.16748501      13.49070004      8.81473416       -999.25000000   
    1900.500 59.03606262      13.48773514      8.81477710       -999.25000000   
    1901.000 61.60188704      13.49123493      8.81482003       -999.25000000   
    1901.500 62.23828785      13.56792621      8.81486297       -999.25000000   
    1902.000 62.24186982      13.57137311      8.81490590       50.59059059     
    1902.500 61.28232278      13.52796390      8.81494884       52.92034892     
    1903.000 59.36228194      13.13178230      8.81499177       55.53409409     
    1903.500 56.16568417      13.12852510      8.81503471       58.67867868     
    1904.000 56.48197821      13.25144345      8.81507764       60.78926927     
    1904.500 58.72162344      13.28856269      8.81512058       63.78658659     
    1905.000 61.27629550      13.31728923      8.81516351       65.33066400     
    1905.500 63.51638816      13.34593680      8.81520645       66.61034368     
    1906.000 63.83487722      13.37860580      8.81524938       69.12912913     
    1906.500 62.55542902      13.40797727      8.81529232       69.00900901     
    1907.000 60.63713726      13.43026202      8.81533525       67.36736737     
    1907.500 60.31560430      13.42947830      8.81537819       67.32732733     
    1908.000 60.32028027      13.42980782      8.81542113       67.04704705     
    1908.500 61.59823337      13.42964040      8.81546406       64.64464464     
    1909.000 63.84190564      13.42944399      8.81550700       65.28528529     
    1909.500 65.75592790      13.42987057      8.81554993       64.92492492     
    1910.000 67.35911462      13.42860100      8.81559287       65.40540541     
    1910.500 67.03655874      13.42954493      8.81563580       66.92692693     
    1911.000 65.75880100      13.39549942      8.81567874       -999.25000000   
    1911.500 64.47634556      13.27183327      8.81572167       -999.25000000   
    1912.000 62.62607193      13.14390871      8.81576461       -999.25000000   
    1912.500 61.27916025      13.05076611      8.81580754       -999.25000000   
    1913.000 60.63631176      13.04743574      8.81585048       -999.25000000   
    1913.500 60.00076323      12.99197535      8.81589341       -999.25000000   
    1914.000 59.35413353      12.90549792      8.81593635       -999.25000000   
    1914.500 58.40388151      12.82847545      8.81597928       -999.25000000   
    1915.000 57.75475345      12.74096025      8.81602222       -999.25000000   
    1915.500 59.36604408      12.66435330      8.81606516       -999.25000000   
    1916.000 61.59126911      12.57725516      8.81610809       -999.25000000   
    1916.500 63.84189684      12.50051346      8.81615103       -999.25000000   
    1917.000 65.10682161      12.42694625      8.81619396       -999.25000000   
    1917.500 65.43609420      11.67398133      8.81623690       -999.25000000   
    1918.000 68.30418630      11.17725883      8.81627983       -999.25000000   
    1918.500 68.94527665      10.83359995      8.81632277       -999.25000000   
    1919.000 67.98824707      10.62843064      8.81636570       -999.25000000   
    1919.500 65.10278230      10.63342378      8.81640864       -999.25000000   
    1920.000 60.96292205      10.92840717      8.81645157       -999.25000000   
    1920.500 56.46390974      11.09267324      8.81649451       -999.25000000   
    1921.000 52.66043155      11.10866573      8.81653744       -999.25000000   
    1921.500 51.02019103      11.05228117      8.81658038       -999.25000000   
    1922.000 52.02841593      10.98913922      8.81662332       -999.25000000   
    1922.500 55.16722002      10.94383662      8.81666625       -999.25000000   
    1923.000 56.82929339      10.89688710      8.81670919       -999.25000000   
    1923.500 58.36092114      10.85524049      8.81675212       -999.25000000   
    1924.000 55.87527385      10.80856265      8.81679506       -999.25000000   
    1924.500 52.28730261      10.69194170      8.81683799       -999.25000000   
    1925.000 46.59534224      10.66969436      8.81688093       -999.25000000   
    1925.500 43.02085403      10.67115214      8.81692386       -999.25000000   
    1926.000 38.91438753      10.66919500      8.81696680       57.87787788     
    1926.500 38.86299366      10.67057215      8.81700973       57.67767768     
    1927.000 40.82395066      10.66930958      8.81705267       58.91891892     
    1927.500 43.34232190      10.67032268      8.81709560       58.79879880     
    1928.000 46.57294879      10.66986301      8.81713854       58.03803804     
    1928.500 48.46445585      10.69018604      8.81718147       57.63763764     
    1929.000 49.12675894      10.73009994      8.81722441       57.71771772     
    1929.500 48.79271158      10.76983426      8.81726735       57.87787788     
    1930.000 47.84798829      11.32972071      8.81731028       58.43843844     
    1930.500 47.20295749      11.34911356      8.81735322       61.28128128     
