~Version Information Block
 VERS.                2.00:     CWLS LOG ASCII STANDARD - VERSION 2.000000
 WRAP.                  NO:     One Line Per Depth Step
#
~Well Information Block
#MNEM.UNIT                     Data                         Information
#----------   ------------------------------------------   ----------------
 STRT.FT                                       50.0000:     START DEPTH
 STOP.FT                                     3000.0000:     STOP DEPTH
 STEP.FT                                        0.5000:     STEP
 NULL.                                       -999.2500:     NULL VALUE
 COMP.                        BUTTES GAS & OIL COMPANY:     COMPANY
 WELL.                               #1-25 NAVAJO #461:     WELL
 FLD .                                         WILDCAT:     FIELD
 LOC .                             660 N & 660 W OF SE:     LOCATION
 SEC .                                              25:     SECTION
 TWP .                                             35N:     TOWNSHIP
 RANG.                                             28E:     RANGE
 CNTY.                                          APACHE:     COUNTY
 STAT.                                         ARIZONA:     STATE
 CTRY.                                                :     COUNTRY
 SRVC.                                    SCHLUMBERGER:     SERVICE COMPANY
 DATE.                                      06/07/1968:     DATE
 API .                                    02-001-20078:     API NUMBER
 UWI .                                    02-001-20078:     UWI NUMBER
 TVD .                                              NO:     TVD flag
 WSTA.                                              OG:     Well status
#
~Curve Information Block
#MNEM.UNIT       API CODE      Curve Description
#----------    -------------   -------------------
 DEPT.FT                   :   Depth in Feet
 GR  .GAPI     35 310 01 01:   Gamma Ray
 CALI.IN       70 280 01 01:   Caliper
 BIT .IN                   :   Bituminous Rocks Facies
 DT  .US/F     60 520 08 01:   Delta-T
#
~Parameter Information Block
#MNEM.UNIT            Value               Description
#----------    --------------------    -------------------
 DATE.                    6/7/1968:    Date As Month-Day-Year
 RUN .                         ONE:    Run Number
 PDAT.                          KB:    Permanent Datum
 EPD .FT                 6359.0000:    Elevation Of Perm. Datum
 LMF .                          KB:    Log Measured From
 FAPD.FT                   11.0000:    Feet Above Perm. Datum
 DMF .                          KB:    Drilling Measured From
 EKB .FT                 6359.0000:    Elevation Of Kelly Bushing
 EDF .FT                 6358.0000:    Elevation Of Derrick Floor
 EGL .FT                 6343.0000:    Elevation Of Ground Level
 TD  .FT                 3000.0000:    Total Depth
 DF  .         Precambrian metamor:    
 DD  .FT                 3000.0000:    Depth Driller
 DL  .FT                 2996.0000:    Depth Logger
 BLI .FT                 2994.0000:    Bottom Log Interval
 TLI .FT                  271.0000:    Top Log Interval
 CBL1.                         271:    Casing Bottom (Logger) 1
 BS  .IN                     8 3/4:    Bit Size
 DFT .                         FGM:    Drilling Fluid Type
 DFV .S                    55.0000:    Drilling Fluid Viscosity
 DFD .LB/G                  9.1000:    Drilling Fluid Density
 DFL .ML                    5.8000:    Drilling Fluid Loss
 DFPH.                      9.0000:    Drilling Fluid Ph
 MSS .                    MUD TANK:    Mud Sample Source
 RMS .OHMM                  2.8800:    Resistivity Of Mud Sample
 MST .DEGF                 73.0000:    Mud Sample Temperature
 RMF .OHMM                  2.8100:    Mud Filtrate Resistivity
 MFST.DEGF                 75.0000:    Mud Filtrate Sample Temperature
 MFSS.                           M:    Mud Filtrate Sample Source
 RMC .OHMM                  1.8700:    Mud Cake Resistivity
 MCST.DEGF                112.0000:    Mud Cake Sample Temperature
 RMB .OHMM                  1.8800:    Mud Resistivity At Bht
 BHT .DEGF                112.0000:    Bottom Hole Temperature
 TCS .                     3 HOURS:    Time Circulation Stopped
 TLAB.                     3 HOURS:    Time Logger At Bottom
 MRT .DEGF                112.0000:    Maximum Recorded Temperature
 LUN .                        4542:    Logging Unit Number
 LUL .                        FARM:    Logging Unit Location
 ENGI.                       RUSEN:    Engineer'S Name
 WITN.                 MR. WHITLEY:    Witness' Name
 DGBY.                          LS:    
 WSTA.                          OG:    
#
~Other Information Block
<DescLogPlotStart>   NEURALOG PLOT DEFINITION
PLOTDEFVERSION: 3
LASFILE: O:\OG_Data\RMCCS digitized wells project\Leah Spencer\las\0461BHCS.las
DEPTHSCALE: 600.000013
RESOLUTION: 200
DEPTHLABELFREQ: 100.000000
HEAVYGRIDFREQ: 50.000000
MEDIUMGRIDFREQ: 50.000000
LIGHTGRIDFREQ: 50.000000
#
#   TRACK 1
#
STARTTRACK: 
 LEFTX: 0.500000 inch
 RIGHTX: 3.000000 inch
 SCALETYPE: Linear
 NUMCHARTDIVISIONS: 10
CURVE: GR    0.000000   160.000000 (0,0,255)      Solid             2     Y    
BACKUP: 160.000000 320.000000 (131,0,131)    Solid             2    
CURVE: CALI  6.000000   16.000000  (0,131,131)    Dot               2     N    
CURVE: BIT   6.000000   16.000000  (255,0,255)    Short_Dash        2     N    
ENDTRACK: 
#
#   TRACK 2
#
STARTTRACK: 
 LEFTX: 3.500000 inch
 RIGHTX: 8.500000 inch
 SCALETYPE: Linear
 NUMCHARTDIVISIONS: 20
CURVE: DT    80.000000  40.000000  (131,0,255)    Solid             2     Y    
BACKUP: 120.000000 80.000000  (255,0,0)      Solid             2    
ENDTRACK: 
<DescLogPlotEnd>
<DescLog>Borehole Comp Sonic Log Gamma R
<DescOSVS>IES
<DescOSVS>
<DescOSVS>
~A DEPTH     GR               CALI             BIT              DT              
# ...
    1535.000 52.98261900      10.10778682      8.83131269       79.04510279     
    1535.500 54.87928050      10.10547342      8.83134673       80.29677569     
    1536.000 55.85964939      10.10497506      8.83138076       82.98250826     
    1536.500 56.15675067      10.10332220      8.83141480       84.81423816     
    1537.000 55.54094306      10.10266421      8.83144884       89.78725302     
    1537.500 54.55941194      10.10195065      8.83148288       89.58617058     
    1538.000 54.26311461      10.10038452      8.83151692       83.90119346     
    1538.500 54.56016731      10.09933302      8.83155096       75.03885439     
    1539.000 56.17809888      10.09777724      8.83158500       65.32505651     
    1539.500 58.07568748      10.09646613      8.83161903       61.40180532     
    1540.000 59.37198055      10.09486142      8.83165307       60.12131181     
    1540.500 61.91469332      10.09351207      8.83168711       59.64048899     
    1541.000 63.21226281      10.09240281      8.83172115       60.92309519     
    1541.500 64.15724257      10.09112853      8.83175519       62.00625724     
    1542.000 64.81078261      10.09021920      8.83178923       63.06497038     
    1542.500 64.79501687      10.11791136      8.83182327       64.08408408     
    1543.000 64.80737528      10.14155442      8.83185730       65.56602317     
    1543.500 64.46863371      10.15298873      8.83189134       67.56756757     
    1544.000 64.48542104      10.15745213      8.83192538       68.92892893     
    1544.500 64.78208017      10.16250244      8.83195942       72.07877878     
    1545.000 65.44677081      10.16634261      8.83199346       74.13413413     
    1545.500 67.65635794      10.17136461      8.83202750       74.01401401     
    1546.000 69.93092174      10.19657821      8.83206154       71.75438295     
    1546.500 70.38134663      10.22328676      8.83209557       68.37597598     
    1547.000 71.22049345      10.24602253      8.83212961       64.84484484     
    1547.500 72.77335581      10.27389506      8.83216365       63.60360360     
    1548.000 76.34146945      10.29487831      8.83219769       63.48348348     
    1548.500 84.28224095      10.35802159      8.83223173       63.76376376     
    1549.000 88.17054475      10.44704467      8.83226577       64.48448448     
    1549.500 87.79712169      10.53547137      8.83229981       65.00500501     
    1550.000 83.68747337      10.58606977      8.83233384       66.02616519     
    1550.500 78.52689265      10.63377142      8.83236788       67.53218920     
    1551.000 70.57045390      10.68533265      8.83240192       68.51861881     
    1551.500 65.10536123      10.81418418      8.83243596       71.67861955     
    1552.000 60.96850259      11.64409525      8.83247000       73.72754722     
    1552.500 60.31898800      11.94428904      8.83250404       72.01603645     
    1553.000 62.55802683      12.08417543      8.83253808       71.16505535     
    1553.500 66.72502015      12.17309984      8.83257211       70.01509795     
    1554.000 72.78437782      12.22454780      8.83260615       68.56267700     
    1554.500 77.28522541      12.23238679      8.83264019       68.61311245     
    1555.000 81.73224937      12.20583520      8.83267423       73.96713816     
    1555.500 82.08925208      11.69090422      8.83270827       -999.25000000   
    1556.000 81.73287890      11.26566635      8.83274231       -999.25000000   
    1556.500 79.22156523      10.84768882      8.83277635       -999.25000000   
    1557.000 75.01951362      10.58884084      8.83281038       -999.25000000   
    1557.500 69.62739971      10.55035338      8.83284442       -999.25000000   
    1558.000 66.06094287      10.52959540      8.83287846       -999.25000000   
    1558.500 63.21886105      10.53012469      8.83291250       68.48848849     
    1559.000 61.90006763      10.54963860      8.83294654       60.80080080     
    1559.500 60.01335657      10.59052337      8.83298058       60.16016016     
    1560.000 59.02635661      10.62947257      8.83301462       59.11911912     
    1560.500 59.36903184      11.23106378      8.83304865       60.52052052     
    1561.000 59.99696552      11.26833785      8.83308269       60.68068068     
    1561.500 60.64746105      11.27202015      8.83311673       62.80280280     
    1562.000 60.97103464      11.34735624      8.83315077       63.08308308     
    1562.500 61.28555448      11.63278735      8.83318481       62.96296296     
    1563.000 63.22267308      12.06602903      8.83321885       64.18124791     
    1563.500 65.11756556      12.17297088      8.83325289       64.78432718     
    1564.000 68.02372806      12.14512893      8.83328692       64.75549836     
    1564.500 67.98740595      10.59404842      8.83332096       64.72472472     
    1565.000 66.42197701      10.22587204      8.83335500       68.92892893     
    1565.500 62.54200887      10.15425468      8.83338904       69.60960961     
    1566.000 51.70727992      10.14614379      8.83342308       73.28172617     
    1566.500 51.02862787      10.15381130      8.83345712       76.19664109     
    1567.000 51.38572569      10.14465871      8.83349116       77.53753754     
    1567.500 53.59008734      10.15503914      8.83352519       -999.25000000   
    1568.000 56.81761111      10.14621865      8.83355923       -999.25000000   
    1568.500 59.41649155      10.15399525      8.83359327       -999.25000000   
    1569.000 65.44523086      10.14777415      8.83362731       -999.25000000   
    1569.500 68.31237234      10.15260880      8.83366135       -999.25000000   
    1570.000 72.15405288      10.16903214      8.83369539       -999.25000000   
    1570.500 76.63610956      10.17189621      8.83372943       -999.25000000   
    1571.000 77.26800978      10.17010517      8.83376347       -999.25000000   
    1571.500 76.96362245      10.17158034      8.83379750       -999.25000000   
    1572.000 74.38732810      10.17022448      8.83383154       -999.25000000   
    1572.500 70.25059413      10.17015602      8.83386558       -999.25000000   
    1573.000 65.75003612      10.16992952      8.83389962       -999.25000000   
    1573.500 60.33393528      10.17007459      8.83393366       -999.25000000   
    1574.000 60.30858686      10.17025286      8.83396770       74.17405977     
    1574.500 61.61160547      10.17091778      8.83400174       67.84784785     
    1575.000 63.82980132      10.17046859      8.83403577       63.52352352     
    1575.500 65.12848742      10.17134657      8.83406981       61.76176176     
    1576.000 64.94931994      10.17099377      8.83410385       60.60060060     
    1576.500 64.81003964      10.17223857      8.83413789       63.52352352     
    1577.000 65.11772990      10.17063988      8.83417193       64.04404404     
    1577.500 66.08679864      10.17267229      8.83420597       64.36436436     
    1578.000 69.59789388      10.16732835      8.83424001       65.76576577     
    1578.500 73.75833596      10.17330913      8.83427404       66.04604605     
    1579.000 74.07373963      10.17129468      8.83430808       66.48648649     
    1579.500 73.75465400      10.19546554      8.83434212       65.28528529     
    1580.000 72.47388474      10.18298840      8.83437616       65.04504505     
    1580.500 70.55486982      10.19854581      8.83441020       65.16516517     
    1581.000 70.23197697      10.19962025      8.83444424       66.80680681     
    1581.500 70.87133136      10.54735639      8.83447828       66.36636637     
    1582.000 72.78585405      11.51497462      8.83451231       70.61061061     
    1582.500 74.39047822      11.76256202      8.83454635       71.05105105     
    1583.000 74.38306685      12.07885587      8.83458039       74.70617284     
    1583.500 73.43520547      12.97267315      8.83461443       77.73773774     
    1584.000 72.46390301      13.55693424      8.83464847       77.89789790     
