~Version Information Block
 VERS.                2.00:     CWLS LOG ASCII STANDARD - VERSION 2.000000
 WRAP.                  NO:     One Line Per Depth Step
#
~Well Information Block
#MNEM.UNIT                     Data                         Information
#----------   ------------------------------------------   ----------------
 STRT.FT                                       50.0000:     START DEPTH
 STOP.FT                                     3000.0000:     STOP DEPTH
 STEP.FT                                        0.5000:     STEP
 NULL.                                       -999.2500:     NULL VALUE
 COMP.                        BUTTES GAS & OIL COMPANY:     COMPANY
 WELL.                               #1-25 NAVAJO #461:     WELL
 FLD .                                         WILDCAT:     FIELD
 LOC .                             660 N & 660 W OF SE:     LOCATION
 SEC .                                              25:     SECTION
 TWP .                                             35N:     TOWNSHIP
 RANG.                                             28E:     RANGE
 CNTY.                                          APACHE:     COUNTY
 STAT.                                         ARIZONA:     STATE
 CTRY.                                                :     COUNTRY
 SRVC.                                    SCHLUMBERGER:     SERVICE COMPANY
 DATE.                                      06/07/1968:     DATE
 API .                                    02-001-20078:     API NUMBER
 UWI .                                    02-001-20078:     UWI NUMBER
 TVD .                                              NO:     TVD flag
 WSTA.                                              OG:     Well status
#
~Curve Information Block
#MNEM.UNIT       API CODE      Curve Description
#----------    -------------   -------------------
 DEPT.FT                   :   Depth in Feet
 GR  .GAPI     35 310 01 01:   Gamma Ray
 CALI.IN       70 280 01 01:   Caliper
 BIT .IN                   :   Bituminous Rocks Facies
 DT  .US/F     60 520 08 01:   Delta-T
#
~Parameter Information Block
#MNEM.UNIT            Value               Description
#----------    --------------------    -------------------
 DATE.                    6/7/1968:    Date As Month-Day-Year
 RUN .                         ONE:    Run Number
 PDAT.                          KB:    Permanent Datum
 EPD .FT                 6359.0000:    Elevation Of Perm. Datum
 LMF .                          KB:    Log Measured From
 FAPD.FT                   11.0000:    Feet Above Perm. Datum
 DMF .                          KB:    Drilling Measured From
 EKB .FT                 6359.0000:    Elevation Of Kelly Bushing
 EDF .FT                 6358.0000:    Elevation Of Derrick Floor
 EGL .FT                 6343.0000:    Elevation Of Ground Level
 TD  .FT                 3000.0000:    Total Depth
 DF  .         Precambrian metamor:    
 DD  .FT                 3000.0000:    Depth Driller
 DL  .FT                 2996.0000:    Depth Logger
 BLI .FT                 2994.0000:    Bottom Log Interval
 TLI .FT                  271.0000:    Top Log Interval
 CBL1.                         271:    Casing Bottom (Logger) 1
 BS  .IN                     8 3/4:    Bit Size
 DFT .                         FGM:    Drilling Fluid Type
 DFV .S                    55.0000:    Drilling Fluid Viscosity
 DFD .LB/G                  9.1000:    Drilling Fluid Density
 DFL .ML                    5.8000:    Drilling Fluid Loss
 DFPH.                      9.0000:    Drilling Fluid Ph
 MSS .                    MUD TANK:    Mud Sample Source
 RMS .OHMM                  2.8800:    Resistivity Of Mud Sample
 MST .DEGF                 73.0000:    Mud Sample Temperature
 RMF .OHMM                  2.8100:    Mud Filtrate Resistivity
 MFST.DEGF                 75.0000:    Mud Filtrate Sample Temperature
 MFSS.                           M:    Mud Filtrate Sample Source
 RMC .OHMM                  1.8700:    Mud Cake Resistivity
 MCST.DEGF                112.0000:    Mud Cake Sample Temperature
 RMB .OHMM                  1.8800:    Mud Resistivity At Bht
 BHT .DEGF                112.0000:    Bottom Hole Temperature
 TCS .                     3 HOURS:    Time Circulation Stopped
 TLAB.                     3 HOURS:    Time Logger At Bottom
 MRT .DEGF                112.0000:    Maximum Recorded Temperature
 LUN .                        4542:    Logging Unit Number
 LUL .                        FARM:    Logging Unit Location
 ENGI.                       RUSEN:    Engineer'S Name
 WITN.                 MR. WHITLEY:    Witness' Name
 DGBY.                          LS:    
 WSTA.                          OG:    
#
~Other Information Block
<DescLogPlotStart>   NEURALOG PLOT DEFINITION
PLOTDEFVERSION: 3
LASFILE: O:\OG_Data\RMCCS digitized wells project\Leah Spencer\las\0461BHCS.las
DEPTHSCALE: 600.000013
RESOLUTION: 200
DEPTHLABELFREQ: 100.000000
HEAVYGRIDFREQ: 50.000000
MEDIUMGRIDFREQ: 50.000000
LIGHTGRIDFREQ: 50.000000
#
#   TRACK 1
#
STARTTRACK: 
 LEFTX: 0.500000 inch
 RIGHTX: 3.000000 inch
 SCALETYPE: Linear
 NUMCHARTDIVISIONS: 10
CURVE: GR    0.000000   160.000000 (0,0,255)      Solid             2     Y    
BACKUP: 160.000000 320.000000 (131,0,131)    Solid             2    
CURVE: CALI  6.000000   16.000000  (0,131,131)    Dot               2     N    
CURVE: BIT   6.000000   16.000000  (255,0,255)    Short_Dash        2     N    
ENDTRACK: 
#
#   TRACK 2
#
STARTTRACK: 
 LEFTX: 3.500000 inch
 RIGHTX: 8.500000 inch
 SCALETYPE: Linear
 NUMCHARTDIVISIONS: 20
CURVE: DT    80.000000  40.000000  (131,0,255)    Solid             2     Y    
BACKUP: 120.000000 80.000000  (255,0,0)      Solid             2    
ENDTRACK: 
<DescLogPlotEnd>
<DescLog>Borehole Comp Sonic Log Gamma R
<DescOSVS>IES
<DescOSVS>
<DescOSVS>
~A DEPTH     GR               CALI             BIT              DT              
# ...
    2772.500 39.21415003      8.77000000       8.78624535       65.40540541     
    2773.000 38.87166087      8.77000000       8.78589948       64.96496496     
    2773.500 40.49041950      8.77000000       8.78555395       66.80680681     
    2774.000 43.67142261      8.77000000       8.78520818       70.81081081     
    2774.500 46.56365415      8.77000000       8.78486259       77.19431431     
    2775.000 48.78927591      8.77000000       8.78451683       78.77797118     
    2775.500 49.76326303      8.77000000       8.78417102       78.57318724     
    2776.000 50.71384759      8.77000000       8.78382521       72.89366405     
    2776.500 50.91194593      8.77000000       8.78347940       66.96315438     
    2777.000 50.71778128      8.77000000       8.78313359       65.08696934     
    2777.500 47.84805074      8.77000000       8.78278778       67.16395288     
    2778.000 40.80673320      8.77000000       8.78244197       69.72847276     
    2778.500 34.09715748      8.77000000       8.78209616       71.00840548     
    2779.000 28.66034359      8.77000000       8.78175035       71.09178812     
    2779.500 22.90656269      8.77000000       8.78140454       69.96837721     
    2780.000 21.31144513      8.77000000       8.78105873       69.52911751     
    2780.500 20.99086307      8.77000000       8.78071293       68.44733649     
    2781.000 21.32382784      8.77000000       8.78036712       67.08540704     
    2781.500 24.83453507      8.77000000       8.78002131       67.12608169     
    2782.000 29.00287123      8.77000000       8.77967550       67.08573347     
    2782.500 34.10574419      8.77000000       8.77932969       66.52652653     
    2783.000 41.14221315      8.77000000       8.77898388       66.08608609     
    2783.500 49.45038651      8.77000000       8.77863807       65.36536537     
    2784.000 53.58754197      8.77000000       8.77829226       64.76476476     
    2784.500 54.24991014      8.77000000       8.77794645       63.01453453     
    2785.000 54.52939102      8.77000000       8.77760064       62.88288288     
    2785.500 59.04609388      8.77000000       8.77725483       62.88288288     
    2786.000 63.50294456      8.77000000       8.77690902       62.72272272     
    2786.500 68.33326176      8.77000000       8.77656322       65.87019019     
    2787.000 74.37361223      8.77000000       8.77621741       67.36736737     
    2787.500 79.85854154      8.77000000       8.77587160       65.69903237     
    2788.000 89.40155777      8.77000000       8.77552579       62.66970971     
    2788.500 102.57936230     8.77000000       8.77517998       57.19719720     
    2789.000 113.06751616     8.77000000       8.77483417       51.99199199     
    2789.500 113.14105502     8.77000000       8.77448836       50.99099099     
    2790.000 109.22473254     8.77000000       8.77414255       51.03103103     
    2790.500 91.06868745      8.77000000       8.77379674       51.51151151     
    2791.000 82.03213170      8.77000000       8.77345093       51.99199199     
    2791.500 53.63701713      8.77000000       8.77310512       51.91191191     
    2792.000 44.60728293      8.77000000       8.77275931       53.39339339     
    2792.500 42.43649902      8.77000000       8.77241350       53.15315315     
    2793.000 42.08000000      8.77000000       8.77206770       51.43143143     
    2793.500 42.08000000      8.77000000       8.77172189       51.31131131     
    2794.000 59.36000000      8.77000000       8.77137608       50.83083083     
    2794.500 67.68000000      8.77000000       8.77103027       50.11011011     
    2795.000 68.00000000      8.77000000       8.77068446       50.11011011     
    2795.500 66.72000000      8.77000000       8.77033865       50.43043043     
    2796.000 50.40000000      8.77000000       8.76999284       50.31031031     
    2796.500 39.20000000      8.77000000       8.76964703       50.79079079     
    2797.000 23.52000000      8.77000000       8.76930122       50.39039039     
    2797.500 23.52000000      8.77000000       8.76895541       50.63063063     
    2798.000 25.44000000      8.77000000       8.76860960       51.67167167     
    2798.500 28.00000000      8.77000000       8.76826379       52.07172887     
    2799.000 39.52000000      8.77000000       8.76791798       52.19219219     
    2799.500 52.96000000      8.77000000       8.76757218       52.11211211     
    2800.000 71.84000000      8.77000000       8.76722637       51.11111111     
    2800.500 86.56000000      8.77000000       8.76688056       51.11111111     
    2801.000 87.51559331      8.77000000       8.76653475       52.43830497     
    2801.500 86.55900330      8.77000000       8.76618894       52.91291291     
    2802.000 81.43559872      8.77000000       8.76584313       52.83283283     
    2802.500 74.08743735      8.77000000       8.76549732       52.27227227     
    2803.000 72.15347095      8.77000000       8.76515151       51.27127127     
    2803.500 70.24890437      8.77000000       8.76480570       51.55155155     
    2804.000 65.74685666      8.77000000       8.76445989       55.39539540     
    2804.500 59.04712587      8.77000000       8.76411408       59.89674119     
    2805.000 47.18485345      8.77000000       8.76376827       63.60360360     
    2805.500 28.97291649      8.77000000       8.76342247       65.16516517     
    2806.000 27.98940463      8.77000000       8.76307666       64.32432432     
    2806.500 28.33499489      8.77000000       8.76273085       62.35747748     
    2807.000 33.48729642      8.77000000       8.76238504       60.12012012     
    2807.500 46.59128305      8.77000000       8.76203923       59.01381381     
    2808.000 62.87525819      8.77000000       8.76169342       58.07917008     
    2808.500 77.59186441      8.77000000       8.76134761       57.25853126     
    2809.000 89.90779661      8.77000000       8.76100180       56.71671672     
    2809.500 92.96000000      8.77000000       8.76065599       59.14482482     
    2810.000 92.64000000      8.77000000       8.76031018       64.38896039     
    2810.500 92.00000000      8.77000000       8.75996437       69.52952953     
    2811.000 81.46779661      8.77000000       8.75961856       71.81181181     
    2811.500 68.09830508      8.77000000       8.75927275       71.21121121     
    2812.000 51.63932203      8.77000000       8.75892695       64.16416416     
    2812.500 41.44000000      8.77000000       8.75858114       61.84184184     
    2813.000 41.44000000      8.77000000       8.75823533       60.36036036     
    2813.500 42.08000000      8.77000000       8.75788952       60.36036036     
    2814.000 53.55661017      8.77000000       8.75754371       59.67967968     
    2814.500 72.48000000      8.77000000       8.75719790       59.67967968     
    2815.000 73.44000000      8.77000000       8.75685209       59.83983984     
    2815.500 72.16000000      8.77000000       8.75650628       59.83983984     
    2816.000 66.72000000      8.77000000       8.75616047       59.63963964     
    2816.500 66.72000000      8.77000000       8.75581466       58.55855856     
    2817.000 85.92000000      8.77000000       8.75546885       57.65589590     
    2817.500 104.48000000     8.77000000       8.75512310       57.47747748     
    2818.000 104.80000000     8.77000000       8.75478194       57.99799800     
    2818.500 104.16000000     8.77000000       8.75443490       64.12412412     
    2819.000 83.37807910      8.77000000       8.75409557       65.90207986     
    2819.500 67.68000000      8.77000000       8.75374543       68.24824825     
    2820.000 67.04000000      8.77000000       8.75341036       68.40840841     
    2820.500 67.36000000      8.77000313       8.75305498       66.80680681     
    2821.000 79.92135593      8.77000489       8.75272591       63.87299299     
    2821.500 101.05401130     8.77000894       8.75236403       62.04204204     
