~Version Information
 VERS.      2.0                                  : CWLS Log ASCII Standard - VERSION 2.0
 SERV.      IHS Energy                           : IHS Energy
 WRAP.      NO                                   : One line per depth step

~Well Information
#MNEM.UNIT       DATA                            : DESCRIPTION
#----.----       ---------                       : -----------
 NULL.      -999.2500                            : Null Value
 STRT.M     283.0000                             : Start Depth
 STOP.M     2671.2000                            : Stop Depth
 STEP.M     0.2000                               : Depth Increment
 UWI .      100160407110W600                     : Unique Well ID
 CNTY.                                           : County
 COMP.      SUNCOR ENERGY INC.                   : Company
 CTRY.      CAN                                  : Country
 DATE.      1991-06-19                           : Log Date(s)
 FLD .      ELMWORTH                             : Field
 LIC .      0148772                              : License No
 LOC .      00/16-04-071-10W6/0                  : Location
 PROV.      ALBERTA                              : Province
 SON .                                           : Service Order No(s)
 WELL.      SUNCOR CDN HUNTER ELM 16-4-71-10     : Well Name

~Parameter Information
#MNEM.UNIT       DATA                            : DESCRIPTION
#----.----       ---------                       : -----------
 BASE.                                           : Logging Unit Home Base
 BOTL.M     2670.8000                            : Bottom of Logged Interval
 BS  .MM    0.0000                               : Bit Size
 CSGD.M     454.7000                             : Casing Bottom, Driller
 CSGL.M     454.5000                             : Casing Bottom, Logger
 CSGS.MM    0.0000                               : Casing Size (diameter)
 DIGS.      QCDATA                               : Digitizing Company
 DREF.M     KB                                   : Depth Reference
 EGL .M     726.1000                             : Elevation Ground Level
 EKB .M     731.5000                             : Elevation Kelly Bushing
 ENG .                                           : Recording Engineer
 EREF.M     731.5000                             : Elevation of Depth Reference
 RUN .                                           : Run Number
 SRVC.      SCHLUMBERGER CANADA LIMITED          : Service Company
 TDD .M     2680.0000                            : Total Depth, Driller
 TDL .M     2672.6000                            : Total Depth, Logger
 TIML.                                           : Date/Time Logger on Bottom
 TMAX.DEGC  0.0000                               : Max Temperature
 TOPL.M     454.0000                             : Top of Logged Interval
 UNIT.                                           : Unit Number
 WIT .                                           : Witnessed By

~tops
 PUSKWSK            509.5000
 CHINKSS            538.0000
 COLRAD             579.5000
 BADHRT             689.0000
 MUSKIKI            705.0000
 CARD               735.0000
 CARDSD             756.0000
 KASKAPAU           774.0000
 DUNVG              1211.0000
 SHAFTBR            1405.0000
 BFSC               1525.0000
 PADDY              1665.0000
 CADOTT             1685.0000
 HARMON             1708.0000
 NOTIK              1735.0000
 FALHASD            1787.0000
 FALHBSD            1805.0000
 FALHCSD            1835.0000
 FALHDSD            1880.0000
 FALHESD            1901.0000
 WILRICH            1984.0000
 BLUSKY             2065.0000
 GETH               2086.0000
 CADOMIN            2207.0000
 NIKANSN            2226.0000
 FERNIE             2348.0000
 NORD               2424.0000
 CHARLK             2442.0000
 HALFWY             2590.0000
 DOIG               2600.5000

~Other Information
Mnemonics commonly used by IHS Energy, LAS, Alberta EUB and LIS are used in this output file.

~Curve Information
# MNEM .UNIT        API CODE   : Curve Description
#----- .----      ------------ : -------------------
 DEPT  .M         00 001 00 00 : 1 DEPTH
 SP    .MV        07 010 01 00 : 2 SPONTANEOUS POTENTIAL
 ILD   .OHM.M     07 120 46 00 : 3 INDUCTION DEEP RESISTIVITY
 C1    .MM        45 280 01 00 : 4 
 DT    .US/M      60 520 00 00 : 5 DELTA-T COMPRESSIONAL
 GAM   .API       60 310 01 00 : 6 
 NPSS  .%         42 890 03 00 : 7 
 RHOB  .KG/M3     45 350 01 00 : 8 BULK DENSITY
 GR    .GAPI      60 310 01 00 : 9 
 CAX   .MM        42 280 01 00 : 10 
 ILM   .OHM.M     08 120 44 00 : 11 
 SFL   .OHM.M     08 220 01 00 : 12 
 CALS  .MM        60 280 03 00 : 13 
 CAY   .MM        42 280 02 00 : 14 
 AC    .US/M      60 520 00 00 : 15 ACQUISITION TRAVEL TIME
 PEF   .B/E       42 358 01 00 : 16 PHOTO-ELECTRIC FACTOR
 DEN   .KG/M3     42 350 01 00 : 17 BULK DENSITY
 DC    .KG/M3     42 356 01 00 : 18 DENSITY CORRECTION
 INV   .OHM.M     15 250 02 00 : 19 MICRO INVERSE 1 INCH
 NOR   .OHM.M     15 252 02 00 : 20 MICRO NORMAL
 POS   .V/V       42 890 03 00 : 21 
 POL   .V/V       42 890 01 00 : 22 
~A         DEPT             SP            ILD             C1             DT            GAM           NPSS           RHOB             GR            CAX            ILM            SFL           CALS            CAY             AC            PEF            DEN             DC            INV            NOR            POS            POL
# ...
      1928.0000       -16.2559        42.7794       253.5620       209.6190        50.8782        17.0188      2563.6499        51.0300       254.7000        38.0391        45.4810       264.5000       265.7500       213.9600         3.1250      2565.8997        -8.8500        35.3880        30.1200         0.1813      -999.2500
      1928.2000       -16.2524        41.4390       253.7730       209.5340        50.6332        16.5595      2563.4700        51.9900       255.0000        37.5172        46.8846       264.5000       266.0750       213.5600         3.1840      2562.6001        -5.1000        40.1680        32.6960         0.1655      -999.2500
      1928.4000       -16.2489        40.1406       254.3260       210.0650        48.6803        16.0495      2563.1001        48.5850       255.0000        37.5517        46.9710       264.6250       266.4250       214.1200         3.1690      2565.0000        -4.5500        36.1200        29.0480         0.1622      -999.2500
      1928.6000       -16.2454        38.8829       254.5170       211.6540        48.6381        16.1136      2560.9900        44.7000       255.4250        37.6556        46.1987       264.1000       267.0250       214.8400         3.0270      2568.0000        -3.2000        34.1760        27.4160         0.1559      -999.2500
      1928.8000       -16.2419        38.6652       254.6870       213.0500        49.4406        16.1776      2558.9700        48.0900       255.6250        37.7251        45.6489       264.0000       268.0000       215.4000         3.0190      2559.8997        -0.7000        35.7600        28.0760         0.1547      -999.2500
      1929.0000       -16.3768        39.7412       254.8580       212.5260        48.2087        16.3146      2564.6699        49.3050       255.7250        38.1443        45.6909       264.0000       268.8500       212.7600         3.0870      2554.2000        -1.6500        34.9640        29.1680         0.1601      -999.2500
      1929.2000       -16.5132        40.8472       255.0280       210.5420        46.6353        16.3900      2570.3799        47.4300       255.8750        39.1408        46.1987       264.0000       265.7500       209.8400         3.0780      2560.2000        -2.5000        37.2160        30.2920         0.1629      -999.2500
      1929.4000       -16.5029        41.9840       255.1990       208.5590        44.1020        15.8498      2573.2500        42.9450       255.5000        41.0989        48.8236       264.0000       267.0750       205.6400         3.0800      2576.2000         1.1500        41.7440        32.4560         0.1692      -999.2500
      1929.6000       -16.3144        43.1909       255.3690       206.5750        42.0148        15.2913      2575.6799        39.2550       255.5000        43.5141        55.1353       264.0000       265.7500       206.6400         3.0750      2574.7998        -1.2500        53.3680        44.4360         0.1615      -999.2500
      1929.8000       -16.1258        44.5936       255.5400       204.5910        44.6938        14.7470      2578.1001        41.5950       255.7500        45.7330        57.3099       264.0000       265.7500       208.4800         3.0690      2571.7000        -1.9500        47.3720        42.2160         0.1402      -999.2500
      1930.0000       -15.9373        46.0418       255.7110       203.4690        48.6519        15.1483      2584.6899        46.2000       255.8750        47.2313        56.7322       264.0000       265.7500       207.6400         3.1570      2572.2998        -1.7000        41.6320        33.3320         0.1404      -999.2500
      1930.2000       -15.7757        47.4800       255.8810       203.2150        50.1808        15.4803      2593.6499        49.9800       255.9000        48.2870        59.0786       264.2500       265.7500       206.0800         3.2200      2578.0000        -4.3500        43.3840        38.6520         0.1535      -999.2500
      1930.4000       -15.6987        48.4241       256.0520       202.9600        50.6209        15.7885      2608.7200        52.2600       256.0000        49.2754        62.0340       264.2500       265.7500       204.9200         3.4150      2588.3997        -2.8500        46.7800        39.0600         0.1460      -999.2500
      1930.6000       -15.5998        48.8342       256.2220       202.8970        47.1041        16.0435      2622.8101        49.5000       256.0000        49.6398        61.4653       264.2500       265.7500       204.3200         3.6350      2598.7000        -2.9999        53.2600        42.0200         0.1630      -999.2500
      1930.8000       -15.4967        47.9409       256.3930       204.7110        47.2148        15.4244      2624.0200        44.2800       256.0000        48.1981        59.8453       264.1750       265.5500       203.8400         3.6700      2616.7000         0.0000        45.5800        39.0360         0.1634      -999.2500
      1931.0000       -15.4119        46.9875       256.5630       206.5250        49.5084        14.4943      2610.2100        46.4550       256.0000        45.2304        57.4685       264.0000       266.9250       206.7600         3.5010      2630.5000         5.0500        48.7800        39.5360         0.1486      -999.2500
      1931.2000       -15.4203        45.9885       256.7340       208.3390        51.2214        14.6359      2596.3999        50.1600       256.0000        41.9788        50.5627       264.0000       272.8250       211.6400         3.3560      2623.8997         3.4500        39.9160        34.3800         0.1301      -999.2500
      1931.4000       -15.4287        45.0108       256.9050       210.1530        52.8979        15.6679      2582.8101        50.1600       256.0000        39.8685        46.2839       264.0000       265.7500       212.2800         3.2280      2604.6001         1.5500        33.5160        28.1840         0.1565      -999.2500
      1931.6000       -15.4108        43.7556       257.0750       212.1370        53.1057        16.2141      2570.9299        50.9850       256.0000        39.1048        46.7552       264.0000       267.3500       212.6400         3.1730      2585.2998        -1.9500        33.3680        28.5960         0.1622      -999.2500
      1931.8000       -15.2612        42.4781       257.2460       213.9490        53.3135        16.5522      2573.4500        54.3150       256.0000        39.1048        47.6683       263.7750       270.0250       213.2400         3.0030      2564.6001        -4.8500        30.4240        33.4840         0.1568      -999.2500
      1932.0000       -15.1115        41.2378       257.4160       213.8800        51.5778        16.8997      2575.6399        54.7200       256.0000        39.2491        47.9767       265.8500       268.5000       214.4800         2.9460      2564.0000        -2.3000        27.7280        35.9600         0.1724      -999.2500
      1932.2000       -14.9619        40.4736       257.5870       213.8100        48.2569        17.2422      2575.6699        50.1600       256.0000        39.4666        48.4652       266.5000       266.5250       215.7200         3.0400      2577.0000        -1.8500        23.3680        33.6280         0.1709      -999.2500
      1932.4000       -14.7862        41.0853       257.7880       213.7400        49.9843        17.5774      2574.9199        46.5600       256.0000        39.9788        48.6441       266.5000       266.9250       216.0800         3.1720      2585.8997         1.7000        33.8760        31.4960         0.1697      -999.2500
      1932.6000       -14.0072        42.6351       258.3720       214.9330        51.7116        17.8796      2570.4299        47.7150       256.0000        41.0989        47.8443       266.5000       267.2500       216.1200         3.3620      2575.2000         1.3000        36.5440        29.8360         0.1742      -999.2500
      1932.8000       -13.2282        45.8815       258.8080       216.3010        58.0379        18.2405      2572.9199        49.4100       256.0000        41.9788        51.5027       266.5000       267.2500       216.1600         3.1200      2570.2998         2.5500        29.7440        30.3480         0.1834      -999.2500
