~Version Information
 VERS.      2.0                                  : CWLS Log ASCII Standard - VERSION 2.0
 SERV.      IHS Energy                           : IHS Energy
 WRAP.      NO                                   : One line per depth step

~Well Information
#MNEM.UNIT       DATA                            : DESCRIPTION
#----.----       ---------                       : -----------
 NULL.      -999.2500                            : Null Value
 STRT.M     283.0000                             : Start Depth
 STOP.M     2671.2000                            : Stop Depth
 STEP.M     0.2000                               : Depth Increment
 UWI .      100160407110W600                     : Unique Well ID
 CNTY.                                           : County
 COMP.      SUNCOR ENERGY INC.                   : Company
 CTRY.      CAN                                  : Country
 DATE.      1991-06-19                           : Log Date(s)
 FLD .      ELMWORTH                             : Field
 LIC .      0148772                              : License No
 LOC .      00/16-04-071-10W6/0                  : Location
 PROV.      ALBERTA                              : Province
 SON .                                           : Service Order No(s)
 WELL.      SUNCOR CDN HUNTER ELM 16-4-71-10     : Well Name

~Parameter Information
#MNEM.UNIT       DATA                            : DESCRIPTION
#----.----       ---------                       : -----------
 BASE.                                           : Logging Unit Home Base
 BOTL.M     2670.8000                            : Bottom of Logged Interval
 BS  .MM    0.0000                               : Bit Size
 CSGD.M     454.7000                             : Casing Bottom, Driller
 CSGL.M     454.5000                             : Casing Bottom, Logger
 CSGS.MM    0.0000                               : Casing Size (diameter)
 DIGS.      QCDATA                               : Digitizing Company
 DREF.M     KB                                   : Depth Reference
 EGL .M     726.1000                             : Elevation Ground Level
 EKB .M     731.5000                             : Elevation Kelly Bushing
 ENG .                                           : Recording Engineer
 EREF.M     731.5000                             : Elevation of Depth Reference
 RUN .                                           : Run Number
 SRVC.      SCHLUMBERGER CANADA LIMITED          : Service Company
 TDD .M     2680.0000                            : Total Depth, Driller
 TDL .M     2672.6000                            : Total Depth, Logger
 TIML.                                           : Date/Time Logger on Bottom
 TMAX.DEGC  0.0000                               : Max Temperature
 TOPL.M     454.0000                             : Top of Logged Interval
 UNIT.                                           : Unit Number
 WIT .                                           : Witnessed By

~tops
 PUSKWSK            509.5000
 CHINKSS            538.0000
 COLRAD             579.5000
 BADHRT             689.0000
 MUSKIKI            705.0000
 CARD               735.0000
 CARDSD             756.0000
 KASKAPAU           774.0000
 DUNVG              1211.0000
 SHAFTBR            1405.0000
 BFSC               1525.0000
 PADDY              1665.0000
 CADOTT             1685.0000
 HARMON             1708.0000
 NOTIK              1735.0000
 FALHASD            1787.0000
 FALHBSD            1805.0000
 FALHCSD            1835.0000
 FALHDSD            1880.0000
 FALHESD            1901.0000
 WILRICH            1984.0000
 BLUSKY             2065.0000
 GETH               2086.0000
 CADOMIN            2207.0000
 NIKANSN            2226.0000
 FERNIE             2348.0000
 NORD               2424.0000
 CHARLK             2442.0000
 HALFWY             2590.0000
 DOIG               2600.5000

~Other Information
Mnemonics commonly used by IHS Energy, LAS, Alberta EUB and LIS are used in this output file.

~Curve Information
# MNEM .UNIT        API CODE   : Curve Description
#----- .----      ------------ : -------------------
 DEPT  .M         00 001 00 00 : 1 DEPTH
 SP    .MV        07 010 01 00 : 2 SPONTANEOUS POTENTIAL
 ILD   .OHM.M     07 120 46 00 : 3 INDUCTION DEEP RESISTIVITY
 C1    .MM        45 280 01 00 : 4 
 DT    .US/M      60 520 00 00 : 5 DELTA-T COMPRESSIONAL
 GAM   .API       60 310 01 00 : 6 
 NPSS  .%         42 890 03 00 : 7 
 RHOB  .KG/M3     45 350 01 00 : 8 BULK DENSITY
 GR    .GAPI      60 310 01 00 : 9 
 CAX   .MM        42 280 01 00 : 10 
 ILM   .OHM.M     08 120 44 00 : 11 
 SFL   .OHM.M     08 220 01 00 : 12 
 CALS  .MM        60 280 03 00 : 13 
 CAY   .MM        42 280 02 00 : 14 
 AC    .US/M      60 520 00 00 : 15 ACQUISITION TRAVEL TIME
 PEF   .B/E       42 358 01 00 : 16 PHOTO-ELECTRIC FACTOR
 DEN   .KG/M3     42 350 01 00 : 17 BULK DENSITY
 DC    .KG/M3     42 356 01 00 : 18 DENSITY CORRECTION
 INV   .OHM.M     15 250 02 00 : 19 MICRO INVERSE 1 INCH
 NOR   .OHM.M     15 252 02 00 : 20 MICRO NORMAL
 POS   .V/V       42 890 03 00 : 21 
 POL   .V/V       42 890 01 00 : 22 
~A         DEPT             SP            ILD             C1             DT            GAM           NPSS           RHOB             GR            CAX            ILM            SFL           CALS            CAY             AC            PEF            DEN             DC            INV            NOR            POS            POL
# ...
       753.0000       -53.5954        11.9075       250.6720       302.2250        97.7378      -999.2500      -999.2500        98.8200       252.1750         9.2946         9.9961       277.8000       293.1500       298.7600      -999.2500      -999.2500      -999.2500      -999.2500      -999.2500      -999.2500      -999.2500
       753.2000       -53.3762        11.8836       250.7690       306.6110        98.4321      -999.2500      -999.2500        95.1300       253.1000         9.1840        10.0886       266.9250       326.7750       299.4000      -999.2500      -999.2500      -999.2500      -999.2500      -999.2500      -999.2500      -999.2500
       753.4000       -53.1522        12.5503       250.8700       303.0840        99.1328      -999.2500      -999.2500        96.6000       252.6750         9.9502        10.4383       273.0000       340.8250       300.0400      -999.2500      -999.2500      -999.2500      -999.2500      -999.2500      -999.2500      -999.2500
       753.6000       -52.9280        13.3979       250.7870       296.6730       103.3460      -999.2500      -999.2500       102.6000       252.4000        11.5513        12.5612       262.5250       353.2500       300.4000      -999.2500      -999.2500      -999.2500      -999.2500      -999.2500      -999.2500      -999.2500
       753.8000       -52.7039        14.8307       249.8850       290.7020       104.6920      -999.2500      -999.2500       106.8000       251.9250        13.7350        18.1731       255.2000       327.8000       285.8800      -999.2500      -999.2500      -999.2500      -999.2500      -999.2500      -999.2500      -999.2500
       754.0000       -52.4797        16.5971       248.8790       284.8950       101.8560      -999.2500      -999.2500       107.2650       248.0750        15.1995        24.0674       257.1500       312.7750       283.0000      -999.2500      -999.2500      -999.2500      -999.2500      -999.2500      -999.2500      -999.2500
       754.2000       -52.2555        18.0607       247.8080       279.0880        96.4360      -999.2500      -999.2500        96.4050       244.2750        15.3826        21.0974       263.6250       303.7250       278.0800      -999.2500      -999.2500      -999.2500      -999.2500      -999.2500      -999.2500      -999.2500
       754.4000       -52.4990        19.1887       246.7380       274.2380        95.2594      -999.2500      -999.2500        94.6950       245.8750        15.5106        17.7431       264.5250       333.6750       272.9600      -999.2500      -999.2500      -999.2500      -999.2500      -999.2500      -999.2500      -999.2500
       754.6000       -52.7330        20.1632       245.9370       270.6340        93.2806      -999.2500      -999.2500        98.0700       246.5250        17.2755        20.2782       263.7500       335.6500       268.4800      -999.2500      -999.2500      -999.2500      -999.2500      -999.2500      -999.2500      -999.2500
       754.8000       -52.8737        19.9614       245.4980       267.0300        86.5438      -999.2500      -999.2500        97.3350       245.1750        20.1294        24.2231       259.8500       336.5000       268.3200      -999.2500      -999.2500      -999.2500      -999.2500      -999.2500      -999.2500      -999.2500
       755.0000       -52.9591        18.6882       245.1070       343.3300        79.1441      -999.2500      -999.2500        87.2550       245.0500        20.0923        26.9296       262.1250       318.6750       268.1600      -999.2500      -999.2500      -999.2500      -999.2500      -999.2500      -999.2500      -999.2500
       755.2000       -52.7079        18.6312       245.6320       338.2560        72.7586      -999.2500      -999.2500        74.1450       246.1000        15.4964        22.3373       271.5000       306.6250       307.7600      -999.2500      -999.2500      -999.2500      -999.2500      -999.2500      -999.2500      -999.2500
       755.4000       -52.4567        18.6530       246.1570       313.6610        66.7204      -999.2500      -999.2500        65.9250       248.4000        11.8530        14.2636       304.9500       312.5750       348.8800      -999.2500      -999.2500      -999.2500      -999.2500      -999.2500      -999.2500      -999.2500
       755.6000       -52.6631        18.2517       251.7860       289.0650        64.7943      -999.2500      -999.2500        70.9650       285.4750        11.0415        11.5939       314.1000       333.7500       326.4400      -999.2500      -999.2500      -999.2500      -999.2500      -999.2500      -999.2500      -999.2500
       755.8000       -53.0385        17.1161       272.8400       264.4690        61.2551      -999.2500      -999.2500        65.9100       275.2750        14.4354        13.5341       283.9000       371.4750       291.9600      -999.2500      -999.2500      -999.2500      -999.2500      -999.2500      -999.2500      -999.2500
       756.0000       -53.6032        17.1269       268.1480       260.8670        58.2399      -999.2500      -999.2500        59.0550       255.5250        22.4404        21.9094       267.9750       343.7250       248.8400      -999.2500      -999.2500      -999.2500      -999.2500      -999.2500      -999.2500      -999.2500
       756.2000       -54.3548        21.1524       255.1200       267.0600        72.1315      -999.2500      -999.2500        57.4950       251.8250        27.8375        30.7206       258.3750       309.1250       253.5600      -999.2500      -999.2500      -999.2500      -999.2500      -999.2500      -999.2500      -999.2500
       756.4000       -54.4202        24.5005       253.7550       264.0640        86.1478      -999.2500      -999.2500        68.8950       249.6250        21.5293        25.5288       268.4750       271.4500       259.8800      -999.2500      -999.2500      -999.2500      -999.2500      -999.2500      -999.2500      -999.2500
       756.6000       -54.7235        26.4379       251.8210       256.9900        89.0961      -999.2500      -999.2500        85.8300       249.6250        17.1803        19.2057       271.7250       281.0750       266.2000      -999.2500      -999.2500      -999.2500      -999.2500      -999.2500      -999.2500      -999.2500
       756.8000       -55.0269        28.5285       249.8890       249.9150        82.7975      -999.2500      -999.2500        92.0400       248.9500        18.1230        17.4836       257.1500       306.1750       270.3200      -999.2500      -999.2500      -999.2500      -999.2500      -999.2500      -999.2500      -999.2500
       757.0000       -55.3303        31.1971       247.9780       245.6470        74.4646      -999.2500      -999.2500        84.6450       246.3000        26.4137        23.2825       250.7250       291.1750       248.0400      -999.2500      -999.2500      -999.2500      -999.2500      -999.2500      -999.2500      -999.2500
       757.2000       -55.6932        34.5405       246.1600       246.3680        66.7512      -999.2500      -999.2500        76.5900       245.4250        43.2345        30.4670       247.6000       251.1500       243.6800      -999.2500      -999.2500      -999.2500      -999.2500      -999.2500      -999.2500      -999.2500
       757.4000       -56.1266        36.1433       245.0500       247.0880        61.2527      -999.2500      -999.2500        66.8550       243.0250        54.3788        34.3423       246.4250       247.3750       240.8000      -999.2500      -999.2500      -999.2500      -999.2500      -999.2500      -999.2500      -999.2500
       757.6000       -56.5600        37.8205       243.9390       247.8080        54.5126      -999.2500      -999.2500        57.6600       241.6500        47.8884        36.8324       245.1500       248.8750       238.9200      -999.2500      -999.2500      -999.2500      -999.2500      -999.2500      -999.2500      -999.2500
       757.8000       -57.0508        38.2005       242.8280       248.5290        48.2984      -999.2500      -999.2500        51.3300       240.5000        40.6097        37.3792       244.6250       248.2000       239.3600      -999.2500      -999.2500      -999.2500      -999.2500      -999.2500      -999.2500      -999.2500
