~Version Information
 VERS.      2.0                                  : CWLS Log ASCII Standard - VERSION 2.0
 SERV.      IHS Energy                           : IHS Energy
 WRAP.      NO                                   : One line per depth step

~Well Information
#MNEM.UNIT       DATA                            : DESCRIPTION
#----.----       ---------                       : -----------
 NULL.      -999.2500                            : Null Value
 STRT.M     283.0000                             : Start Depth
 STOP.M     2671.2000                            : Stop Depth
 STEP.M     0.2000                               : Depth Increment
 UWI .      100160407110W600                     : Unique Well ID
 CNTY.                                           : County
 COMP.      SUNCOR ENERGY INC.                   : Company
 CTRY.      CAN                                  : Country
 DATE.      1991-06-19                           : Log Date(s)
 FLD .      ELMWORTH                             : Field
 LIC .      0148772                              : License No
 LOC .      00/16-04-071-10W6/0                  : Location
 PROV.      ALBERTA                              : Province
 SON .                                           : Service Order No(s)
 WELL.      SUNCOR CDN HUNTER ELM 16-4-71-10     : Well Name

~Parameter Information
#MNEM.UNIT       DATA                            : DESCRIPTION
#----.----       ---------                       : -----------
 BASE.                                           : Logging Unit Home Base
 BOTL.M     2670.8000                            : Bottom of Logged Interval
 BS  .MM    0.0000                               : Bit Size
 CSGD.M     454.7000                             : Casing Bottom, Driller
 CSGL.M     454.5000                             : Casing Bottom, Logger
 CSGS.MM    0.0000                               : Casing Size (diameter)
 DIGS.      QCDATA                               : Digitizing Company
 DREF.M     KB                                   : Depth Reference
 EGL .M     726.1000                             : Elevation Ground Level
 EKB .M     731.5000                             : Elevation Kelly Bushing
 ENG .                                           : Recording Engineer
 EREF.M     731.5000                             : Elevation of Depth Reference
 RUN .                                           : Run Number
 SRVC.      SCHLUMBERGER CANADA LIMITED          : Service Company
 TDD .M     2680.0000                            : Total Depth, Driller
 TDL .M     2672.6000                            : Total Depth, Logger
 TIML.                                           : Date/Time Logger on Bottom
 TMAX.DEGC  0.0000                               : Max Temperature
 TOPL.M     454.0000                             : Top of Logged Interval
 UNIT.                                           : Unit Number
 WIT .                                           : Witnessed By

~tops
 PUSKWSK            509.5000
 CHINKSS            538.0000
 COLRAD             579.5000
 BADHRT             689.0000
 MUSKIKI            705.0000
 CARD               735.0000
 CARDSD             756.0000
 KASKAPAU           774.0000
 DUNVG              1211.0000
 SHAFTBR            1405.0000
 BFSC               1525.0000
 PADDY              1665.0000
 CADOTT             1685.0000
 HARMON             1708.0000
 NOTIK              1735.0000
 FALHASD            1787.0000
 FALHBSD            1805.0000
 FALHCSD            1835.0000
 FALHDSD            1880.0000
 FALHESD            1901.0000
 WILRICH            1984.0000
 BLUSKY             2065.0000
 GETH               2086.0000
 CADOMIN            2207.0000
 NIKANSN            2226.0000
 FERNIE             2348.0000
 NORD               2424.0000
 CHARLK             2442.0000
 HALFWY             2590.0000
 DOIG               2600.5000

~Other Information
Mnemonics commonly used by IHS Energy, LAS, Alberta EUB and LIS are used in this output file.

~Curve Information
# MNEM .UNIT        API CODE   : Curve Description
#----- .----      ------------ : -------------------
 DEPT  .M         00 001 00 00 : 1 DEPTH
 SP    .MV        07 010 01 00 : 2 SPONTANEOUS POTENTIAL
 ILD   .OHM.M     07 120 46 00 : 3 INDUCTION DEEP RESISTIVITY
 C1    .MM        45 280 01 00 : 4 
 DT    .US/M      60 520 00 00 : 5 DELTA-T COMPRESSIONAL
 GAM   .API       60 310 01 00 : 6 
 NPSS  .%         42 890 03 00 : 7 
 RHOB  .KG/M3     45 350 01 00 : 8 BULK DENSITY
 GR    .GAPI      60 310 01 00 : 9 
 CAX   .MM        42 280 01 00 : 10 
 ILM   .OHM.M     08 120 44 00 : 11 
 SFL   .OHM.M     08 220 01 00 : 12 
 CALS  .MM        60 280 03 00 : 13 
 CAY   .MM        42 280 02 00 : 14 
 AC    .US/M      60 520 00 00 : 15 ACQUISITION TRAVEL TIME
 PEF   .B/E       42 358 01 00 : 16 PHOTO-ELECTRIC FACTOR
 DEN   .KG/M3     42 350 01 00 : 17 BULK DENSITY
 DC    .KG/M3     42 356 01 00 : 18 DENSITY CORRECTION
 INV   .OHM.M     15 250 02 00 : 19 MICRO INVERSE 1 INCH
 NOR   .OHM.M     15 252 02 00 : 20 MICRO NORMAL
 POS   .V/V       42 890 03 00 : 21 
 POL   .V/V       42 890 01 00 : 22 
~A         DEPT             SP            ILD             C1             DT            GAM           NPSS           RHOB             GR            CAX            ILM            SFL           CALS            CAY             AC            PEF            DEN             DC            INV            NOR            POS            POL
# ...
       603.0000       -52.7045        13.3825       256.5390       308.4860        89.7343      -999.2500      -999.2500        91.4250       255.1500        11.4454        13.1289       302.0000       386.0000       309.2400      -999.2500      -999.2500      -999.2500      -999.2500      -999.2500      -999.2500      -999.2500
       603.2000       -52.7129        13.5174       256.1900       309.7120        89.2510      -999.2500      -999.2500        95.4150       254.4750        11.3823        12.6774       302.0000       381.2000       310.3200      -999.2500      -999.2500      -999.2500      -999.2500      -999.2500      -999.2500      -999.2500
       603.4000       -52.7213        13.7878       255.8620       310.9390        87.2270      -999.2500      -999.2500        93.8850       254.3500        11.3928        12.4345       302.0000       374.4500       311.4400      -999.2500      -999.2500      -999.2500      -999.2500      -999.2500      -999.2500      -999.2500
       603.6000       -52.7297        14.0637       255.9260       310.8640        84.8072      -999.2500      -999.2500        94.0500       254.8500        11.5726        12.7359       302.0000       368.9250       313.0000      -999.2500      -999.2500      -999.2500      -999.2500      -999.2500      -999.2500      -999.2500
       603.8000       -52.7381        14.3450       255.9900       309.0510        80.3684      -999.2500      -999.2500        89.7600       255.0000        11.8968        13.1048       302.0000       372.9750       307.4800      -999.2500      -999.2500      -999.2500      -999.2500      -999.2500      -999.2500      -999.2500
       604.0000       -52.7465        14.9034       256.0540       307.2380        79.7043      -999.2500      -999.2500        82.6950       254.5000        12.3433        13.4719       302.0500       380.1250       302.4800      -999.2500      -999.2500      -999.2500      -999.2500      -999.2500      -999.2500      -999.2500
       604.2000       -52.7548        15.6385       256.1190       305.4250        79.9097      -999.2500      -999.2500        80.9250       252.8250        12.9488        14.2243       301.5250       381.2500       297.4800      -999.2500      -999.2500      -999.2500      -999.2500      -999.2500      -999.2500      -999.2500
       604.4000       -52.7632        16.3197       256.1830       303.6120        80.3829      -999.2500      -999.2500        84.6300       252.6250        13.7477        15.3402       299.6750       377.0500       292.4800      -999.2500      -999.2500      -999.2500      -999.2500      -999.2500      -999.2500      -999.2500
       604.6000       -52.7716        16.9916       255.7650       297.6610        79.7232      -999.2500      -999.2500        85.2300       252.6250        14.5556        16.0927       299.1500       371.3500       291.5200      -999.2500      -999.2500      -999.2500      -999.2500      -999.2500      -999.2500      -999.2500
       604.8000       -52.7800        17.3288       255.3430       291.2670        77.5030      -999.2500      -999.2500        84.8250       252.3500        15.0879        15.8427       298.3500       371.2000       291.0400      -999.2500      -999.2500      -999.2500      -999.2500      -999.2500      -999.2500      -999.2500
       605.0000       -52.7884        17.4629       254.9210       285.9060        75.2828      -999.2500      -999.2500        84.7500       252.3250        15.3684        16.0631       296.3500       367.5000       289.8800      -999.2500      -999.2500      -999.2500      -999.2500      -999.2500      -999.2500      -999.2500
       605.2000       -52.7967        17.1552       254.6480       285.4440        73.2300      -999.2500      -999.2500        80.6250       252.6250        15.5536        17.3073       295.5250       351.8750       288.4800      -999.2500      -999.2500      -999.2500      -999.2500      -999.2500      -999.2500      -999.2500
       605.4000       -52.8051        16.7916       254.4120       285.2900        72.7231      -999.2500      -999.2500        74.6250       252.6250        15.6254        17.9403       295.7500       364.6500       286.0800      -999.2500      -999.2500      -999.2500      -999.2500      -999.2500      -999.2500      -999.2500
       605.6000       -52.8135        16.4358       254.1760       286.6370        74.4421      -999.2500      -999.2500        72.2850       252.6250        15.4821        17.4514       295.5500       371.2500       284.6400      -999.2500      -999.2500      -999.2500      -999.2500      -999.2500      -999.2500      -999.2500
       605.8000       -52.8219        16.0875       254.2210       289.0010        80.8509      -999.2500      -999.2500        73.3800       252.6000        15.1297        16.3618       294.9500       361.6500       290.3600      -999.2500      -999.2500      -999.2500      -999.2500      -999.2500      -999.2500      -999.2500
       606.0000       -52.8303        15.7640       254.4000       291.3650        84.4797      -999.2500      -999.2500        78.5100       252.4500        14.6768        15.6542       294.2500       369.2000       294.3200      -999.2500      -999.2500      -999.2500      -999.2500      -999.2500      -999.2500      -999.2500
       606.2000       -52.8386        15.5505       254.5790       293.7300        86.8967      -999.2500      -999.2500        88.0500       252.6250        14.2243        15.5106       294.2500       372.0000       298.2800      -999.2500      -999.2500      -999.2500      -999.2500      -999.2500      -999.2500      -999.2500
       606.4000       -52.8470        15.3400       254.7580       296.5090        87.3328      -999.2500      -999.2500        92.2950       252.3500        13.8112        15.3968       294.0000       369.0000       300.2800      -999.2500      -999.2500      -999.2500      -999.2500      -999.2500      -999.2500      -999.2500
       606.6000       -52.8554        15.3062       255.0170       299.4640        87.4334      -999.2500      -999.2500        90.2700       251.9250        13.4100        14.8535       294.1500       377.4250       302.2000      -999.2500      -999.2500      -999.2500      -999.2500      -999.2500      -999.2500      -999.2500
       606.8000       -52.8638        15.2846       254.9060       302.3110        85.4810      -999.2500      -999.2500        92.1450       251.4000        13.1048        14.4089       294.0000       387.8750       303.0000      -999.2500      -999.2500      -999.2500      -999.2500      -999.2500      -999.2500      -999.2500
       607.0000       -52.8722        15.3162       254.7950       300.5440        82.9016      -999.2500      -999.2500        90.3150       251.3750        13.0446        14.1198       294.2250       384.5250       303.0400      -999.2500      -999.2500      -999.2500      -999.2500      -999.2500      -999.2500      -999.2500
       607.2000       -52.8805        15.3605       254.6830       298.7760        80.3371      -999.2500      -999.2500        87.7500       251.7750        13.3239        14.3031       294.0500       380.6000       303.1200      -999.2500      -999.2500      -999.2500      -999.2500      -999.2500      -999.2500      -999.2500
       607.4000       -52.8889        15.3342       254.5720       297.4730        81.9955      -999.2500      -999.2500        84.4950       251.3500        13.7730        15.1715       294.1000       365.7250       301.3600      -999.2500      -999.2500      -999.2500      -999.2500      -999.2500      -999.2500      -999.2500
       607.6000       -52.8973        15.3081       254.4610       297.0670        85.8789      -999.2500      -999.2500        80.4450       251.1250        14.1850        16.2566       294.0000       365.2250       299.0000      -999.2500      -999.2500      -999.2500      -999.2500      -999.2500      -999.2500      -999.2500
       607.8000       -52.9057        15.2820       254.3500       296.6610        87.2769      -999.2500      -999.2500        83.8050       251.0250        14.3824        16.3316       294.2500       364.5000       296.6400      -999.2500      -999.2500      -999.2500      -999.2500      -999.2500      -999.2500      -999.2500
