~Version Information
 VERS.      2.0                                  : CWLS Log ASCII Standard - VERSION 2.0
 SERV.      IHS Energy                           : IHS Energy
 WRAP.      NO                                   : One line per depth step

~Well Information
#MNEM.UNIT       DATA                            : DESCRIPTION
#----.----       ---------                       : -----------
 NULL.      -999.2500                            : Null Value
 STRT.M     283.0000                             : Start Depth
 STOP.M     2671.2000                            : Stop Depth
 STEP.M     0.2000                               : Depth Increment
 UWI .      100160407110W600                     : Unique Well ID
 CNTY.                                           : County
 COMP.      SUNCOR ENERGY INC.                   : Company
 CTRY.      CAN                                  : Country
 DATE.      1991-06-19                           : Log Date(s)
 FLD .      ELMWORTH                             : Field
 LIC .      0148772                              : License No
 LOC .      00/16-04-071-10W6/0                  : Location
 PROV.      ALBERTA                              : Province
 SON .                                           : Service Order No(s)
 WELL.      SUNCOR CDN HUNTER ELM 16-4-71-10     : Well Name

~Parameter Information
#MNEM.UNIT       DATA                            : DESCRIPTION
#----.----       ---------                       : -----------
 BASE.                                           : Logging Unit Home Base
 BOTL.M     2670.8000                            : Bottom of Logged Interval
 BS  .MM    0.0000                               : Bit Size
 CSGD.M     454.7000                             : Casing Bottom, Driller
 CSGL.M     454.5000                             : Casing Bottom, Logger
 CSGS.MM    0.0000                               : Casing Size (diameter)
 DIGS.      QCDATA                               : Digitizing Company
 DREF.M     KB                                   : Depth Reference
 EGL .M     726.1000                             : Elevation Ground Level
 EKB .M     731.5000                             : Elevation Kelly Bushing
 ENG .                                           : Recording Engineer
 EREF.M     731.5000                             : Elevation of Depth Reference
 RUN .                                           : Run Number
 SRVC.      SCHLUMBERGER CANADA LIMITED          : Service Company
 TDD .M     2680.0000                            : Total Depth, Driller
 TDL .M     2672.6000                            : Total Depth, Logger
 TIML.                                           : Date/Time Logger on Bottom
 TMAX.DEGC  0.0000                               : Max Temperature
 TOPL.M     454.0000                             : Top of Logged Interval
 UNIT.                                           : Unit Number
 WIT .                                           : Witnessed By

~tops
 PUSKWSK            509.5000
 CHINKSS            538.0000
 COLRAD             579.5000
 BADHRT             689.0000
 MUSKIKI            705.0000
 CARD               735.0000
 CARDSD             756.0000
 KASKAPAU           774.0000
 DUNVG              1211.0000
 SHAFTBR            1405.0000
 BFSC               1525.0000
 PADDY              1665.0000
 CADOTT             1685.0000
 HARMON             1708.0000
 NOTIK              1735.0000
 FALHASD            1787.0000
 FALHBSD            1805.0000
 FALHCSD            1835.0000
 FALHDSD            1880.0000
 FALHESD            1901.0000
 WILRICH            1984.0000
 BLUSKY             2065.0000
 GETH               2086.0000
 CADOMIN            2207.0000
 NIKANSN            2226.0000
 FERNIE             2348.0000
 NORD               2424.0000
 CHARLK             2442.0000
 HALFWY             2590.0000
 DOIG               2600.5000

~Other Information
Mnemonics commonly used by IHS Energy, LAS, Alberta EUB and LIS are used in this output file.

~Curve Information
# MNEM .UNIT        API CODE   : Curve Description
#----- .----      ------------ : -------------------
 DEPT  .M         00 001 00 00 : 1 DEPTH
 SP    .MV        07 010 01 00 : 2 SPONTANEOUS POTENTIAL
 ILD   .OHM.M     07 120 46 00 : 3 INDUCTION DEEP RESISTIVITY
 C1    .MM        45 280 01 00 : 4 
 DT    .US/M      60 520 00 00 : 5 DELTA-T COMPRESSIONAL
 GAM   .API       60 310 01 00 : 6 
 NPSS  .%         42 890 03 00 : 7 
 RHOB  .KG/M3     45 350 01 00 : 8 BULK DENSITY
 GR    .GAPI      60 310 01 00 : 9 
 CAX   .MM        42 280 01 00 : 10 
 ILM   .OHM.M     08 120 44 00 : 11 
 SFL   .OHM.M     08 220 01 00 : 12 
 CALS  .MM        60 280 03 00 : 13 
 CAY   .MM        42 280 02 00 : 14 
 AC    .US/M      60 520 00 00 : 15 ACQUISITION TRAVEL TIME
 PEF   .B/E       42 358 01 00 : 16 PHOTO-ELECTRIC FACTOR
 DEN   .KG/M3     42 350 01 00 : 17 BULK DENSITY
 DC    .KG/M3     42 356 01 00 : 18 DENSITY CORRECTION
 INV   .OHM.M     15 250 02 00 : 19 MICRO INVERSE 1 INCH
 NOR   .OHM.M     15 252 02 00 : 20 MICRO NORMAL
 POS   .V/V       42 890 03 00 : 21 
 POL   .V/V       42 890 01 00 : 22 
~A         DEPT             SP            ILD             C1             DT            GAM           NPSS           RHOB             GR            CAX            ILM            SFL           CALS            CAY             AC            PEF            DEN             DC            INV            NOR            POS            POL
# ...
      1338.0000       -52.8220        19.9727       239.9550       232.2300        82.7124      -999.2500      -999.2500        80.9400       243.9250        17.3712        18.2066       267.1750       316.9750       247.6800      -999.2500      -999.2500      -999.2500      -999.2500      -999.2500      -999.2500      -999.2500
      1338.2000       -52.9068        21.8073       239.6190       224.7670        78.2881      -999.2500      -999.2500        73.5750       243.6500        19.8898        21.4897       269.9250       328.5500       242.1200      -999.2500      -999.2500      -999.2500      -999.2500      -999.2500      -999.2500      -999.2500
      1338.4000       -52.9916        25.2854       239.2830       219.3430        72.2154      -999.2500      -999.2500        64.2150       242.8500        24.6507        25.4349       270.2500       332.1250       235.8400      -999.2500      -999.2500      -999.2500      -999.2500      -999.2500      -999.2500      -999.2500
      1338.6000       -53.0764        28.7341       239.0350       221.1020        65.9031      -999.2500      -999.2500        54.7200       242.1500        30.7206        34.0275       270.2500       348.3250       231.3200      -999.2500      -999.2500      -999.2500      -999.2500      -999.2500      -999.2500      -999.2500
      1338.8000       -53.2307        30.6204       238.9360       222.8600        59.3302      -999.2500      -999.2500        50.8650       241.0000        34.8522        45.4391       270.2500       353.0000       227.2400      -999.2500      -999.2500      -999.2500      -999.2500      -999.2500      -999.2500      -999.2500
      1339.0000       -53.0605        28.5617       238.8830       224.8470        52.5904      -999.2500      -999.2500        50.8050       241.0000        33.7466        43.7955       270.2500       362.2000       230.0400      -999.2500      -999.2500      -999.2500      -999.2500      -999.2500      -999.2500      -999.2500
      1339.2000       -52.8903        25.5296       239.0010       226.9980        53.3850      -999.2500      -999.2500        54.0900       241.3000        29.2032        31.9323       270.2500       371.3750       232.6800      -999.2500      -999.2500      -999.2500      -999.2500      -999.2500      -999.2500      -999.2500
      1339.4000       -52.7201        23.1637       240.2540       231.0510        56.8513      -999.2500      -999.2500        60.8400       242.4500        25.2947        26.3166       270.4250       366.2000       235.6400      -999.2500      -999.2500      -999.2500      -999.2500      -999.2500      -999.2500      -999.2500
      1339.6000       -52.5499        21.4513       240.1930       238.1210        61.2926      -999.2500      -999.2500        64.7700       242.8750        23.0266        23.8029       269.9000       355.4000       238.2400      -999.2500      -999.2500      -999.2500      -999.2500      -999.2500      -999.2500      -999.2500
      1339.8000       -52.3797        20.2063       240.1120       239.5070        63.4796      -999.2500      -999.2500        63.7050       243.2500        21.7285        23.1969       267.0750       355.9250       239.3200      -999.2500      -999.2500      -999.2500      -999.2500      -999.2500      -999.2500      -999.2500
      1340.0000       -52.6501        19.4935       240.0310       240.4950        65.6667      -999.2500      -999.2500        66.8100       243.8250        20.4094        21.1558       267.0750       320.3250       241.9600      -999.2500      -999.2500      -999.2500      -999.2500      -999.2500      -999.2500      -999.2500
      1340.2000       -52.8072        18.8059       239.9500       239.3870        69.6824      -999.2500      -999.2500        73.1100       243.6250        19.1527        19.0121       265.7750       328.5250       245.3200      -999.2500      -999.2500      -999.2500      -999.2500      -999.2500      -999.2500      -999.2500
      1340.4000       -52.7413        18.2151       239.8690       237.9790        72.5930      -999.2500      -999.2500        73.1850       243.0250        18.5451        18.8378       265.6500       300.4000       247.6800      -999.2500      -999.2500      -999.2500      -999.2500      -999.2500      -999.2500      -999.2500
      1340.6000       -52.6754        17.8378       239.9470       234.0850        74.7171      -999.2500      -999.2500        76.6050       243.1250        18.5451        19.2766       264.8750       307.2000       246.0000      -999.2500      -999.2500      -999.2500      -999.2500      -999.2500      -999.2500      -999.2500
      1340.8000       -52.6095        17.4683       240.0330       230.1920        76.8412      -999.2500      -999.2500        80.5500       243.1250        18.8031        19.7802       266.8000       309.4250       243.5600      -999.2500      -999.2500      -999.2500      -999.2500      -999.2500      -999.2500      -999.2500
      1341.0000       -52.5435        16.8745       240.0270       227.8560        76.7901      -999.2500      -999.2500        75.2400       243.1750        18.9073        21.6088       266.1250       300.8500       239.6000      -999.2500      -999.2500      -999.2500      -999.2500      -999.2500      -999.2500      -999.2500
      1341.2000       -52.4732        16.1223       240.0220       228.8610        74.6932      -999.2500      -999.2500        70.2450       242.8500        18.2402        22.9419       262.7750       300.7750       241.4000      -999.2500      -999.2500      -999.2500      -999.2500      -999.2500      -999.2500      -999.2500
      1341.4000       -52.2491        15.4036       240.0170       229.8660        73.1611      -999.2500      -999.2500        69.9900       242.6250        16.6200        19.7802       269.9750       306.2250       244.6000      -999.2500      -999.2500      -999.2500      -999.2500      -999.2500      -999.2500      -999.2500
      1341.6000       -52.0250        14.5600       239.9830       234.7800        79.0435      -999.2500      -999.2500        76.6500       242.8750        14.7717        16.0927       271.7250       327.3500       249.8400      -999.2500      -999.2500      -999.2500      -999.2500      -999.2500      -999.2500      -999.2500
      1341.8000       -52.0552        13.8714       239.9290       243.6000        89.0877      -999.2500      -999.2500        88.9200       243.0000        13.5966        14.4887       265.2750       342.9500       259.8000      -999.2500      -999.2500      -999.2500      -999.2500      -999.2500      -999.2500      -999.2500
      1342.0000       -51.8254        13.6093       239.8750       254.6270        93.9397      -999.2500      -999.2500        96.1200       243.0000        13.2382        14.3559       259.5000       317.0000       270.1200      -999.2500      -999.2500      -999.2500      -999.2500      -999.2500      -999.2500      -999.2500
      1342.2000       -51.7540        13.7415       239.8210       262.4320        96.9291      -999.2500      -999.2500        97.3650       243.4500        13.3607        15.1436       258.7500       314.5000       268.2000      -999.2500      -999.2500      -999.2500      -999.2500      -999.2500      -999.2500      -999.2500
      1342.4000       -51.6826        14.1652       239.9100       260.2600        96.4297      -999.2500      -999.2500        96.8100       242.9000        13.5341        15.0186       258.7500       299.6750       265.2400      -999.2500      -999.2500      -999.2500      -999.2500      -999.2500      -999.2500      -999.2500
      1342.6000       -51.6111        16.0530       240.2100       258.0870        94.5323      -999.2500      -999.2500        96.0000       243.6250        13.5716        15.0740       258.7500       323.2250       262.9200      -999.2500      -999.2500      -999.2500      -999.2500      -999.2500      -999.2500      -999.2500
      1342.8000       -51.5397        18.1925       240.5110       256.4490        92.2127      -999.2500      -999.2500        93.6900       242.3750        13.5466        15.3402       258.7500       310.7750       261.0400      -999.2500      -999.2500      -999.2500      -999.2500      -999.2500      -999.2500      -999.2500
