~Version Information
 VERS.      2.0                                  : CWLS Log ASCII Standard - VERSION 2.0
 SERV.      IHS Energy                           : IHS Energy
 WRAP.      NO                                   : One line per depth step

~Well Information
#MNEM.UNIT       DATA                            : DESCRIPTION
#----.----       ---------                       : -----------
 NULL.      -999.2500                            : Null Value
 STRT.M     283.0000                             : Start Depth
 STOP.M     2671.2000                            : Stop Depth
 STEP.M     0.2000                               : Depth Increment
 UWI .      100160407110W600                     : Unique Well ID
 CNTY.                                           : County
 COMP.      SUNCOR ENERGY INC.                   : Company
 CTRY.      CAN                                  : Country
 DATE.      1991-06-19                           : Log Date(s)
 FLD .      ELMWORTH                             : Field
 LIC .      0148772                              : License No
 LOC .      00/16-04-071-10W6/0                  : Location
 PROV.      ALBERTA                              : Province
 SON .                                           : Service Order No(s)
 WELL.      SUNCOR CDN HUNTER ELM 16-4-71-10     : Well Name

~Parameter Information
#MNEM.UNIT       DATA                            : DESCRIPTION
#----.----       ---------                       : -----------
 BASE.                                           : Logging Unit Home Base
 BOTL.M     2670.8000                            : Bottom of Logged Interval
 BS  .MM    0.0000                               : Bit Size
 CSGD.M     454.7000                             : Casing Bottom, Driller
 CSGL.M     454.5000                             : Casing Bottom, Logger
 CSGS.MM    0.0000                               : Casing Size (diameter)
 DIGS.      QCDATA                               : Digitizing Company
 DREF.M     KB                                   : Depth Reference
 EGL .M     726.1000                             : Elevation Ground Level
 EKB .M     731.5000                             : Elevation Kelly Bushing
 ENG .                                           : Recording Engineer
 EREF.M     731.5000                             : Elevation of Depth Reference
 RUN .                                           : Run Number
 SRVC.      SCHLUMBERGER CANADA LIMITED          : Service Company
 TDD .M     2680.0000                            : Total Depth, Driller
 TDL .M     2672.6000                            : Total Depth, Logger
 TIML.                                           : Date/Time Logger on Bottom
 TMAX.DEGC  0.0000                               : Max Temperature
 TOPL.M     454.0000                             : Top of Logged Interval
 UNIT.                                           : Unit Number
 WIT .                                           : Witnessed By

~tops
 PUSKWSK            509.5000
 CHINKSS            538.0000
 COLRAD             579.5000
 BADHRT             689.0000
 MUSKIKI            705.0000
 CARD               735.0000
 CARDSD             756.0000
 KASKAPAU           774.0000
 DUNVG              1211.0000
 SHAFTBR            1405.0000
 BFSC               1525.0000
 PADDY              1665.0000
 CADOTT             1685.0000
 HARMON             1708.0000
 NOTIK              1735.0000
 FALHASD            1787.0000
 FALHBSD            1805.0000
 FALHCSD            1835.0000
 FALHDSD            1880.0000
 FALHESD            1901.0000
 WILRICH            1984.0000
 BLUSKY             2065.0000
 GETH               2086.0000
 CADOMIN            2207.0000
 NIKANSN            2226.0000
 FERNIE             2348.0000
 NORD               2424.0000
 CHARLK             2442.0000
 HALFWY             2590.0000
 DOIG               2600.5000

~Other Information
Mnemonics commonly used by IHS Energy, LAS, Alberta EUB and LIS are used in this output file.

~Curve Information
# MNEM .UNIT        API CODE   : Curve Description
#----- .----      ------------ : -------------------
 DEPT  .M         00 001 00 00 : 1 DEPTH
 SP    .MV        07 010 01 00 : 2 SPONTANEOUS POTENTIAL
 ILD   .OHM.M     07 120 46 00 : 3 INDUCTION DEEP RESISTIVITY
 C1    .MM        45 280 01 00 : 4 
 DT    .US/M      60 520 00 00 : 5 DELTA-T COMPRESSIONAL
 GAM   .API       60 310 01 00 : 6 
 NPSS  .%         42 890 03 00 : 7 
 RHOB  .KG/M3     45 350 01 00 : 8 BULK DENSITY
 GR    .GAPI      60 310 01 00 : 9 
 CAX   .MM        42 280 01 00 : 10 
 ILM   .OHM.M     08 120 44 00 : 11 
 SFL   .OHM.M     08 220 01 00 : 12 
 CALS  .MM        60 280 03 00 : 13 
 CAY   .MM        42 280 02 00 : 14 
 AC    .US/M      60 520 00 00 : 15 ACQUISITION TRAVEL TIME
 PEF   .B/E       42 358 01 00 : 16 PHOTO-ELECTRIC FACTOR
 DEN   .KG/M3     42 350 01 00 : 17 BULK DENSITY
 DC    .KG/M3     42 356 01 00 : 18 DENSITY CORRECTION
 INV   .OHM.M     15 250 02 00 : 19 MICRO INVERSE 1 INCH
 NOR   .OHM.M     15 252 02 00 : 20 MICRO NORMAL
 POS   .V/V       42 890 03 00 : 21 
 POL   .V/V       42 890 01 00 : 22 
~A         DEPT             SP            ILD             C1             DT            GAM           NPSS           RHOB             GR            CAX            ILM            SFL           CALS            CAY             AC            PEF            DEN             DC            INV            NOR            POS            POL
# ...
      2663.0000        78.0486       115.1790       216.5810      -999.2500      -999.2500         8.0043      2594.9099      -999.2500       219.7750       129.1308       156.2536      -999.2500      -999.2500      -999.2500         3.4140      2654.2998       -11.9999        25.5120        27.0240      -999.2500         0.0738
      2663.2000        78.8417       113.0010       216.7300      -999.2500      -999.2500         8.0712      2593.6599      -999.2500       219.6250       119.0776       130.3257      -999.2500      -999.2500      -999.2500         3.2330      2644.6001       -15.1000        26.0360        27.4080      -999.2500         0.0774
      2663.4000        79.6349       110.2460       216.8790      -999.2500      -999.2500         8.0710      2595.0300      -999.2500       219.9000       109.1013       117.6603      -999.2500      -999.2500      -999.2500         3.1450      2640.7998       -15.4500      -999.2500      -999.2500      -999.2500         0.0816
      2663.6000        80.6857       106.5160       217.0280      -999.2500      -999.2500         8.2036      2595.9800      -999.2500       220.0000       102.5723       114.4537      -999.2500      -999.2500      -999.2500         3.2970      2651.7998       -16.2500      -999.2500      -999.2500      -999.2500         0.0737
      2663.8000        81.6138       102.9120       217.1760      -999.2500      -999.2500         8.3361      2584.8601      -999.2500       219.8750        99.8688       107.2087      -999.2500      -999.2500      -999.2500         3.3200      2656.5000       -11.5000      -999.2500      -999.2500      -999.2500         0.0752
      2664.0000        82.2917        99.5437       217.3250      -999.2500      -999.2500         8.4328      2588.8501      -999.2500       220.0000       101.1649       101.3514      -999.2500      -999.2500      -999.2500         3.2610      2633.7000        -7.9999      -999.2500      -999.2500      -999.2500         0.0833
      2664.2000        82.1117        96.4897       217.4740      -999.2500      -999.2500         8.1976      2593.7400      -999.2500       220.0000       104.2869       111.3345      -999.2500      -999.2500      -999.2500         3.2070      2629.2998        -4.8000      -999.2500      -999.2500      -999.2500         0.0827
      2664.4000        83.3212        93.5295       217.6220      -999.2500      -999.2500         7.9624      2579.7800      -999.2500       220.0000       105.9327       133.3613      -999.2500      -999.2500      -999.2500         3.2500      2654.5000         3.2500      -999.2500      -999.2500      -999.2500         0.0737
      2664.6000        83.6645        90.6601       217.7710      -999.2500      -999.2500         8.0991      2565.8899      -999.2500       220.0000       101.5383       132.0170      -999.2500      -999.2500      -999.2500         3.3000      2651.1001         3.2500      -999.2500      -999.2500      -999.2500         0.0769
      2664.8000        83.7381        88.2650       217.9200      -999.2500      -999.2500         8.2933      2561.0500      -999.2500       220.0500        93.2030       109.4032      -999.2500      -999.2500      -999.2500         3.4200      2619.2998        -1.2500      -999.2500      -999.2500      -999.2500         0.0782
      2665.0000        83.4258        86.9290       218.0690      -999.2500      -999.2500         8.5350      2564.9399      -999.2500       220.1250        86.5825        92.1786      -999.2500      -999.2500      -999.2500         3.4720      2604.7000        -3.5000      -999.2500      -999.2500      -999.2500         0.0869
      2665.2000        83.0783        85.6133       218.2170      -999.2500      -999.2500         8.8034      2574.8301      -999.2500       220.1250        85.3159        89.5839      -999.2500      -999.2500      -999.2500         3.5220      2606.5000        -7.6000      -999.2500      -999.2500      -999.2500         0.0874
      2665.4000        82.7308        87.7372       218.3660      -999.2500      -999.2500         8.9185      2573.4199      -999.2500       220.0500        88.1110        98.7711      -999.2500      -999.2500      -999.2500         3.5480      2618.5000       -10.3000      -999.2500      -999.2500      -999.2500         0.0868
      2665.6000        82.3834        90.9753       217.2430      -999.2500      -999.2500         8.9585      2558.8101      -999.2500       220.0000        91.5019       106.2258      -999.2500      -999.2500      -999.2500         3.6620      2636.7998        -8.9999      -999.2500      -999.2500      -999.2500         0.0823
      2665.8000        82.0359        94.3771       217.1810      -999.2500      -999.2500         8.9814      2547.8201      -999.2500       220.0000        93.0315       102.4778      -999.2500      -999.2500      -999.2500         3.4810      2618.6001        -9.6500      -999.2500      -999.2500      -999.2500         0.0911
      2666.0000        81.6611       100.8460       217.2550      -999.2500      -999.2500         8.9907      2557.3601      -999.2500       220.0000        94.5867       101.3514      -999.2500      -999.2500      -999.2500         3.2940      2592.0000       -10.1000      -999.2500      -999.2500      -999.2500      -999.2500
      2666.2000        81.1864       106.2730       217.3320      -999.2500      -999.2500         9.0419      2560.8899      -999.2500       219.9000        98.6802       109.1013      -999.2500      -999.2500      -999.2500         3.2010      2600.3997        -7.1000      -999.2500      -999.2500      -999.2500      -999.2500
      2666.4000        80.7117       105.9660       217.4100      -999.2500      -999.2500         9.0931      2557.3601      -999.2500       219.7500       105.8352       122.0759      -999.2500      -999.2500      -999.2500         3.1970      2623.7998        -1.1000      -999.2500      -999.2500      -999.2500      -999.2500
      2666.6000        80.2369       105.6590       217.4870      -999.2500      -999.2500         9.1440      2555.2600      -999.2500       219.8750       112.4682       132.5043      -999.2500      -999.2500      -999.2500         3.2080      2615.2998        -2.4000      -999.2500      -999.2500      -999.2500      -999.2500
      2666.8000        79.7622       105.3530       217.5900      -999.2500      -999.2500         9.0416      2564.6599      -999.2500       219.7750       113.7182       131.1686      -999.2500      -999.2500      -999.2500         3.1800      2601.2998        -4.7000      -999.2500      -999.2500      -999.2500      -999.2500
      2667.0000        79.2874       103.7860       217.7140      -999.2500      -999.2500         8.9392      2576.3101      -999.2500       219.7500       108.4002       121.2914      -999.2500      -999.2500      -999.2500         3.1400      2602.8997        -6.3000      -999.2500      -999.2500      -999.2500      -999.2500
      2667.2000        78.8127       101.8690       217.8390      -999.2500      -999.2500         8.8739      2590.8701      -999.2500       219.9500       100.5148       106.8144      -999.2500      -999.2500      -999.2500         3.1710      2606.2998        -9.6500      -999.2500      -999.2500      -999.2500      -999.2500
      2667.4000        78.0906       104.9420       217.9370      -999.2500      -999.2500         8.7909      2604.7200      -999.2500       219.7000        96.0793        97.1471      -999.2500      -999.2500      -999.2500         3.2720      2615.1001        -8.8000      -999.2500      -999.2500      -999.2500      -999.2500
      2667.6000        77.3302       110.3460       217.9500      -999.2500      -999.2500         8.7378      2600.0200      -999.2500       219.6250        96.9683       107.8028      -999.2500      -999.2500      -999.2500         3.4440      2642.2000        -4.6500      -999.2500      -999.2500      -999.2500      -999.2500
      2667.8000        76.5697       116.2260       217.9630      -999.2500      -999.2500         8.9111      2587.8799      -999.2500       219.6250       103.7122       121.7391      -999.2500      -999.2500      -999.2500         3.5560      2666.2998        -4.9000      -999.2500      -999.2500      -999.2500      -999.2500
