~Version Information
 VERS.      2.0                                  : CWLS Log ASCII Standard - VERSION 2.0
 SERV.      IHS Energy                           : IHS Energy
 WRAP.      NO                                   : One line per depth step

~Well Information
#MNEM.UNIT       DATA                            : DESCRIPTION
#----.----       ---------                       : -----------
 NULL.      -999.2500                            : Null Value
 STRT.M     283.0000                             : Start Depth
 STOP.M     2671.2000                            : Stop Depth
 STEP.M     0.2000                               : Depth Increment
 UWI .      100160407110W600                     : Unique Well ID
 CNTY.                                           : County
 COMP.      SUNCOR ENERGY INC.                   : Company
 CTRY.      CAN                                  : Country
 DATE.      1991-06-19                           : Log Date(s)
 FLD .      ELMWORTH                             : Field
 LIC .      0148772                              : License No
 LOC .      00/16-04-071-10W6/0                  : Location
 PROV.      ALBERTA                              : Province
 SON .                                           : Service Order No(s)
 WELL.      SUNCOR CDN HUNTER ELM 16-4-71-10     : Well Name

~Parameter Information
#MNEM.UNIT       DATA                            : DESCRIPTION
#----.----       ---------                       : -----------
 BASE.                                           : Logging Unit Home Base
 BOTL.M     2670.8000                            : Bottom of Logged Interval
 BS  .MM    0.0000                               : Bit Size
 CSGD.M     454.7000                             : Casing Bottom, Driller
 CSGL.M     454.5000                             : Casing Bottom, Logger
 CSGS.MM    0.0000                               : Casing Size (diameter)
 DIGS.      QCDATA                               : Digitizing Company
 DREF.M     KB                                   : Depth Reference
 EGL .M     726.1000                             : Elevation Ground Level
 EKB .M     731.5000                             : Elevation Kelly Bushing
 ENG .                                           : Recording Engineer
 EREF.M     731.5000                             : Elevation of Depth Reference
 RUN .                                           : Run Number
 SRVC.      SCHLUMBERGER CANADA LIMITED          : Service Company
 TDD .M     2680.0000                            : Total Depth, Driller
 TDL .M     2672.6000                            : Total Depth, Logger
 TIML.                                           : Date/Time Logger on Bottom
 TMAX.DEGC  0.0000                               : Max Temperature
 TOPL.M     454.0000                             : Top of Logged Interval
 UNIT.                                           : Unit Number
 WIT .                                           : Witnessed By

~tops
 PUSKWSK            509.5000
 CHINKSS            538.0000
 COLRAD             579.5000
 BADHRT             689.0000
 MUSKIKI            705.0000
 CARD               735.0000
 CARDSD             756.0000
 KASKAPAU           774.0000
 DUNVG              1211.0000
 SHAFTBR            1405.0000
 BFSC               1525.0000
 PADDY              1665.0000
 CADOTT             1685.0000
 HARMON             1708.0000
 NOTIK              1735.0000
 FALHASD            1787.0000
 FALHBSD            1805.0000
 FALHCSD            1835.0000
 FALHDSD            1880.0000
 FALHESD            1901.0000
 WILRICH            1984.0000
 BLUSKY             2065.0000
 GETH               2086.0000
 CADOMIN            2207.0000
 NIKANSN            2226.0000
 FERNIE             2348.0000
 NORD               2424.0000
 CHARLK             2442.0000
 HALFWY             2590.0000
 DOIG               2600.5000

~Other Information
Mnemonics commonly used by IHS Energy, LAS, Alberta EUB and LIS are used in this output file.

~Curve Information
# MNEM .UNIT        API CODE   : Curve Description
#----- .----      ------------ : -------------------
 DEPT  .M         00 001 00 00 : 1 DEPTH
 SP    .MV        07 010 01 00 : 2 SPONTANEOUS POTENTIAL
 ILD   .OHM.M     07 120 46 00 : 3 INDUCTION DEEP RESISTIVITY
 C1    .MM        45 280 01 00 : 4 
 DT    .US/M      60 520 00 00 : 5 DELTA-T COMPRESSIONAL
 GAM   .API       60 310 01 00 : 6 
 NPSS  .%         42 890 03 00 : 7 
 RHOB  .KG/M3     45 350 01 00 : 8 BULK DENSITY
 GR    .GAPI      60 310 01 00 : 9 
 CAX   .MM        42 280 01 00 : 10 
 ILM   .OHM.M     08 120 44 00 : 11 
 SFL   .OHM.M     08 220 01 00 : 12 
 CALS  .MM        60 280 03 00 : 13 
 CAY   .MM        42 280 02 00 : 14 
 AC    .US/M      60 520 00 00 : 15 ACQUISITION TRAVEL TIME
 PEF   .B/E       42 358 01 00 : 16 PHOTO-ELECTRIC FACTOR
 DEN   .KG/M3     42 350 01 00 : 17 BULK DENSITY
 DC    .KG/M3     42 356 01 00 : 18 DENSITY CORRECTION
 INV   .OHM.M     15 250 02 00 : 19 MICRO INVERSE 1 INCH
 NOR   .OHM.M     15 252 02 00 : 20 MICRO NORMAL
 POS   .V/V       42 890 03 00 : 21 
 POL   .V/V       42 890 01 00 : 22 
~A         DEPT             SP            ILD             C1             DT            GAM           NPSS           RHOB             GR            CAX            ILM            SFL           CALS            CAY             AC            PEF            DEN             DC            INV            NOR            POS            POL
# ...
      1783.0000       -35.6321        34.8537       258.1440       234.2540        77.7046        21.2489      2636.1399        79.0500       259.0000        33.5606        34.4057       284.5500       314.2000       232.5600         3.3380      2636.1001         5.9000        28.6040        11.3480         0.2243      -999.2500
      1783.2000       -35.4985        35.9637       258.0560       233.5140        77.5963        22.4401      2637.2500        80.8800       258.8000        34.1216        37.6210       282.8500       308.8750       231.8400         3.5040      2640.7000         4.5500        22.1000        14.0360         0.2248      -999.2500
      1783.4000       -35.3649        37.1091       258.1450       232.3150        77.9341        23.0667      2635.2000        78.5250       258.9750        34.8522        41.5556       283.2500       288.3250       230.7200         3.4170      2634.3997         3.3500        28.7080        18.4800         0.2326      -999.2500
      1783.6000       -35.1930        38.0409       258.2330       231.1150        78.3696        22.9839      2631.5701        76.8600       258.8500        35.5984        43.6345       282.8250       305.1500       229.6000         3.4410      2630.1001         3.4500        30.8600        21.3600         0.2359      -999.2500
      1783.8000       -35.0167        37.5413       258.3220       229.9160        76.6125        22.2537      2633.9299        79.7550       259.0000        36.9683        45.3137       282.0500       316.0750       228.2800         3.2580      2620.0000         4.1000        20.9480        11.4280         0.2288      -999.2500
      1784.0000       -34.8405        35.8696       258.4110       228.7170        74.3901        21.4732      2640.2200        81.2100       258.7500        38.3204        46.4120       285.1750       310.5000       226.1200         3.0980      2624.3997         7.4000        17.6320        12.1840         0.2080      -999.2500
      1784.2000       -34.7739        34.2723       258.4990       230.8130        72.4241        20.7503      2642.6599        72.0300       259.2500        37.8643        46.4120       289.4750       311.0000       229.2400         3.2640      2639.2998         8.1500        22.9000        18.7840         0.2089      -999.2500
      1784.4000       -35.2379        32.9559       258.6850       233.5200        73.8090        20.6142      2637.3000        73.3650       259.0750        35.6969        44.8157       287.8250       314.9750       234.0400         3.3170      2643.5000         8.5000        32.7360        19.2160         0.1961      -999.2500
      1784.6000       -34.9644        31.8051       258.9350       236.2280        75.8466        21.5895      2633.1399        78.3750       259.2250        32.9481        41.0232       288.7000       313.5750       238.8400         3.3440      2632.6001         7.3000        32.8320        19.4360         0.2287      -999.2500
      1784.8000       -34.8624        30.6944       259.1990       245.3650        75.5112        23.7987      2611.0200        77.1900       259.0000        31.4942        32.0501       291.2250       320.3750       243.6400         3.5550      2635.8997         7.2500        18.8240        14.9480         0.2370      -999.2500
      1785.0000       -34.7605        29.7358       259.3830       247.6050        74.8981        31.0477      2587.0500        75.4350       259.0000        32.1092        28.7230       278.0500       328.5750       249.7200         3.8990      2614.2998         5.1000        26.3360        23.9200         0.3271      -999.2500
      1785.2000       -34.6585        29.3874       259.3210       246.1470        74.7611        32.7056      2575.9299        73.9200       259.0000        33.6845        37.9691       276.7500       316.3750       247.6400         4.1730      2575.5000        -2.0500        15.5440        13.8280         0.3368      -999.2500
      1785.4000       -34.5566        29.0287       259.2600       244.7080        76.7349        29.7516      2581.7800        72.5550       259.0000        32.8572        51.0775       285.6000       289.0750       240.8000         4.0290      2567.2998        -3.7000        23.4480        11.8840         0.2950      -999.2500
      1785.6000       -34.3608        28.6361       259.1980       247.8340        79.4151        29.8509      2595.4299        77.9700       259.0000        29.2301        43.1152       286.0000       300.2750       245.8400         3.6970      2571.7000        -4.0500        34.2040        25.8120         0.2911      -999.2500
      1785.8000       -33.8275        28.2487       259.3000       259.6400        82.6427        31.7195      2596.1899        82.4250       259.0000        26.0273        33.7466       286.2000       314.0750       253.0800         3.6060      2587.5000        -2.6000        40.0000        27.7320         0.3152      -999.2500
      1786.0000       -33.2941        26.9743       259.5800       266.9770        85.2266        33.5048      2589.8301        85.4700       259.4000        25.1322        33.2223       286.5750       313.5000       260.3200         3.7660      2598.7998        -2.0500        23.7000        12.7040         0.3503      -999.2500
      1786.2000       -32.8259        26.1768       259.8600       261.9580        85.0795        34.2756      2575.0000        85.9950       260.3500        26.1716        35.8616       287.0000       312.0750       266.0800         4.1440      2598.0000        -3.5500        30.0000        13.9080         0.3374      -999.2500
      1786.4000       -32.6378        26.8471       260.1400       256.6530        83.9725        35.0904      2572.8000        87.6150       260.8750        27.6586        37.7946       282.8750       307.9250       259.4000         4.2150      2591.0000        -4.1500        28.3000        15.4520         0.3584      -999.2500
      1786.6000       -32.3685        28.8079       260.4200       258.1280        81.5305        32.6296      2559.3999        86.2500       261.0000        28.1209        36.5620       279.8000       303.6500       253.8400         3.9700      2567.3997        -8.4000        26.4000        18.0960         0.3475      -999.2500
      1786.8000       -32.1425        33.6445       260.7140       284.3190        77.7333        38.8055      2459.6399        82.8150       260.5750        27.2540        32.9481       285.4000       294.3500       249.4000         3.8650      2568.0000        -8.7500        31.6000        17.5520         0.3185      -999.2500
      1787.0000       -31.9337        40.3385       261.0950       308.4910        74.3575        45.0555      2341.9800        75.2100       260.1750        27.1788        34.9164       289.0500       296.6750       297.9200         4.1980      2580.1001        -3.7500        26.0000        19.0080         0.3308      -999.2500
      1787.2000       -31.7250        43.1103       260.9410       279.7650        71.6425        56.5851      2224.3201        70.7400       261.2500        31.0907        52.3154       295.6750       304.0250       309.7600         3.3390      2332.2998        -6.9500        19.9760        12.9160         0.4594      -999.2500
      1787.4000       -31.6284        46.7346       260.1540       251.0400        71.1963        44.8123      2106.6599        72.7500       261.8250        47.4493        69.2835       274.2750       295.4750       313.2800         2.6550      2042.3999        -8.2000        16.7200        12.6960         0.6269      -999.2500
      1787.6000       -31.8682        53.3660       259.3670       223.9540        60.3801        45.0106      1989.0000        70.5300       261.6500        88.4362        70.8321       263.0000       290.2500       274.9200         2.4940      1912.8999       -15.3000        15.0200        33.5840         0.4576      -999.2500
      1787.8000       -32.1080        58.4368       258.5800       218.1310        50.5796        44.5865      2528.7700        57.5550       259.8000       128.3010        69.2197       262.7500       270.8250       244.2400         3.4490      2065.2998       -12.1500        33.1040        19.7840         0.2940      -999.2500
