~Version Information
 VERS.      2.0                                  : CWLS Log ASCII Standard - VERSION 2.0
 SERV.      IHS Energy                           : IHS Energy
 WRAP.      NO                                   : One line per depth step

~Well Information
#MNEM.UNIT       DATA                            : DESCRIPTION
#----.----       ---------                       : -----------
 NULL.      -999.2500                            : Null Value
 STRT.M     283.0000                             : Start Depth
 STOP.M     2671.2000                            : Stop Depth
 STEP.M     0.2000                               : Depth Increment
 UWI .      100160407110W600                     : Unique Well ID
 CNTY.                                           : County
 COMP.      SUNCOR ENERGY INC.                   : Company
 CTRY.      CAN                                  : Country
 DATE.      1991-06-19                           : Log Date(s)
 FLD .      ELMWORTH                             : Field
 LIC .      0148772                              : License No
 LOC .      00/16-04-071-10W6/0                  : Location
 PROV.      ALBERTA                              : Province
 SON .                                           : Service Order No(s)
 WELL.      SUNCOR CDN HUNTER ELM 16-4-71-10     : Well Name

~Parameter Information
#MNEM.UNIT       DATA                            : DESCRIPTION
#----.----       ---------                       : -----------
 BASE.                                           : Logging Unit Home Base
 BOTL.M     2670.8000                            : Bottom of Logged Interval
 BS  .MM    0.0000                               : Bit Size
 CSGD.M     454.7000                             : Casing Bottom, Driller
 CSGL.M     454.5000                             : Casing Bottom, Logger
 CSGS.MM    0.0000                               : Casing Size (diameter)
 DIGS.      QCDATA                               : Digitizing Company
 DREF.M     KB                                   : Depth Reference
 EGL .M     726.1000                             : Elevation Ground Level
 EKB .M     731.5000                             : Elevation Kelly Bushing
 ENG .                                           : Recording Engineer
 EREF.M     731.5000                             : Elevation of Depth Reference
 RUN .                                           : Run Number
 SRVC.      SCHLUMBERGER CANADA LIMITED          : Service Company
 TDD .M     2680.0000                            : Total Depth, Driller
 TDL .M     2672.6000                            : Total Depth, Logger
 TIML.                                           : Date/Time Logger on Bottom
 TMAX.DEGC  0.0000                               : Max Temperature
 TOPL.M     454.0000                             : Top of Logged Interval
 UNIT.                                           : Unit Number
 WIT .                                           : Witnessed By

~tops
 PUSKWSK            509.5000
 CHINKSS            538.0000
 COLRAD             579.5000
 BADHRT             689.0000
 MUSKIKI            705.0000
 CARD               735.0000
 CARDSD             756.0000
 KASKAPAU           774.0000
 DUNVG              1211.0000
 SHAFTBR            1405.0000
 BFSC               1525.0000
 PADDY              1665.0000
 CADOTT             1685.0000
 HARMON             1708.0000
 NOTIK              1735.0000
 FALHASD            1787.0000
 FALHBSD            1805.0000
 FALHCSD            1835.0000
 FALHDSD            1880.0000
 FALHESD            1901.0000
 WILRICH            1984.0000
 BLUSKY             2065.0000
 GETH               2086.0000
 CADOMIN            2207.0000
 NIKANSN            2226.0000
 FERNIE             2348.0000
 NORD               2424.0000
 CHARLK             2442.0000
 HALFWY             2590.0000
 DOIG               2600.5000

~Other Information
Mnemonics commonly used by IHS Energy, LAS, Alberta EUB and LIS are used in this output file.

~Curve Information
# MNEM .UNIT        API CODE   : Curve Description
#----- .----      ------------ : -------------------
 DEPT  .M         00 001 00 00 : 1 DEPTH
 SP    .MV        07 010 01 00 : 2 SPONTANEOUS POTENTIAL
 ILD   .OHM.M     07 120 46 00 : 3 INDUCTION DEEP RESISTIVITY
 C1    .MM        45 280 01 00 : 4 
 DT    .US/M      60 520 00 00 : 5 DELTA-T COMPRESSIONAL
 GAM   .API       60 310 01 00 : 6 
 NPSS  .%         42 890 03 00 : 7 
 RHOB  .KG/M3     45 350 01 00 : 8 BULK DENSITY
 GR    .GAPI      60 310 01 00 : 9 
 CAX   .MM        42 280 01 00 : 10 
 ILM   .OHM.M     08 120 44 00 : 11 
 SFL   .OHM.M     08 220 01 00 : 12 
 CALS  .MM        60 280 03 00 : 13 
 CAY   .MM        42 280 02 00 : 14 
 AC    .US/M      60 520 00 00 : 15 ACQUISITION TRAVEL TIME
 PEF   .B/E       42 358 01 00 : 16 PHOTO-ELECTRIC FACTOR
 DEN   .KG/M3     42 350 01 00 : 17 BULK DENSITY
 DC    .KG/M3     42 356 01 00 : 18 DENSITY CORRECTION
 INV   .OHM.M     15 250 02 00 : 19 MICRO INVERSE 1 INCH
 NOR   .OHM.M     15 252 02 00 : 20 MICRO NORMAL
 POS   .V/V       42 890 03 00 : 21 
 POL   .V/V       42 890 01 00 : 22 
~A         DEPT             SP            ILD             C1             DT            GAM           NPSS           RHOB             GR            CAX            ILM            SFL           CALS            CAY             AC            PEF            DEN             DC            INV            NOR            POS            POL
# ...
      1633.0000       -30.7456        10.8255       293.3520       263.3730        85.6010      -999.2500      -999.2500        86.3400       298.0750        10.3999        11.5088       299.3750       279.4500       270.6000      -999.2500      -999.2500      -999.2500      -999.2500      -999.2500      -999.2500      -999.2500
      1633.2000       -30.7323        10.7954       293.1990       273.7650        85.2347      -999.2500      -999.2500        87.9900       298.1500        10.6226        11.7769       307.2000       296.7250       278.1600      -999.2500      -999.2500      -999.2500      -999.2500      -999.2500      -999.2500      -999.2500
      1633.4000       -30.7190        10.9083       293.0460       273.6500        83.2227      -999.2500      -999.2500        82.9800       297.6750        11.1232        12.2979       294.2750       288.9000       274.3600      -999.2500      -999.2500      -999.2500      -999.2500      -999.2500      -999.2500      -999.2500
      1633.6000       -30.7057        10.9828       292.8930       274.5520        83.7302      -999.2500      -999.2500        81.4500       296.4000        11.5406        12.7594       292.8250       278.9750       275.8800      -999.2500      -999.2500      -999.2500      -999.2500      -999.2500      -999.2500      -999.2500
      1633.8000       -30.6924        10.9713       293.8620       279.8690        84.3433      -999.2500      -999.2500        83.3100       297.1750        11.4876        12.5959       286.4500       274.2750       279.7200      -999.2500      -999.2500      -999.2500      -999.2500      -999.2500      -999.2500      -999.2500
      1634.0000       -30.6790        10.9395       295.3170       276.9150        85.1583      -999.2500      -999.2500        83.9100       299.2750        11.0925        12.4002       285.7250       277.2250       281.4400      -999.2500      -999.2500      -999.2500      -999.2500      -999.2500      -999.2500      -999.2500
      1634.2000       -30.6657        10.9269       296.5680       269.9620        85.1719      -999.2500      -999.2500        87.1950       301.5750        10.6618        12.4919       295.6000       278.8250       268.4000      -999.2500      -999.2500      -999.2500      -999.2500      -999.2500      -999.2500      -999.2500
      1634.4000       -30.6524        10.9142       297.8190       267.0020        83.3733      -999.2500      -999.2500        87.5850       302.5000        10.4479        12.3433       300.5250       285.4750       268.6000      -999.2500      -999.2500      -999.2500      -999.2500      -999.2500      -999.2500      -999.2500
      1634.6000       -30.6391        10.9015       299.0710       266.5990        83.2423      -999.2500      -999.2500        84.3000       304.1000        10.5640        12.1851       302.9250       288.3250       268.7600      -999.2500      -999.2500      -999.2500      -999.2500      -999.2500      -999.2500      -999.2500
      1634.8000       -30.6257        10.9313       300.0940       266.1960        83.6802      -999.2500      -999.2500        83.0100       306.0000        11.0212        12.2188       295.5250       286.5500       268.5200      -999.2500      -999.2500      -999.2500      -999.2500      -999.2500      -999.2500      -999.2500
      1635.0000       -30.6124        11.0172       300.6860       265.7930        85.7521      -999.2500      -999.2500        82.5750       306.4000        11.5726        12.2188       282.7500       266.7250       267.8000      -999.2500      -999.2500      -999.2500      -999.2500      -999.2500      -999.2500      -999.2500
      1635.2000       -30.5991        11.1038       300.6710       264.6260        87.8492      -999.2500      -999.2500        85.3500       306.2500        11.7552        12.5380       281.4250       268.7000       266.2800      -999.2500      -999.2500      -999.2500      -999.2500      -999.2500      -999.2500      -999.2500
      1635.4000       -30.5858        11.1910       300.2700       263.2600        88.9024      -999.2500      -999.2500        88.7850       306.7250        11.4982        12.6075       280.2500       260.0500       264.9600      -999.2500      -999.2500      -999.2500      -999.2500      -999.2500      -999.2500      -999.2500
      1635.6000       -30.5725        11.4094       299.8690       265.1120        89.4239      -999.2500      -999.2500        88.6200       305.8500        11.2468        12.5727       280.7750       249.3000       267.3200      -999.2500      -999.2500      -999.2500      -999.2500      -999.2500      -999.2500      -999.2500
      1635.8000       -30.5591        11.9492       299.4680       264.8160        87.3993      -999.2500      -999.2500        91.1700       304.9750        11.4454        13.2017       282.7500       253.1250       269.2400      -999.2500      -999.2500      -999.2500      -999.2500      -999.2500      -999.2500      -999.2500
      1636.0000       -30.5458        12.4130       299.0670       261.4030        85.1764      -999.2500      -999.2500        90.8100       305.9500        12.1291        13.8494       282.7500       260.6750       270.4000      -999.2500      -999.2500      -999.2500      -999.2500      -999.2500      -999.2500      -999.2500
      1636.2000       -30.6093        12.9557       297.5110       257.9890        81.6667      -999.2500      -999.2500        84.4950       304.1000        12.9966        14.7989       284.1250       268.7500       264.9600      -999.2500      -999.2500      -999.2500      -999.2500      -999.2500      -999.2500      -999.2500
      1636.4000       -30.4969        13.0551       296.4680       255.7570        79.8643      -999.2500      -999.2500        79.5900       302.0750        13.3607        15.7409       285.7250       266.3500       256.7200      -999.2500      -999.2500      -999.2500      -999.2500      -999.2500      -999.2500      -999.2500
      1636.6000       -30.4215        13.1553       296.4680       256.7980        79.0197      -999.2500      -999.2500        78.1200       301.5000        13.0446        16.0041       295.1000       274.6000       256.7600      -999.2500      -999.2500      -999.2500      -999.2500      -999.2500      -999.2500      -999.2500
      1636.8000       -30.3531        13.2563       296.2790       257.8380        79.5272      -999.2500      -999.2500        81.0000       301.9250        12.6075        14.9221       302.4750       274.8000       256.8400      -999.2500      -999.2500      -999.2500      -999.2500      -999.2500      -999.2500      -999.2500
      1637.0000       -30.2846        13.1414       296.0630       258.7330        80.5746      -999.2500      -999.2500        80.8050       303.2250        12.7008        14.6228       302.3250       273.7250       258.4800      -999.2500      -999.2500      -999.2500      -999.2500      -999.2500      -999.2500      -999.2500
      1637.2000       -30.2291        13.0421       295.8460       259.6240        82.0330      -999.2500      -999.2500        78.7650       302.3250        13.2871        15.3826       285.8750       282.7500       259.6000      -999.2500      -999.2500      -999.2500      -999.2500      -999.2500      -999.2500      -999.2500
      1637.4000       -30.3282        12.9182       295.6300       260.5140        83.7591      -999.2500      -999.2500        80.9700       301.4500        13.9133        15.3968       290.6750       283.2250       259.7600      -999.2500      -999.2500      -999.2500      -999.2500      -999.2500      -999.2500      -999.2500
      1637.6000       -30.4273        12.7949       295.4130       262.6800        85.8143      -999.2500      -999.2500        85.3800       301.2000        14.0291        15.0602       299.7250       262.2500       260.7600      -999.2500      -999.2500      -999.2500      -999.2500      -999.2500      -999.2500      -999.2500
      1637.8000       -30.5264        12.6729       295.1080       264.9430        85.5122      -999.2500      -999.2500        83.9550       301.5000        13.5217        14.5556       284.2750       246.9500       263.4000      -999.2500      -999.2500      -999.2500      -999.2500      -999.2500      -999.2500      -999.2500
