~Version Information
 VERS.      2.0                                  : CWLS Log ASCII Standard - VERSION 2.0
 SERV.      IHS Energy                           : IHS Energy
 WRAP.      NO                                   : One line per depth step

~Well Information
#MNEM.UNIT       DATA                            : DESCRIPTION
#----.----       ---------                       : -----------
 NULL.      -999.2500                            : Null Value
 STRT.M     283.0000                             : Start Depth
 STOP.M     2671.2000                            : Stop Depth
 STEP.M     0.2000                               : Depth Increment
 UWI .      100160407110W600                     : Unique Well ID
 CNTY.                                           : County
 COMP.      SUNCOR ENERGY INC.                   : Company
 CTRY.      CAN                                  : Country
 DATE.      1991-06-19                           : Log Date(s)
 FLD .      ELMWORTH                             : Field
 LIC .      0148772                              : License No
 LOC .      00/16-04-071-10W6/0                  : Location
 PROV.      ALBERTA                              : Province
 SON .                                           : Service Order No(s)
 WELL.      SUNCOR CDN HUNTER ELM 16-4-71-10     : Well Name

~Parameter Information
#MNEM.UNIT       DATA                            : DESCRIPTION
#----.----       ---------                       : -----------
 BASE.                                           : Logging Unit Home Base
 BOTL.M     2670.8000                            : Bottom of Logged Interval
 BS  .MM    0.0000                               : Bit Size
 CSGD.M     454.7000                             : Casing Bottom, Driller
 CSGL.M     454.5000                             : Casing Bottom, Logger
 CSGS.MM    0.0000                               : Casing Size (diameter)
 DIGS.      QCDATA                               : Digitizing Company
 DREF.M     KB                                   : Depth Reference
 EGL .M     726.1000                             : Elevation Ground Level
 EKB .M     731.5000                             : Elevation Kelly Bushing
 ENG .                                           : Recording Engineer
 EREF.M     731.5000                             : Elevation of Depth Reference
 RUN .                                           : Run Number
 SRVC.      SCHLUMBERGER CANADA LIMITED          : Service Company
 TDD .M     2680.0000                            : Total Depth, Driller
 TDL .M     2672.6000                            : Total Depth, Logger
 TIML.                                           : Date/Time Logger on Bottom
 TMAX.DEGC  0.0000                               : Max Temperature
 TOPL.M     454.0000                             : Top of Logged Interval
 UNIT.                                           : Unit Number
 WIT .                                           : Witnessed By

~tops
 PUSKWSK            509.5000
 CHINKSS            538.0000
 COLRAD             579.5000
 BADHRT             689.0000
 MUSKIKI            705.0000
 CARD               735.0000
 CARDSD             756.0000
 KASKAPAU           774.0000
 DUNVG              1211.0000
 SHAFTBR            1405.0000
 BFSC               1525.0000
 PADDY              1665.0000
 CADOTT             1685.0000
 HARMON             1708.0000
 NOTIK              1735.0000
 FALHASD            1787.0000
 FALHBSD            1805.0000
 FALHCSD            1835.0000
 FALHDSD            1880.0000
 FALHESD            1901.0000
 WILRICH            1984.0000
 BLUSKY             2065.0000
 GETH               2086.0000
 CADOMIN            2207.0000
 NIKANSN            2226.0000
 FERNIE             2348.0000
 NORD               2424.0000
 CHARLK             2442.0000
 HALFWY             2590.0000
 DOIG               2600.5000

~Other Information
Mnemonics commonly used by IHS Energy, LAS, Alberta EUB and LIS are used in this output file.

~Curve Information
# MNEM .UNIT        API CODE   : Curve Description
#----- .----      ------------ : -------------------
 DEPT  .M         00 001 00 00 : 1 DEPTH
 SP    .MV        07 010 01 00 : 2 SPONTANEOUS POTENTIAL
 ILD   .OHM.M     07 120 46 00 : 3 INDUCTION DEEP RESISTIVITY
 C1    .MM        45 280 01 00 : 4 
 DT    .US/M      60 520 00 00 : 5 DELTA-T COMPRESSIONAL
 GAM   .API       60 310 01 00 : 6 
 NPSS  .%         42 890 03 00 : 7 
 RHOB  .KG/M3     45 350 01 00 : 8 BULK DENSITY
 GR    .GAPI      60 310 01 00 : 9 
 CAX   .MM        42 280 01 00 : 10 
 ILM   .OHM.M     08 120 44 00 : 11 
 SFL   .OHM.M     08 220 01 00 : 12 
 CALS  .MM        60 280 03 00 : 13 
 CAY   .MM        42 280 02 00 : 14 
 AC    .US/M      60 520 00 00 : 15 ACQUISITION TRAVEL TIME
 PEF   .B/E       42 358 01 00 : 16 PHOTO-ELECTRIC FACTOR
 DEN   .KG/M3     42 350 01 00 : 17 BULK DENSITY
 DC    .KG/M3     42 356 01 00 : 18 DENSITY CORRECTION
 INV   .OHM.M     15 250 02 00 : 19 MICRO INVERSE 1 INCH
 NOR   .OHM.M     15 252 02 00 : 20 MICRO NORMAL
 POS   .V/V       42 890 03 00 : 21 
 POL   .V/V       42 890 01 00 : 22 
~A         DEPT             SP            ILD             C1             DT            GAM           NPSS           RHOB             GR            CAX            ILM            SFL           CALS            CAY             AC            PEF            DEN             DC            INV            NOR            POS            POL
# ...
      2368.0000        59.2593        23.2807       219.9110       250.4050        93.2431        34.5109      2535.3501        96.7500       222.2500        23.5630        30.7773       245.3500       321.7500       254.9200         3.3690      2596.6001        33.8500        11.7800         9.6560         0.3331      -999.2500
      2368.2000        59.0152        23.2867       223.3860       251.6060        92.6494        36.4924      2504.7800        93.1500       222.7000        22.0105        27.7351       248.2000       313.1500       254.5600         3.4930      2587.5000        24.2500         6.5680         4.7280         0.3452      -999.2500
      2368.4000        59.0360        23.3722       227.4440       251.5610        92.0558        38.2269      2531.8301        94.0200       223.8000        20.4094        26.6336       250.1250       330.0000       256.9000         3.7190      2516.5000        16.2000         1.5240         5.3040         0.3887      -999.2500
      2368.6000        59.1686        23.8156       227.3330       251.0820        91.4622        36.8182      2591.9600        93.0000       236.3000        20.3343        27.8631       262.6750       324.2750       255.7600         3.8970      2473.2998        13.5000         1.9800         3.8120         0.3712      -999.2500
      2368.8000        59.3113        24.2674       226.8090       251.6510        91.6731        37.2071      2564.4900        91.1100       229.1000        22.1733        30.2991       257.8000       334.0750       254.7400         4.2390      2556.3997        69.9000         5.4800         4.3000         0.3659      -999.2500
      2369.0000        59.4539        24.7278       226.9600       252.2200        92.0669        36.5543      2520.2600        91.9800       225.0250        24.2008        31.7856       272.5250       319.6000       257.4000         5.0210      2627.3997       155.2500         5.2760         5.7880         0.3770      -999.2500
      2369.2000        59.5966        25.0320       227.6780       252.7900        92.6551        34.4100      2521.2800        93.9900       234.5250        25.1785        31.3783       259.2000       327.8250       257.2000         5.5170      2495.6001       156.5500         7.6520         6.2160         0.3698      -999.2500
      2369.4000        59.7187        24.4302       225.6770       251.0550        93.2433        33.4525      2561.6001        94.0650       225.5000        25.0859        30.5795       244.9500       327.0750       256.8200         4.5050      2480.1001       153.3500        21.3280        11.7760         0.3222      -999.2500
      2369.6000        59.8055        23.8509       221.3800       248.8210        92.1502        32.5051      2549.4600        94.9050       223.1250        24.4023        31.7271       246.0000       306.4000       251.8600         3.9110      2562.5000       149.7500         8.3160         7.3480         0.3404      -999.2500
      2369.8000        59.8923        23.0924       225.3110       246.9690        90.5673        31.9951      2521.6001        92.8500       222.9500        22.9419        31.4362       244.5750       327.2500       252.4200         3.7050      2569.2000        92.2000         9.4000         6.3480         0.3116      -999.2500
      2370.0000        59.9790        21.9516       231.6330       248.3530        88.9596        31.8741      2487.7700        88.7850       225.1750        21.0199        27.5823       252.2000       331.7250       253.0200         3.7280      2545.5000        50.1000        10.3880         7.5800         0.3140      -999.2500
      2370.2000        60.1509        20.8672       240.5470       248.6630        89.9230        32.1361      2453.9299        90.8550       236.8750        19.2411        24.9707       282.1000       330.5000       252.8600         4.1040      2523.7998        87.7000         3.1200         4.8800         0.3277      -999.2500
      2370.4000        60.1795        19.7597       245.4090       249.3500        90.3658        32.3788      2420.0901        93.1350       244.0000        17.9403        23.9128       296.0500       330.5000       252.7600         4.6350      2454.8997        80.2000         3.1680         3.9440         0.3110      -999.2500
      2370.6000        60.2082        18.6011       249.4120       252.3970        90.5621        35.2989      2386.2500        89.5050       246.2500        17.4193        23.9569       321.4000       352.1750       259.1400         5.2340      2443.0000       129.5500         2.3720         4.7960         0.3441      -999.2500
      2370.8000        60.2369        17.8111       240.7550       258.2270        90.7584        37.4428      2327.9199        90.5850       256.2500        17.7758        24.9707       319.9750       359.5250       261.7600         5.7210      2347.0000       141.0000         1.7720         3.9080         0.3916      -999.2500
      2371.0000        60.1533        18.1047       229.6480       260.1000        92.0068        33.8194      2339.2500        92.8350       240.8750        18.5110        22.6689       285.5750       368.6000       260.9400         5.6180      2307.2998       133.2000         2.4360         3.3560         0.3338      -999.2500
      2371.2000        60.0404        18.4032       222.3120       262.8120        92.6966        35.1751      2337.0300        97.0500       231.5500        18.7512        17.6129       249.0750       359.6500       263.1800         5.9140      2391.0000       142.3000         5.2640         5.0560         0.3496      -999.2500
      2371.4000        59.9275        19.3254       221.4220       261.8380        91.4413        36.5328      2317.3501        93.9300       225.2500        18.3582        17.2596       271.5250       361.0750       265.1600         6.3410      2355.8997       117.1500         6.0800         4.2520         0.3654      -999.2500
      2371.6000        59.8523        20.9314       223.4460       252.8990        89.6510        37.3363      2359.2600        91.3950       223.9000        18.4090        22.2962       255.5250       347.1250       257.5200         6.0930      2296.3997        65.6000        16.1640         7.4800         0.3925      -999.2500
      2371.8000        59.6582        22.2413       226.3080       248.7880        88.6096        34.9150      2445.7800        91.1700       222.6250        19.5628        26.0753       246.7500       330.5500       251.8600         4.8200      2332.0000        35.1000        21.1840         6.1600         0.3241      -999.2500
      2372.0000        59.4385        23.6070       228.1290       246.5220        87.9447        33.2089      2517.8101        87.2250       224.3500        21.9296        26.4137       258.4750       347.0250       253.6800         3.9770      2508.7000        50.6000         2.5960         3.9560         0.3277      -999.2500
      2372.2000        59.1097        22.6027       227.8820       242.6130        87.2799        33.0839      2494.9299        86.9850       233.7750        23.6935        27.3042       242.5750       346.9250       250.3400         3.8530      2530.1001        17.7000        11.3800         4.8720         0.3371      -999.2500
      2372.4000        58.6014        18.1098       236.5330       238.7040        86.8383        31.4490      2439.9099        89.3100       226.8000        21.7886        25.2482       239.3750       354.4500       246.4200         4.9580      2551.2998        12.0000        19.1280         7.1760         0.2960      -999.2500
      2372.6000        58.0931        15.3303       287.0190       240.5590        85.3727        31.4621      2316.9500        88.0200       234.7750        15.3684        21.0974       244.5250       346.7750       237.0000         6.7570      2410.3997        14.2000        11.3840         7.4840         0.3087      -999.2500
      2372.8000        58.3819        13.0960       327.2520       252.9620        83.5431        45.2311      2193.9900        85.6650       302.5250         9.7866        14.8126       298.2000       344.5000       249.7600         7.9930      2080.7998         3.9000         3.9640         5.8640         0.3760      -999.2500
