~Version Information
 VERS.      2.0                                  : CWLS Log ASCII Standard - VERSION 2.0
 SERV.      IHS Energy                           : IHS Energy
 WRAP.      NO                                   : One line per depth step

~Well Information
#MNEM.UNIT       DATA                            : DESCRIPTION
#----.----       ---------                       : -----------
 NULL.      -999.2500                            : Null Value
 STRT.M     283.0000                             : Start Depth
 STOP.M     2671.2000                            : Stop Depth
 STEP.M     0.2000                               : Depth Increment
 UWI .      100160407110W600                     : Unique Well ID
 CNTY.                                           : County
 COMP.      SUNCOR ENERGY INC.                   : Company
 CTRY.      CAN                                  : Country
 DATE.      1991-06-19                           : Log Date(s)
 FLD .      ELMWORTH                             : Field
 LIC .      0148772                              : License No
 LOC .      00/16-04-071-10W6/0                  : Location
 PROV.      ALBERTA                              : Province
 SON .                                           : Service Order No(s)
 WELL.      SUNCOR CDN HUNTER ELM 16-4-71-10     : Well Name

~Parameter Information
#MNEM.UNIT       DATA                            : DESCRIPTION
#----.----       ---------                       : -----------
 BASE.                                           : Logging Unit Home Base
 BOTL.M     2670.8000                            : Bottom of Logged Interval
 BS  .MM    0.0000                               : Bit Size
 CSGD.M     454.7000                             : Casing Bottom, Driller
 CSGL.M     454.5000                             : Casing Bottom, Logger
 CSGS.MM    0.0000                               : Casing Size (diameter)
 DIGS.      QCDATA                               : Digitizing Company
 DREF.M     KB                                   : Depth Reference
 EGL .M     726.1000                             : Elevation Ground Level
 EKB .M     731.5000                             : Elevation Kelly Bushing
 ENG .                                           : Recording Engineer
 EREF.M     731.5000                             : Elevation of Depth Reference
 RUN .                                           : Run Number
 SRVC.      SCHLUMBERGER CANADA LIMITED          : Service Company
 TDD .M     2680.0000                            : Total Depth, Driller
 TDL .M     2672.6000                            : Total Depth, Logger
 TIML.                                           : Date/Time Logger on Bottom
 TMAX.DEGC  0.0000                               : Max Temperature
 TOPL.M     454.0000                             : Top of Logged Interval
 UNIT.                                           : Unit Number
 WIT .                                           : Witnessed By

~tops
 PUSKWSK            509.5000
 CHINKSS            538.0000
 COLRAD             579.5000
 BADHRT             689.0000
 MUSKIKI            705.0000
 CARD               735.0000
 CARDSD             756.0000
 KASKAPAU           774.0000
 DUNVG              1211.0000
 SHAFTBR            1405.0000
 BFSC               1525.0000
 PADDY              1665.0000
 CADOTT             1685.0000
 HARMON             1708.0000
 NOTIK              1735.0000
 FALHASD            1787.0000
 FALHBSD            1805.0000
 FALHCSD            1835.0000
 FALHDSD            1880.0000
 FALHESD            1901.0000
 WILRICH            1984.0000
 BLUSKY             2065.0000
 GETH               2086.0000
 CADOMIN            2207.0000
 NIKANSN            2226.0000
 FERNIE             2348.0000
 NORD               2424.0000
 CHARLK             2442.0000
 HALFWY             2590.0000
 DOIG               2600.5000

~Other Information
Mnemonics commonly used by IHS Energy, LAS, Alberta EUB and LIS are used in this output file.

~Curve Information
# MNEM .UNIT        API CODE   : Curve Description
#----- .----      ------------ : -------------------
 DEPT  .M         00 001 00 00 : 1 DEPTH
 SP    .MV        07 010 01 00 : 2 SPONTANEOUS POTENTIAL
 ILD   .OHM.M     07 120 46 00 : 3 INDUCTION DEEP RESISTIVITY
 C1    .MM        45 280 01 00 : 4 
 DT    .US/M      60 520 00 00 : 5 DELTA-T COMPRESSIONAL
 GAM   .API       60 310 01 00 : 6 
 NPSS  .%         42 890 03 00 : 7 
 RHOB  .KG/M3     45 350 01 00 : 8 BULK DENSITY
 GR    .GAPI      60 310 01 00 : 9 
 CAX   .MM        42 280 01 00 : 10 
 ILM   .OHM.M     08 120 44 00 : 11 
 SFL   .OHM.M     08 220 01 00 : 12 
 CALS  .MM        60 280 03 00 : 13 
 CAY   .MM        42 280 02 00 : 14 
 AC    .US/M      60 520 00 00 : 15 ACQUISITION TRAVEL TIME
 PEF   .B/E       42 358 01 00 : 16 PHOTO-ELECTRIC FACTOR
 DEN   .KG/M3     42 350 01 00 : 17 BULK DENSITY
 DC    .KG/M3     42 356 01 00 : 18 DENSITY CORRECTION
 INV   .OHM.M     15 250 02 00 : 19 MICRO INVERSE 1 INCH
 NOR   .OHM.M     15 252 02 00 : 20 MICRO NORMAL
 POS   .V/V       42 890 03 00 : 21 
 POL   .V/V       42 890 01 00 : 22 
~A         DEPT             SP            ILD             C1             DT            GAM           NPSS           RHOB             GR            CAX            ILM            SFL           CALS            CAY             AC            PEF            DEN             DC            INV            NOR            POS            POL
# ...
      1488.0000       -37.4389         9.5913       247.6380       279.9050        88.5466      -999.2500      -999.2500        86.0100       252.4250        10.4672        11.9627       288.9250       356.5000       290.0400      -999.2500      -999.2500      -999.2500      -999.2500      -999.2500      -999.2500      -999.2500
      1488.2000       -37.4530         9.6916       246.1890       280.1800        88.3066      -999.2500      -999.2500        93.7350       253.3000        10.4191        12.0734       284.2750       353.8250       288.1600      -999.2500      -999.2500      -999.2500      -999.2500      -999.2500      -999.2500      -999.2500
      1488.4000       -37.4672         9.7930       244.7400       280.4710        85.8129      -999.2500      -999.2500        94.3500       246.2000        10.2383        12.1627       285.8500       327.5000       286.4400      -999.2500      -999.2500      -999.2500      -999.2500      -999.2500      -999.2500      -999.2500
      1488.6000       -37.4813         9.8954       245.5090       280.7620        85.6736      -999.2500      -999.2500        89.6550       245.9750        10.0422        11.9517       284.6250       331.7750       284.2400      -999.2500      -999.2500      -999.2500      -999.2500      -999.2500      -999.2500      -999.2500
      1488.8000       -37.4954         9.9989       246.8220       281.4170        88.0193      -999.2500      -999.2500        86.3700       246.8750        10.0330        11.8858       299.4750       327.8000       285.8000      -999.2500      -999.2500      -999.2500      -999.2500      -999.2500      -999.2500      -999.2500
      1489.0000       -37.5096        10.1072       248.1350       282.8830        90.3650      -999.2500      -999.2500        85.6350       250.4000        10.3903        11.8312       278.4750       338.2500       288.5200      -999.2500      -999.2500      -999.2500      -999.2500      -999.2500      -999.2500      -999.2500
      1489.2000       -37.5237        10.3410       247.1430       284.3500        94.1889      -999.2500      -999.2500        89.4900       251.4250        10.8600        12.0069       275.1500       325.1750       288.2000      -999.2500      -999.2500      -999.2500      -999.2500      -999.2500      -999.2500      -999.2500
      1489.4000       -37.5378        10.5803       247.0200       285.2710        97.6073      -999.2500      -999.2500        95.2500       250.8000        11.1027        12.2526       271.9250       330.0750       287.7600      -999.2500      -999.2500      -999.2500      -999.2500      -999.2500      -999.2500      -999.2500
      1489.6000       -37.5520        10.7445       246.6010       284.1720        97.0644      -999.2500      -999.2500       100.2300       246.7000        10.9807        12.3546       273.5250       300.3250       287.2000      -999.2500      -999.2500      -999.2500      -999.2500      -999.2500      -999.2500      -999.2500
      1489.8000       -37.5661        10.7050       245.1580       283.0720        92.7698      -999.2500      -999.2500       103.3800       249.3500        10.7505        12.5150       274.6750       315.7750       287.2400      -999.2500      -999.2500      -999.2500      -999.2500      -999.2500      -999.2500      -999.2500
      1490.0000       -37.5802        10.6241       243.7150       282.3160        86.8943      -999.2500      -999.2500        96.6300       248.7500        10.6226        12.7125       275.2250       324.1000       287.3200      -999.2500      -999.2500      -999.2500      -999.2500      -999.2500      -999.2500      -999.2500
      1490.2000       -37.5944        10.5437       243.8700       281.7900        84.5433      -999.2500      -999.2500        87.6750       246.8250        10.6618        12.8893       275.5000       324.4500       287.4000      -999.2500      -999.2500      -999.2500      -999.2500      -999.2500      -999.2500      -999.2500
      1490.4000       -37.6085        10.4673       244.5200       281.2640        89.1816      -999.2500      -999.2500        84.5850       245.0500        10.7011        12.8893       274.0250       327.0000       286.8000      -999.2500      -999.2500      -999.2500      -999.2500      -999.2500      -999.2500      -999.2500
      1490.6000       -37.6226        10.3928       245.9620       280.7380        92.7889      -999.2500      -999.2500        92.3700       244.1000        10.6226        12.7125       274.0000       326.9750       286.3200      -999.2500      -999.2500      -999.2500      -999.2500      -999.2500      -999.2500      -999.2500
      1490.8000       -37.6368        10.3189       248.5140       280.2120        91.2154      -999.2500      -999.2500        97.3650       244.1250        10.5058        12.5380       286.9250       332.6750       285.8400      -999.2500      -999.2500      -999.2500      -999.2500      -999.2500      -999.2500      -999.2500
      1491.0000       -37.6509        10.5383       246.1440       279.6180        89.1265      -999.2500      -999.2500        93.6000       249.3750        10.6520        12.5035       293.3500       341.6000       285.3600      -999.2500      -999.2500      -999.2500      -999.2500      -999.2500      -999.2500      -999.2500
      1491.2000       -37.6650        10.8320       241.4340       278.7280        86.7804      -999.2500      -999.2500        87.4950       258.2000        11.1848        12.5612       278.1000       346.3250       284.8800      -999.2500      -999.2500      -999.2500      -999.2500      -999.2500      -999.2500      -999.2500
      1491.4000       -37.8986        11.1340       239.4490       277.8390        88.5629      -999.2500      -999.2500        86.8800       239.3250        11.9297        13.2749       266.5500       335.8250       284.4000      -999.2500      -999.2500      -999.2500      -999.2500      -999.2500      -999.2500      -999.2500
      1491.6000       -38.1554        11.2458       239.7390       277.2270        90.2589      -999.2500      -999.2500        87.1350       242.0500        12.3774        13.7224       261.1750       325.2750       284.1600      -999.2500      -999.2500      -999.2500      -999.2500      -999.2500      -999.2500      -999.2500
      1491.8000       -38.1573        11.2085       240.0290       276.7320        91.4963      -999.2500      -999.2500        92.5650       242.6750        12.2639        14.0809       263.2000       313.1250       284.0000      -999.2500      -999.2500      -999.2500      -999.2500      -999.2500      -999.2500      -999.2500
      1492.0000       -38.2010        11.1713       240.3180       276.2370        91.7008      -999.2500      -999.2500        95.1600       242.4750        11.7552        14.1198       269.7250       327.6500       283.8400      -999.2500      -999.2500      -999.2500      -999.2500      -999.2500      -999.2500      -999.2500
      1492.2000       -38.2709        11.1313       240.6080       275.7420        91.6401      -999.2500      -999.2500        92.4750       242.3750        11.3196        13.6845       269.0750       332.9750       283.6800      -999.2500      -999.2500      -999.2500      -999.2500      -999.2500      -999.2500      -999.2500
      1492.4000       -38.2271        11.0911       240.0450       275.3680        91.5795      -999.2500      -999.2500        91.9650       242.6000        11.2055        13.4719       267.5750       332.9750       283.6000      -999.2500      -999.2500      -999.2500      -999.2500      -999.2500      -999.2500      -999.2500
      1492.6000       -38.1622        11.0510       240.7060       275.0000        94.2645      -999.2500      -999.2500        94.0050       242.8500        11.3300        13.5217       267.0000       336.3750       283.8000      -999.2500      -999.2500      -999.2500      -999.2500      -999.2500      -999.2500      -999.2500
      1492.8000       -38.0972        11.0110       241.3680       273.5470        99.0146      -999.2500      -999.2500        92.4300       243.0250        11.4348        13.4471       265.5250       341.7500       283.9600      -999.2500      -999.2500      -999.2500      -999.2500      -999.2500      -999.2500      -999.2500
