~Version Information
 VERS.      2.0                                  : CWLS Log ASCII Standard - VERSION 2.0
 SERV.      IHS Energy                           : IHS Energy
 WRAP.      NO                                   : One line per depth step

~Well Information
#MNEM.UNIT       DATA                            : DESCRIPTION
#----.----       ---------                       : -----------
 NULL.      -999.2500                            : Null Value
 STRT.M     283.0000                             : Start Depth
 STOP.M     2671.2000                            : Stop Depth
 STEP.M     0.2000                               : Depth Increment
 UWI .      100160407110W600                     : Unique Well ID
 CNTY.                                           : County
 COMP.      SUNCOR ENERGY INC.                   : Company
 CTRY.      CAN                                  : Country
 DATE.      1991-06-19                           : Log Date(s)
 FLD .      ELMWORTH                             : Field
 LIC .      0148772                              : License No
 LOC .      00/16-04-071-10W6/0                  : Location
 PROV.      ALBERTA                              : Province
 SON .                                           : Service Order No(s)
 WELL.      SUNCOR CDN HUNTER ELM 16-4-71-10     : Well Name

~Parameter Information
#MNEM.UNIT       DATA                            : DESCRIPTION
#----.----       ---------                       : -----------
 BASE.                                           : Logging Unit Home Base
 BOTL.M     2670.8000                            : Bottom of Logged Interval
 BS  .MM    0.0000                               : Bit Size
 CSGD.M     454.7000                             : Casing Bottom, Driller
 CSGL.M     454.5000                             : Casing Bottom, Logger
 CSGS.MM    0.0000                               : Casing Size (diameter)
 DIGS.      QCDATA                               : Digitizing Company
 DREF.M     KB                                   : Depth Reference
 EGL .M     726.1000                             : Elevation Ground Level
 EKB .M     731.5000                             : Elevation Kelly Bushing
 ENG .                                           : Recording Engineer
 EREF.M     731.5000                             : Elevation of Depth Reference
 RUN .                                           : Run Number
 SRVC.      SCHLUMBERGER CANADA LIMITED          : Service Company
 TDD .M     2680.0000                            : Total Depth, Driller
 TDL .M     2672.6000                            : Total Depth, Logger
 TIML.                                           : Date/Time Logger on Bottom
 TMAX.DEGC  0.0000                               : Max Temperature
 TOPL.M     454.0000                             : Top of Logged Interval
 UNIT.                                           : Unit Number
 WIT .                                           : Witnessed By

~tops
 PUSKWSK            509.5000
 CHINKSS            538.0000
 COLRAD             579.5000
 BADHRT             689.0000
 MUSKIKI            705.0000
 CARD               735.0000
 CARDSD             756.0000
 KASKAPAU           774.0000
 DUNVG              1211.0000
 SHAFTBR            1405.0000
 BFSC               1525.0000
 PADDY              1665.0000
 CADOTT             1685.0000
 HARMON             1708.0000
 NOTIK              1735.0000
 FALHASD            1787.0000
 FALHBSD            1805.0000
 FALHCSD            1835.0000
 FALHDSD            1880.0000
 FALHESD            1901.0000
 WILRICH            1984.0000
 BLUSKY             2065.0000
 GETH               2086.0000
 CADOMIN            2207.0000
 NIKANSN            2226.0000
 FERNIE             2348.0000
 NORD               2424.0000
 CHARLK             2442.0000
 HALFWY             2590.0000
 DOIG               2600.5000

~Other Information
Mnemonics commonly used by IHS Energy, LAS, Alberta EUB and LIS are used in this output file.

~Curve Information
# MNEM .UNIT        API CODE   : Curve Description
#----- .----      ------------ : -------------------
 DEPT  .M         00 001 00 00 : 1 DEPTH
 SP    .MV        07 010 01 00 : 2 SPONTANEOUS POTENTIAL
 ILD   .OHM.M     07 120 46 00 : 3 INDUCTION DEEP RESISTIVITY
 C1    .MM        45 280 01 00 : 4 
 DT    .US/M      60 520 00 00 : 5 DELTA-T COMPRESSIONAL
 GAM   .API       60 310 01 00 : 6 
 NPSS  .%         42 890 03 00 : 7 
 RHOB  .KG/M3     45 350 01 00 : 8 BULK DENSITY
 GR    .GAPI      60 310 01 00 : 9 
 CAX   .MM        42 280 01 00 : 10 
 ILM   .OHM.M     08 120 44 00 : 11 
 SFL   .OHM.M     08 220 01 00 : 12 
 CALS  .MM        60 280 03 00 : 13 
 CAY   .MM        42 280 02 00 : 14 
 AC    .US/M      60 520 00 00 : 15 ACQUISITION TRAVEL TIME
 PEF   .B/E       42 358 01 00 : 16 PHOTO-ELECTRIC FACTOR
 DEN   .KG/M3     42 350 01 00 : 17 BULK DENSITY
 DC    .KG/M3     42 356 01 00 : 18 DENSITY CORRECTION
 INV   .OHM.M     15 250 02 00 : 19 MICRO INVERSE 1 INCH
 NOR   .OHM.M     15 252 02 00 : 20 MICRO NORMAL
 POS   .V/V       42 890 03 00 : 21 
 POL   .V/V       42 890 01 00 : 22 
~A         DEPT             SP            ILD             C1             DT            GAM           NPSS           RHOB             GR            CAX            ILM            SFL           CALS            CAY             AC            PEF            DEN             DC            INV            NOR            POS            POL
# ...
      1193.0000       -51.7700        10.6696       269.3510       260.3860        85.7959      -999.2500      -999.2500        88.4550       279.5750        10.3999        10.3331       312.2500       380.6250       279.8400      -999.2500      -999.2500      -999.2500      -999.2500      -999.2500      -999.2500      -999.2500
      1193.2000       -51.5571        10.5585       265.5300       258.5150        85.6473      -999.2500      -999.2500        83.5350       270.5500        10.5058        10.1538       312.5750       340.6500       269.0800      -999.2500      -999.2500      -999.2500      -999.2500      -999.2500      -999.2500      -999.2500
      1193.4000       -51.3443        10.8469       263.2800       259.3090        86.1131      -999.2500      -999.2500        87.7950       268.3500        10.3331         9.8953       313.9750       352.8500       266.1200      -999.2500      -999.2500      -999.2500      -999.2500      -999.2500      -999.2500      -999.2500
      1193.6000       -51.1315        11.1597       262.7490       260.1020        88.2133      -999.2500      -999.2500        92.3700       268.9750        10.3426        10.5835       315.0500       364.5250       265.8400      -999.2500      -999.2500      -999.2500      -999.2500      -999.2500      -999.2500      -999.2500
      1193.8000       -51.2280        11.5143       260.6470       260.8960        88.8278      -999.2500      -999.2500        87.6600       267.9000        10.9403        11.9407       306.6500       362.3250       269.1600      -999.2500      -999.2500      -999.2500      -999.2500      -999.2500      -999.2500      -999.2500
      1194.0000       -51.3269        11.8801       260.2280       261.1200        86.8406      -999.2500      -999.2500        81.9600       266.1000        11.8968        12.5035       308.3000       337.2250       269.2800      -999.2500      -999.2500      -999.2500      -999.2500      -999.2500      -999.2500      -999.2500
      1194.2000       -51.4256        12.1276       259.8100       260.7650        83.5517      -999.2500      -999.2500        82.2600       265.2500        12.8065        12.8538       310.6500       342.1000       268.1200      -999.2500      -999.2500      -999.2500      -999.2500      -999.2500      -999.2500      -999.2500
      1194.4000       -51.5706        12.5160       259.3920       260.4090        83.1287      -999.2500      -999.2500        82.4700       266.1000        13.2260        12.9131       308.8750       353.7000       268.1600      -999.2500      -999.2500      -999.2500      -999.2500      -999.2500      -999.2500      -999.2500
      1194.6000       -51.7249        12.9605       259.0480       260.0540        81.9686      -999.2500      -999.2500        85.3050       265.1500        13.2017        12.9250       302.5000       377.7750       268.2000      -999.2500      -999.2500      -999.2500      -999.2500      -999.2500      -999.2500      -999.2500
      1194.8000       -51.8687        13.2460       258.8560       259.6990        78.7626      -999.2500      -999.2500        83.0700       264.3000        12.9727        12.7359       304.5000       344.2750       268.2400      -999.2500      -999.2500      -999.2500      -999.2500      -999.2500      -999.2500      -999.2500
      1195.0000       -52.0074        13.4517       258.6640       259.3430        78.0938      -999.2500      -999.2500        75.6600       264.4750        12.9012        12.9607       305.3250       349.2500       268.8800      -999.2500      -999.2500      -999.2500      -999.2500      -999.2500      -999.2500      -999.2500
      1195.2000       -52.1462        13.6607       258.4720       258.7400        78.2867      -999.2500      -999.2500        76.4700       263.2250        13.1653        13.3484       301.2750       346.8250       268.9600      -999.2500      -999.2500      -999.2500      -999.2500      -999.2500      -999.2500      -999.2500
      1195.4000       -52.2849        13.7943       258.2800       257.8450        79.1982      -999.2500      -999.2500        80.3700       262.7750        13.6342        13.7984       299.8250       349.0000       265.2800      -999.2500      -999.2500      -999.2500      -999.2500      -999.2500      -999.2500      -999.2500
      1195.6000       -52.4236        13.8298       258.5000       256.9500        81.2125      -999.2500      -999.2500        84.7350       262.7750        14.0033        13.9389       306.6000       336.5000       262.8800      -999.2500      -999.2500      -999.2500      -999.2500      -999.2500      -999.2500      -999.2500
      1195.8000       -52.5557        14.0296       259.0910       256.0560        81.1068      -999.2500      -999.2500        83.7600       261.9500        14.1589        13.8494       304.4750       335.1250       262.1200      -999.2500      -999.2500      -999.2500      -999.2500      -999.2500      -999.2500      -999.2500
      1196.0000       -52.6871        14.2322       259.6820       255.1610        80.7431      -999.2500      -999.2500        83.5050       264.8000        14.2636        13.9904       302.0500       332.3250       261.3600      -999.2500      -999.2500      -999.2500      -999.2500      -999.2500      -999.2500      -999.2500
      1196.2000       -52.8184        14.4377       259.7080       254.2660        80.3058      -999.2500      -999.2500        82.2150       265.2250        14.4089        14.2768       298.2250       356.3750       260.3600      -999.2500      -999.2500      -999.2500      -999.2500      -999.2500      -999.2500      -999.2500
      1196.4000       -52.9497        14.6463       259.2240       253.3710        78.8474      -999.2500      -999.2500        78.3150       265.0000        14.4621        14.6228       298.2750       343.4750       258.0800      -999.2500      -999.2500      -999.2500      -999.2500      -999.2500      -999.2500      -999.2500
      1196.6000       -53.0811        14.7643       258.7400       252.4770        77.3890      -999.2500      -999.2500        75.8400       264.6250        14.3295        14.9359       300.1500       329.1000       258.1200      -999.2500      -999.2500      -999.2500      -999.2500      -999.2500      -999.2500      -999.2500
      1196.8000       -53.2035        14.8704       258.4550       251.5820        75.9306      -999.2500      -999.2500        77.3250       263.0000        14.0679        14.7717       299.0500       347.2250       258.2000      -999.2500      -999.2500      -999.2500      -999.2500      -999.2500      -999.2500      -999.2500
      1197.0000       -53.1541        14.9773       258.5570       250.6870        77.3759      -999.2500      -999.2500        75.3000       263.0000        13.9518        14.3691       302.2250       335.5500       258.2400      -999.2500      -999.2500      -999.2500      -999.2500      -999.2500      -999.2500      -999.2500
      1197.2000       -53.1046        14.8873       258.6600       249.9890        78.8997      -999.2500      -999.2500        77.7450       264.7500        14.1329        14.0550       306.9250       347.6250       256.7600      -999.2500      -999.2500      -999.2500      -999.2500      -999.2500      -999.2500      -999.2500
      1197.4000       -53.0551        14.7768       258.7620       249.9830        80.8729      -999.2500      -999.2500        81.4800       263.6000        14.4754        14.4887       310.2000       356.2750       255.7600      -999.2500      -999.2500      -999.2500      -999.2500      -999.2500      -999.2500      -999.2500
      1197.6000       -52.9962        14.6671       259.2910       249.9780        82.8809      -999.2500      -999.2500        84.0900       262.9250        14.7174        14.8399       310.5000       351.1750       255.2000      -999.2500      -999.2500      -999.2500      -999.2500      -999.2500      -999.2500      -999.2500
      1197.8000       -52.9350        14.5582       259.8520       249.9720        83.9293      -999.2500      -999.2500        86.7150       262.6000        14.6363        15.0325       310.5000       359.5000       254.8000      -999.2500      -999.2500      -999.2500      -999.2500      -999.2500      -999.2500      -999.2500
