~Version Information
 VERS.      2.0                                  : CWLS Log ASCII Standard - VERSION 2.0
 SERV.      IHS Energy                           : IHS Energy
 WRAP.      NO                                   : One line per depth step

~Well Information
#MNEM.UNIT       DATA                            : DESCRIPTION
#----.----       ---------                       : -----------
 NULL.      -999.2500                            : Null Value
 STRT.M     283.0000                             : Start Depth
 STOP.M     2671.2000                            : Stop Depth
 STEP.M     0.2000                               : Depth Increment
 UWI .      100160407110W600                     : Unique Well ID
 CNTY.                                           : County
 COMP.      SUNCOR ENERGY INC.                   : Company
 CTRY.      CAN                                  : Country
 DATE.      1991-06-19                           : Log Date(s)
 FLD .      ELMWORTH                             : Field
 LIC .      0148772                              : License No
 LOC .      00/16-04-071-10W6/0                  : Location
 PROV.      ALBERTA                              : Province
 SON .                                           : Service Order No(s)
 WELL.      SUNCOR CDN HUNTER ELM 16-4-71-10     : Well Name

~Parameter Information
#MNEM.UNIT       DATA                            : DESCRIPTION
#----.----       ---------                       : -----------
 BASE.                                           : Logging Unit Home Base
 BOTL.M     2670.8000                            : Bottom of Logged Interval
 BS  .MM    0.0000                               : Bit Size
 CSGD.M     454.7000                             : Casing Bottom, Driller
 CSGL.M     454.5000                             : Casing Bottom, Logger
 CSGS.MM    0.0000                               : Casing Size (diameter)
 DIGS.      QCDATA                               : Digitizing Company
 DREF.M     KB                                   : Depth Reference
 EGL .M     726.1000                             : Elevation Ground Level
 EKB .M     731.5000                             : Elevation Kelly Bushing
 ENG .                                           : Recording Engineer
 EREF.M     731.5000                             : Elevation of Depth Reference
 RUN .                                           : Run Number
 SRVC.      SCHLUMBERGER CANADA LIMITED          : Service Company
 TDD .M     2680.0000                            : Total Depth, Driller
 TDL .M     2672.6000                            : Total Depth, Logger
 TIML.                                           : Date/Time Logger on Bottom
 TMAX.DEGC  0.0000                               : Max Temperature
 TOPL.M     454.0000                             : Top of Logged Interval
 UNIT.                                           : Unit Number
 WIT .                                           : Witnessed By

~tops
 PUSKWSK            509.5000
 CHINKSS            538.0000
 COLRAD             579.5000
 BADHRT             689.0000
 MUSKIKI            705.0000
 CARD               735.0000
 CARDSD             756.0000
 KASKAPAU           774.0000
 DUNVG              1211.0000
 SHAFTBR            1405.0000
 BFSC               1525.0000
 PADDY              1665.0000
 CADOTT             1685.0000
 HARMON             1708.0000
 NOTIK              1735.0000
 FALHASD            1787.0000
 FALHBSD            1805.0000
 FALHCSD            1835.0000
 FALHDSD            1880.0000
 FALHESD            1901.0000
 WILRICH            1984.0000
 BLUSKY             2065.0000
 GETH               2086.0000
 CADOMIN            2207.0000
 NIKANSN            2226.0000
 FERNIE             2348.0000
 NORD               2424.0000
 CHARLK             2442.0000
 HALFWY             2590.0000
 DOIG               2600.5000

~Other Information
Mnemonics commonly used by IHS Energy, LAS, Alberta EUB and LIS are used in this output file.

~Curve Information
# MNEM .UNIT        API CODE   : Curve Description
#----- .----      ------------ : -------------------
 DEPT  .M         00 001 00 00 : 1 DEPTH
 SP    .MV        07 010 01 00 : 2 SPONTANEOUS POTENTIAL
 ILD   .OHM.M     07 120 46 00 : 3 INDUCTION DEEP RESISTIVITY
 C1    .MM        45 280 01 00 : 4 
 DT    .US/M      60 520 00 00 : 5 DELTA-T COMPRESSIONAL
 GAM   .API       60 310 01 00 : 6 
 NPSS  .%         42 890 03 00 : 7 
 RHOB  .KG/M3     45 350 01 00 : 8 BULK DENSITY
 GR    .GAPI      60 310 01 00 : 9 
 CAX   .MM        42 280 01 00 : 10 
 ILM   .OHM.M     08 120 44 00 : 11 
 SFL   .OHM.M     08 220 01 00 : 12 
 CALS  .MM        60 280 03 00 : 13 
 CAY   .MM        42 280 02 00 : 14 
 AC    .US/M      60 520 00 00 : 15 ACQUISITION TRAVEL TIME
 PEF   .B/E       42 358 01 00 : 16 PHOTO-ELECTRIC FACTOR
 DEN   .KG/M3     42 350 01 00 : 17 BULK DENSITY
 DC    .KG/M3     42 356 01 00 : 18 DENSITY CORRECTION
 INV   .OHM.M     15 250 02 00 : 19 MICRO INVERSE 1 INCH
 NOR   .OHM.M     15 252 02 00 : 20 MICRO NORMAL
 POS   .V/V       42 890 03 00 : 21 
 POL   .V/V       42 890 01 00 : 22 
~A         DEPT             SP            ILD             C1             DT            GAM           NPSS           RHOB             GR            CAX            ILM            SFL           CALS            CAY             AC            PEF            DEN             DC            INV            NOR            POS            POL
# ...
      2223.0000        -9.2847        37.6670       226.8000       225.9240        27.0584        13.1327      2450.0400        27.9450       227.9000        45.8596        72.6825       237.3750       262.5000       220.4800         2.2600      2464.2000        -5.1000        17.1360        11.9680         0.1765      -999.2500
      2223.2000        -8.2947        44.2959       227.2140       230.0220        28.9413        13.4063      2438.6201        23.6250       227.2750        49.0490        85.2374       237.2500       263.0750       225.0000         2.2750      2452.7998        -4.7500        11.5280        14.8720         0.1532      -999.2500
      2223.4000        -7.1047        52.0914       227.6280       234.1200        37.4476        17.2955      2397.7400        27.5700       227.6250        48.7787        76.3185       238.5750       260.5250       231.0400         2.3180      2458.8997         2.6500        13.0440        15.9040         0.0972      -999.2500
      2223.6000        -5.9146        61.2588       228.0420       228.2290        44.3507        21.1847      2351.3701        35.2200       228.1750        51.5502        79.6214       238.8750       253.5000       238.9000         2.3970      2411.1001        -0.3500        21.8400        25.3880         0.1380      -999.2500
      2223.8000        -4.7246        72.0396       228.4560       222.7820        49.2823        22.6156      2344.4099        43.4400       228.1250        62.2057        93.8059       238.8750       253.5000       232.5400         2.5140      2350.1001        -8.4500        32.8880        31.6640         0.2673      -999.2500
      2224.0000        -4.1123        84.7176       228.5130       218.1850        48.9226        17.4935      2389.5901        52.9200       228.9250        82.4575       103.7122       238.9250       255.0000       223.4600         2.5530      2326.0000       -12.1500        19.3480        18.8800         0.2155      -999.2500
      2224.2000        -4.5893        93.5931       228.1720       213.5870        42.3115        12.3714      2518.1001        48.6450       229.4250       100.2374       121.9635       238.9250       255.7250       214.3800         2.5840      2380.8997       -10.3000        57.4240        48.9680         0.1852      -999.2500
      2224.4000        -5.2265       103.8360       227.8300       208.9900        31.9945         9.2906      2566.8101        32.9700       229.7250       104.1909       155.8224       238.9250       257.9000       208.1800         2.6000      2498.2998        -0.9999        58.7680        53.3120         0.1302      -999.2500
      2224.6000        -5.8118       114.6930       227.2910       208.7380        28.3114         9.8104      2571.8101        26.7150       227.0750       101.2581       161.8192       238.6500       293.3250       209.9800         2.3650      2564.5000         9.5000        45.1000        39.1880         0.0890      -999.2500
      2224.8000        -5.6872       124.4630       225.6110       212.2230        29.9702        10.6979      2562.2800        30.5400       224.4250       101.1649       143.1627       238.7500       293.2750       212.7400         2.1820      2568.5000         9.6500        43.4800        36.2640         0.0920      -999.2500
      2225.0000        -5.5626       120.8230       223.9310       215.7080        30.8775        11.7710      2552.7400        32.2950       223.8000       103.3308       136.5935       238.8000       293.8750       214.7600         2.1260      2571.7998         9.4000        45.7720        36.8240         0.1165      -999.2500
      2225.2000        -5.4380       112.9090       222.2520       219.1930        28.7569        11.7425      2534.3301        27.8700       223.5000        99.7769       125.3805       238.8750       289.9500       216.0400         2.0450      2559.0000        11.3000        56.5840        45.1720         0.1072      -999.2500
      2225.4000        -5.2955       101.1310       221.2080       217.9800        25.8518        11.9469      2504.6299        23.9550       223.4000        84.7676       113.3000       238.8750       284.2500       217.6400         2.0750      2540.7000        10.7500        29.5040        37.2600         0.1135      -999.2500
      2225.6000        -3.5795        91.8449       221.6770       215.6010        27.2122        14.0750      2471.8401        25.4550       223.7500        69.4113       103.8078       238.4500       284.2500       218.5000         2.2050      2516.8997         6.4500        21.5160        27.1320         0.1087      -999.2500
      2225.8000        -1.8636        85.0157       222.1460       215.1150        32.0634        14.2507      2450.0400        32.6400       224.4750        61.1266        93.2030       237.8750       285.7250       213.2000         2.2010      2499.6001         4.6500        29.1920        21.3960         0.1570      -999.2500
      2226.0000        -0.5407        80.3060       222.6150       215.8570        37.9019        12.0385      2526.3899        44.8500       224.6750        61.4653        89.4190       237.8000       271.5750       211.2400         2.2780      2444.2000         1.9500        33.4400        26.5800         0.1526      -999.2500
      2226.2000         0.5874        75.8572       223.0840       216.6000        45.1933        10.7841      2556.7300        47.9550       224.7000        65.4983        81.5511       237.6250       308.6250       214.6000         2.3010      2439.7000         0.7500        40.7120        30.2080         0.1034      -999.2500
      2226.4000         1.7155        72.2442       223.5530       217.3420        44.4423         8.1622      2558.8701        39.9900       224.7250        68.1444        69.5392       237.8500       321.2500       216.9200         2.2160      2521.6001         8.4000        35.0720        27.2520         0.1318      -999.2500
      2226.6000         2.7332        70.3556       224.0230       215.5670        39.1469         8.2041      2551.8301        31.3800       225.0250        65.6190        67.9563       240.0500       325.3750       218.3400         2.2360      2569.3997        10.2500        45.8000        39.4320         0.1132      -999.2500
      2226.8000         3.7527        73.1898       224.5980       212.4650        34.8285         8.6263      2563.2400        32.0850       224.6000        60.6778        76.6002       245.9250       326.0250       214.4400         2.2030      2555.7998         2.6000        23.8800        20.2240         0.0772      -999.2500
      2227.0000         4.7722        76.7354       225.2000       212.0030        33.7990         9.1022      2576.9800        36.8400       224.7000        57.6806        82.7618       245.5750       332.6500       212.2000         2.1930      2543.5000         0.3500        23.6960        19.6000         0.0853      -999.2500
      2227.2000         5.7917        80.4528       225.8020       212.0330        36.6549         8.8161      2582.7200        41.1000       227.1500        60.6778        83.0673       245.0250       332.1500       211.2000         2.1080      2557.5000         2.9500        24.8520        24.5480         0.0987      -999.2500
      2227.4000         6.6489        84.4452       226.4050       212.0630        39.5108         9.5629      2584.2400        42.3450       228.0000        72.8836        91.0815       245.1250       311.5250       210.9800         2.2600      2576.8997         3.3000        24.2920        19.2840         0.0863      -999.2500
      2227.6000         7.1775        88.8451       225.2620       212.0930        42.3667        10.8739      2584.8799        40.6950       228.0000        94.0654       107.1100       241.8000       302.6750       210.7400         2.3010      2590.5000         3.2500        47.6800        32.4080         0.0818      -999.2500
      2227.8000         7.7062        93.4743       224.5750       212.1230        42.9486        11.3932      2585.5200        42.2400       227.2500       114.2431       121.6270       240.1750       296.5000       210.4200         2.2030      2576.0000        -0.4500        49.6080        39.1360         0.0892      -999.2500
