~Version Information
 VERS.      2.0                                  : CWLS Log ASCII Standard - VERSION 2.0
 SERV.      IHS Energy                           : IHS Energy
 WRAP.      NO                                   : One line per depth step

~Well Information
#MNEM.UNIT       DATA                            : DESCRIPTION
#----.----       ---------                       : -----------
 NULL.      -999.2500                            : Null Value
 STRT.M     283.0000                             : Start Depth
 STOP.M     2671.2000                            : Stop Depth
 STEP.M     0.2000                               : Depth Increment
 UWI .      100160407110W600                     : Unique Well ID
 CNTY.                                           : County
 COMP.      SUNCOR ENERGY INC.                   : Company
 CTRY.      CAN                                  : Country
 DATE.      1991-06-19                           : Log Date(s)
 FLD .      ELMWORTH                             : Field
 LIC .      0148772                              : License No
 LOC .      00/16-04-071-10W6/0                  : Location
 PROV.      ALBERTA                              : Province
 SON .                                           : Service Order No(s)
 WELL.      SUNCOR CDN HUNTER ELM 16-4-71-10     : Well Name

~Parameter Information
#MNEM.UNIT       DATA                            : DESCRIPTION
#----.----       ---------                       : -----------
 BASE.                                           : Logging Unit Home Base
 BOTL.M     2670.8000                            : Bottom of Logged Interval
 BS  .MM    0.0000                               : Bit Size
 CSGD.M     454.7000                             : Casing Bottom, Driller
 CSGL.M     454.5000                             : Casing Bottom, Logger
 CSGS.MM    0.0000                               : Casing Size (diameter)
 DIGS.      QCDATA                               : Digitizing Company
 DREF.M     KB                                   : Depth Reference
 EGL .M     726.1000                             : Elevation Ground Level
 EKB .M     731.5000                             : Elevation Kelly Bushing
 ENG .                                           : Recording Engineer
 EREF.M     731.5000                             : Elevation of Depth Reference
 RUN .                                           : Run Number
 SRVC.      SCHLUMBERGER CANADA LIMITED          : Service Company
 TDD .M     2680.0000                            : Total Depth, Driller
 TDL .M     2672.6000                            : Total Depth, Logger
 TIML.                                           : Date/Time Logger on Bottom
 TMAX.DEGC  0.0000                               : Max Temperature
 TOPL.M     454.0000                             : Top of Logged Interval
 UNIT.                                           : Unit Number
 WIT .                                           : Witnessed By

~tops
 PUSKWSK            509.5000
 CHINKSS            538.0000
 COLRAD             579.5000
 BADHRT             689.0000
 MUSKIKI            705.0000
 CARD               735.0000
 CARDSD             756.0000
 KASKAPAU           774.0000
 DUNVG              1211.0000
 SHAFTBR            1405.0000
 BFSC               1525.0000
 PADDY              1665.0000
 CADOTT             1685.0000
 HARMON             1708.0000
 NOTIK              1735.0000
 FALHASD            1787.0000
 FALHBSD            1805.0000
 FALHCSD            1835.0000
 FALHDSD            1880.0000
 FALHESD            1901.0000
 WILRICH            1984.0000
 BLUSKY             2065.0000
 GETH               2086.0000
 CADOMIN            2207.0000
 NIKANSN            2226.0000
 FERNIE             2348.0000
 NORD               2424.0000
 CHARLK             2442.0000
 HALFWY             2590.0000
 DOIG               2600.5000

~Other Information
Mnemonics commonly used by IHS Energy, LAS, Alberta EUB and LIS are used in this output file.

~Curve Information
# MNEM .UNIT        API CODE   : Curve Description
#----- .----      ------------ : -------------------
 DEPT  .M         00 001 00 00 : 1 DEPTH
 SP    .MV        07 010 01 00 : 2 SPONTANEOUS POTENTIAL
 ILD   .OHM.M     07 120 46 00 : 3 INDUCTION DEEP RESISTIVITY
 C1    .MM        45 280 01 00 : 4 
 DT    .US/M      60 520 00 00 : 5 DELTA-T COMPRESSIONAL
 GAM   .API       60 310 01 00 : 6 
 NPSS  .%         42 890 03 00 : 7 
 RHOB  .KG/M3     45 350 01 00 : 8 BULK DENSITY
 GR    .GAPI      60 310 01 00 : 9 
 CAX   .MM        42 280 01 00 : 10 
 ILM   .OHM.M     08 120 44 00 : 11 
 SFL   .OHM.M     08 220 01 00 : 12 
 CALS  .MM        60 280 03 00 : 13 
 CAY   .MM        42 280 02 00 : 14 
 AC    .US/M      60 520 00 00 : 15 ACQUISITION TRAVEL TIME
 PEF   .B/E       42 358 01 00 : 16 PHOTO-ELECTRIC FACTOR
 DEN   .KG/M3     42 350 01 00 : 17 BULK DENSITY
 DC    .KG/M3     42 356 01 00 : 18 DENSITY CORRECTION
 INV   .OHM.M     15 250 02 00 : 19 MICRO INVERSE 1 INCH
 NOR   .OHM.M     15 252 02 00 : 20 MICRO NORMAL
 POS   .V/V       42 890 03 00 : 21 
 POL   .V/V       42 890 01 00 : 22 
~A         DEPT             SP            ILD             C1             DT            GAM           NPSS           RHOB             GR            CAX            ILM            SFL           CALS            CAY             AC            PEF            DEN             DC            INV            NOR            POS            POL
# ...
      2073.0000        -7.3460        56.3074       262.4640       208.8940        37.6348        14.2063      2601.5200        38.3400       260.2500        47.0576        50.0991       275.7500       271.2000       214.3600         2.9080      2603.5000        -0.9000        31.9200        23.4720         0.1400      -999.2500
      2073.2000        -7.6168        56.1920       262.8410       209.1240        36.3833        14.0498      2601.3201        35.6550       260.4000        46.7983        50.2377       275.7500       271.2500       214.4400         2.9450      2605.2998         1.6000        33.9240        26.6520         0.1397      -999.2500
      2073.4000        -7.8877        56.0769       263.2180       209.3540        35.1318        13.9587      2601.9500        34.2900       260.7250        47.3620        50.1453       275.7500       273.4750       214.4800         3.0090      2604.5000         4.5500        33.8160        26.4280         0.1331      -999.2500
      2073.6000        -8.1585        55.9621       263.5670       209.5850        35.4057        13.9799      2604.3201        36.0450       261.5000        48.1094        52.2673       275.7500       271.7500       213.7600         3.0000      2602.7998         5.9500        34.4760        26.2240         0.1372      -999.2500
      2073.8000        -8.7618        55.8402       263.5560       209.8150        36.2205        14.0475      2606.6899        37.5450       261.5000        48.0651        55.9538       275.7500       271.7500       213.1600         3.0130      2604.7000         5.7500        40.8440        28.8120         0.1356      -999.2500
      2074.0000        -9.3720        55.6981       263.5440       210.0450        37.0354        14.1151      2609.0500        37.3800       261.5000        46.7983        54.5795       275.9750       273.3500       213.3200         3.1300      2608.0000         4.8000        41.5120        29.2480         0.1378      -999.2500
      2074.2000        -9.9767        55.5564       263.5330       210.2750        37.3226        14.1827      2611.4199        36.9450       261.5000        44.7332        50.0069       276.0500       273.5000       213.4800         3.1550      2612.5000         5.1000        37.3800        27.3880         0.1366      -999.2500
      2074.4000       -10.5783        55.7394       263.9300       210.3390        37.4609        14.2504      2613.8101        37.7550       261.5000        43.1549        47.4930       276.2500       273.5000       213.6400         3.1600      2612.1001         2.2000        39.5960        27.9520         0.1369      -999.2500
      2074.6000       -11.1799        56.9420       264.0220       209.8650        38.1379        14.1351      2616.2000        39.8250       261.7000        42.6413        47.6244       276.2500       271.9750       213.2800         3.1170      2618.2998         3.0500        39.4600        27.2560         0.1376      -999.2500
      2074.8000       -11.7815        58.1705       264.1130       208.6000        39.2148        14.2264      2621.6499        39.7050       261.7500        43.2345        47.5806       276.2500       272.0500       212.9200         3.1380      2621.8997         4.0500        39.2600        28.4000         0.1435      -999.2500
      2075.0000       -12.3831        61.5755       264.2050       205.8780        39.9912        14.4064      2628.6599        38.8350       261.8500        44.9811        46.7122       276.3500       272.6500       212.5600         3.2000      2622.1001         5.8500        39.2520        28.8840         0.1324      -999.2500
      2075.2000       -13.1384        65.8887       264.2960       200.8500        40.7479        14.8023      2664.5500        41.7450       261.8000        48.3315        45.3137       276.5000       270.5500       208.9600         3.1620      2618.7998         6.8500        37.1280        27.5000         0.1386      -999.2500
      2075.4000       -13.9417        70.5040       264.3870       196.3430        40.7088        14.5733      2692.8601        40.7100       261.7500        54.5795        46.1987       276.2500       271.5750       204.8000         2.9760      2626.2998         4.7000        30.8000        23.7080         0.1460      -999.2500
      2075.6000       -14.5116        75.8989       264.4790       194.7480        39.3538        14.0721      2702.8401        36.9750       261.7500        64.3621        57.0992       276.2500       270.2500       200.6400         3.2270      2650.2998         4.8500        20.0600        19.7040         0.1457      -999.2500
      2075.8000       -14.9283        80.1453       264.5700       198.6950        37.4049        13.5843      2688.7400        34.5000       261.5500        73.9656        79.4017       276.0500       270.2500       196.4800         3.8370      2680.6001         3.8500        17.1440        25.9640         0.1414      -999.2500
      2076.0000       -15.3316        74.9422       264.6620       202.6420        36.6726        14.2879      2656.8401        34.6950       261.5000        75.4102        89.3367       276.2500       273.3250       200.4800         4.2300      2705.2998         0.0500        20.6160        36.2080         0.1292      -999.2500
      2076.2000       -15.7349        67.6553       264.7530       206.5600        37.3427        15.6758      2624.8401        39.2400       261.5000        65.2574        72.4820       276.3000       270.2500       204.4800         4.2150      2707.6001        -4.1500        14.2760        31.3960         0.1297      -999.2500
      2076.4000       -16.1884        60.9828       264.8450       208.9260        39.4908        15.9756      2602.9700        41.9700       261.5000        53.7316        56.1087       276.0000       270.2500       216.0000         3.8930      2681.2000        -8.8000        11.8560        23.4440         0.1349      -999.2500
      2076.6000       -16.7305        55.3997       264.9360       211.2920        42.1352        16.2754      2586.9800        43.2600       261.7250        45.6068        47.1444       275.7500       271.7250       219.3200         3.4260      2629.7998       -14.7000        12.3320        25.1480         0.1651      -999.2500
      2076.8000       -17.2726        51.0869       265.0270       213.4350        43.9791        16.3666      2583.2400        45.2250       262.0000        41.4410        41.3266       276.0000       273.5000       220.4800         3.1380      2592.5000       -11.7500        12.0960        26.4960         0.1564      -999.2500
      2077.0000       -17.8357        49.1768       264.9660       212.8550        44.6493        16.3098      2577.6499        44.1000       262.0000        39.3215        37.3792       276.0000       272.4250       221.6400         3.0870      2586.8997        -8.4500        11.1800        23.1080         0.1619      -999.2500
      2077.2000       -17.9571        48.2553       264.6120       212.2760        45.0629        15.7421      2576.2000        41.4450       261.7500        38.0741        38.7106       275.7500       274.7250       222.2400         3.2960      2593.5000        -6.3500        11.2120        21.5680         0.1587      -999.2500
      2077.4000       -18.0242        47.8250       264.4490       211.6970        43.5500        15.2156      2581.9500        40.0650       261.5000        37.0706        40.8348       274.6000       270.2500       221.2000         3.3480      2584.8997        -5.3000        11.3600        24.5560         0.1631      -999.2500
      2077.6000       -18.0721        47.3985       264.5670       211.1180        44.1628        15.5824      2594.6001        43.5900       262.0250        36.3605        38.7463       274.8500       270.2500       220.3600         3.1160      2568.5000        -6.0500        10.6480        25.0280         0.1469      -999.2500
      2077.8000       -18.1047        44.1761       263.9290       210.6060        44.5716        15.6236      2598.0400        44.3100       262.5000        36.6294        36.9003       274.7500       271.5250       219.5200         3.0960      2581.2998        -3.2500        10.3840        24.4840         0.1495      -999.2500
