~Version Information
 VERS.      2.0                                  : CWLS Log ASCII Standard - VERSION 2.0
 SERV.      IHS Energy                           : IHS Energy
 WRAP.      NO                                   : One line per depth step

~Well Information
#MNEM.UNIT       DATA                            : DESCRIPTION
#----.----       ---------                       : -----------
 NULL.      -999.2500                            : Null Value
 STRT.M     283.0000                             : Start Depth
 STOP.M     2671.2000                            : Stop Depth
 STEP.M     0.2000                               : Depth Increment
 UWI .      100160407110W600                     : Unique Well ID
 CNTY.                                           : County
 COMP.      SUNCOR ENERGY INC.                   : Company
 CTRY.      CAN                                  : Country
 DATE.      1991-06-19                           : Log Date(s)
 FLD .      ELMWORTH                             : Field
 LIC .      0148772                              : License No
 LOC .      00/16-04-071-10W6/0                  : Location
 PROV.      ALBERTA                              : Province
 SON .                                           : Service Order No(s)
 WELL.      SUNCOR CDN HUNTER ELM 16-4-71-10     : Well Name

~Parameter Information
#MNEM.UNIT       DATA                            : DESCRIPTION
#----.----       ---------                       : -----------
 BASE.                                           : Logging Unit Home Base
 BOTL.M     2670.8000                            : Bottom of Logged Interval
 BS  .MM    0.0000                               : Bit Size
 CSGD.M     454.7000                             : Casing Bottom, Driller
 CSGL.M     454.5000                             : Casing Bottom, Logger
 CSGS.MM    0.0000                               : Casing Size (diameter)
 DIGS.      QCDATA                               : Digitizing Company
 DREF.M     KB                                   : Depth Reference
 EGL .M     726.1000                             : Elevation Ground Level
 EKB .M     731.5000                             : Elevation Kelly Bushing
 ENG .                                           : Recording Engineer
 EREF.M     731.5000                             : Elevation of Depth Reference
 RUN .                                           : Run Number
 SRVC.      SCHLUMBERGER CANADA LIMITED          : Service Company
 TDD .M     2680.0000                            : Total Depth, Driller
 TDL .M     2672.6000                            : Total Depth, Logger
 TIML.                                           : Date/Time Logger on Bottom
 TMAX.DEGC  0.0000                               : Max Temperature
 TOPL.M     454.0000                             : Top of Logged Interval
 UNIT.                                           : Unit Number
 WIT .                                           : Witnessed By

~tops
 PUSKWSK            509.5000
 CHINKSS            538.0000
 COLRAD             579.5000
 BADHRT             689.0000
 MUSKIKI            705.0000
 CARD               735.0000
 CARDSD             756.0000
 KASKAPAU           774.0000
 DUNVG              1211.0000
 SHAFTBR            1405.0000
 BFSC               1525.0000
 PADDY              1665.0000
 CADOTT             1685.0000
 HARMON             1708.0000
 NOTIK              1735.0000
 FALHASD            1787.0000
 FALHBSD            1805.0000
 FALHCSD            1835.0000
 FALHDSD            1880.0000
 FALHESD            1901.0000
 WILRICH            1984.0000
 BLUSKY             2065.0000
 GETH               2086.0000
 CADOMIN            2207.0000
 NIKANSN            2226.0000
 FERNIE             2348.0000
 NORD               2424.0000
 CHARLK             2442.0000
 HALFWY             2590.0000
 DOIG               2600.5000

~Other Information
Mnemonics commonly used by IHS Energy, LAS, Alberta EUB and LIS are used in this output file.

~Curve Information
# MNEM .UNIT        API CODE   : Curve Description
#----- .----      ------------ : -------------------
 DEPT  .M         00 001 00 00 : 1 DEPTH
 SP    .MV        07 010 01 00 : 2 SPONTANEOUS POTENTIAL
 ILD   .OHM.M     07 120 46 00 : 3 INDUCTION DEEP RESISTIVITY
 C1    .MM        45 280 01 00 : 4 
 DT    .US/M      60 520 00 00 : 5 DELTA-T COMPRESSIONAL
 GAM   .API       60 310 01 00 : 6 
 NPSS  .%         42 890 03 00 : 7 
 RHOB  .KG/M3     45 350 01 00 : 8 BULK DENSITY
 GR    .GAPI      60 310 01 00 : 9 
 CAX   .MM        42 280 01 00 : 10 
 ILM   .OHM.M     08 120 44 00 : 11 
 SFL   .OHM.M     08 220 01 00 : 12 
 CALS  .MM        60 280 03 00 : 13 
 CAY   .MM        42 280 02 00 : 14 
 AC    .US/M      60 520 00 00 : 15 ACQUISITION TRAVEL TIME
 PEF   .B/E       42 358 01 00 : 16 PHOTO-ELECTRIC FACTOR
 DEN   .KG/M3     42 350 01 00 : 17 BULK DENSITY
 DC    .KG/M3     42 356 01 00 : 18 DENSITY CORRECTION
 INV   .OHM.M     15 250 02 00 : 19 MICRO INVERSE 1 INCH
 NOR   .OHM.M     15 252 02 00 : 20 MICRO NORMAL
 POS   .V/V       42 890 03 00 : 21 
 POL   .V/V       42 890 01 00 : 22 
~A         DEPT             SP            ILD             C1             DT            GAM           NPSS           RHOB             GR            CAX            ILM            SFL           CALS            CAY             AC            PEF            DEN             DC            INV            NOR            POS            POL
# ...
       898.0000       -52.6037        13.8874       242.2590       293.0130        93.6185      -999.2500      -999.2500        93.8700       243.1250        13.2504        14.6228       275.2750       336.1500       285.8800      -999.2500      -999.2500      -999.2500      -999.2500      -999.2500      -999.2500      -999.2500
       898.2000       -53.0211        13.8071       242.2860       295.5560        92.9219      -999.2500      -999.2500        95.1000       243.0250        13.0686        14.2899       276.8500       341.3500       287.9600      -999.2500      -999.2500      -999.2500      -999.2500      -999.2500      -999.2500      -999.2500
       898.4000       -53.6014        13.7677       242.3130       294.9260        94.4385      -999.2500      -999.2500        90.0300       243.1000        12.8893        14.1981       274.9750       357.9500       288.4800      -999.2500      -999.2500      -999.2500      -999.2500      -999.2500      -999.2500      -999.2500
       898.6000       -54.1941        13.7685       242.8490       294.0590        96.0802      -999.2500      -999.2500        94.3350       243.0250        12.8656        14.0291       274.3250       336.0000       289.0000      -999.2500      -999.2500      -999.2500      -999.2500      -999.2500      -999.2500      -999.2500
       898.8000       -54.7299        13.7693       243.1430       292.9330        96.8055      -999.2500      -999.2500        99.3300       242.8750        13.0326        14.0291       270.2000       345.8250       288.7200      -999.2500      -999.2500      -999.2500      -999.2500      -999.2500      -999.2500      -999.2500
       899.0000       -55.2221        13.8596       243.1220       292.2360        95.5296      -999.2500      -999.2500        97.3650       242.6250        13.3854        14.5690       269.8750       347.7000       288.2400      -999.2500      -999.2500      -999.2500      -999.2500      -999.2500      -999.2500      -999.2500
       899.2000       -55.7143        13.9946       243.1010       292.5490        92.6914      -999.2500      -999.2500        89.6250       242.8250        13.6719        15.0602       270.1000       334.4250       287.7600      -999.2500      -999.2500      -999.2500      -999.2500      -999.2500      -999.2500      -999.2500
       899.4000       -56.2065        14.1310       243.0800       292.8970        92.6510      -999.2500      -999.2500        91.4550       242.6000        13.6593        14.9221       269.4500       341.2500       287.5200      -999.2500      -999.2500      -999.2500      -999.2500      -999.2500      -999.2500      -999.2500
       899.6000       -56.8461        14.2687       243.0590       293.2550        93.6302      -999.2500      -999.2500        96.0600       242.3750        13.5092        14.5154       272.7750       344.1250       287.3600      -999.2500      -999.2500      -999.2500      -999.2500      -999.2500      -999.2500      -999.2500
       899.8000       -57.5830        14.3828       243.0380       293.5080        91.7824      -999.2500      -999.2500        93.9000       242.5750        13.6342        14.8262       273.7500       356.5750       288.6800      -999.2500      -999.2500      -999.2500      -999.2500      -999.2500      -999.2500      -999.2500
       900.0000       -58.3199        14.4908       243.0170       292.7270        88.5422      -999.2500      -999.2500        90.4950       242.3000        14.0939        15.4821       273.8750       371.3000       286.4000      -999.2500      -999.2500      -999.2500      -999.2500      -999.2500      -999.2500      -999.2500
       900.2000       -59.0568        14.5996       242.9960       291.9450        85.7143      -999.2500      -999.2500        86.8200       242.4500        14.6363        16.0188       272.9500       349.5750       283.4800      -999.2500      -999.2500      -999.2500      -999.2500      -999.2500      -999.2500      -999.2500
       900.4000       -59.9362        14.7092       242.9750       291.1640        85.2689      -999.2500      -999.2500        84.4950       242.3750        14.9634        16.2716       268.8000       334.3500       283.0400      -999.2500      -999.2500      -999.2500      -999.2500      -999.2500      -999.2500      -999.2500
       900.6000       -60.1837        14.8196       242.9540       290.3830        85.7953      -999.2500      -999.2500        86.4300       242.5750        15.0048        16.3316       272.2750       336.9250       282.6000      -999.2500      -999.2500      -999.2500      -999.2500      -999.2500      -999.2500      -999.2500
       900.8000       -59.6686        14.8723       243.2980       289.6010        86.3218      -999.2500      -999.2500        86.7450       242.9500        14.9772        16.3316       276.9500       328.9250       281.2800      -999.2500      -999.2500      -999.2500      -999.2500      -999.2500      -999.2500      -999.2500
       901.0000       -59.8648        14.7211       244.1910       288.8200        88.4948      -999.2500      -999.2500        87.3150       243.0000        14.9496        16.6200       277.5000       326.3000       280.5600      -999.2500      -999.2500      -999.2500      -999.2500      -999.2500      -999.2500      -999.2500
       901.2000       -60.3655        14.8174       244.9370       288.3870        90.8444      -999.2500      -999.2500        91.3350       242.9000        14.8809        16.7429       277.5750       333.5000       281.8400      -999.2500      -999.2500      -999.2500      -999.2500      -999.2500      -999.2500      -999.2500
       901.4000       -60.8662        14.8725       245.2850       289.3120        91.3575      -999.2500      -999.2500        92.9100       243.0000        14.6768        16.1968       277.2250       336.8000       282.5200      -999.2500      -999.2500      -999.2500      -999.2500      -999.2500      -999.2500      -999.2500
       901.6000       -61.2105        14.9278       245.0080       290.2360        91.8706      -999.2500      -999.2500        95.9400       243.0000        14.3824        15.7845       277.0000       344.5250       283.1200      -999.2500      -999.2500      -999.2500      -999.2500      -999.2500      -999.2500      -999.2500
       901.8000       -61.3874        14.9834       244.7300       291.1600        91.6702      -999.2500      -999.2500        91.6800       243.0750        14.2243        15.4964       277.2500       349.4250       283.4000      -999.2500      -999.2500      -999.2500      -999.2500      -999.2500      -999.2500      -999.2500
       902.0000       -61.5643        15.0391       244.4530       291.9280        91.2477      -999.2500      -999.2500        93.7050       243.0000        14.2243        15.3684       275.6000       348.7250       283.4000      -999.2500      -999.2500      -999.2500      -999.2500      -999.2500      -999.2500      -999.2500
       902.2000       -61.7412        15.0875       244.0720       292.0400        89.9358      -999.2500      -999.2500        93.9600       242.8750        14.3031        15.4678       277.1250       353.1000       283.4000      -999.2500      -999.2500      -999.2500      -999.2500      -999.2500      -999.2500      -999.2500
       902.4000       -61.9181        15.1135       243.6630       292.1520        90.0848      -999.2500      -999.2500        87.7800       242.6500        14.3295        15.6110       272.0000       358.2250       284.1200      -999.2500      -999.2500      -999.2500      -999.2500      -999.2500      -999.2500      -999.2500
       902.6000       -61.6127        15.1396       243.5940       292.2650        89.9583      -999.2500      -999.2500        90.3450       242.6750        14.3691        15.5679       267.4500       365.7750       285.2000      -999.2500      -999.2500      -999.2500      -999.2500      -999.2500      -999.2500      -999.2500
       902.8000       -61.3028        15.1658       243.5990       292.3240        88.2904      -999.2500      -999.2500        93.9300       242.7250        14.5824        15.6398       267.2500       345.2500       283.7600      -999.2500      -999.2500      -999.2500      -999.2500      -999.2500      -999.2500      -999.2500
