~Version Information
 VERS.      2.0                                  : CWLS Log ASCII Standard - VERSION 2.0
 SERV.      IHS Energy                           : IHS Energy
 WRAP.      NO                                   : One line per depth step

~Well Information
#MNEM.UNIT       DATA                            : DESCRIPTION
#----.----       ---------                       : -----------
 NULL.      -999.2500                            : Null Value
 STRT.M     283.0000                             : Start Depth
 STOP.M     2671.2000                            : Stop Depth
 STEP.M     0.2000                               : Depth Increment
 UWI .      100160407110W600                     : Unique Well ID
 CNTY.                                           : County
 COMP.      SUNCOR ENERGY INC.                   : Company
 CTRY.      CAN                                  : Country
 DATE.      1991-06-19                           : Log Date(s)
 FLD .      ELMWORTH                             : Field
 LIC .      0148772                              : License No
 LOC .      00/16-04-071-10W6/0                  : Location
 PROV.      ALBERTA                              : Province
 SON .                                           : Service Order No(s)
 WELL.      SUNCOR CDN HUNTER ELM 16-4-71-10     : Well Name

~Parameter Information
#MNEM.UNIT       DATA                            : DESCRIPTION
#----.----       ---------                       : -----------
 BASE.                                           : Logging Unit Home Base
 BOTL.M     2670.8000                            : Bottom of Logged Interval
 BS  .MM    0.0000                               : Bit Size
 CSGD.M     454.7000                             : Casing Bottom, Driller
 CSGL.M     454.5000                             : Casing Bottom, Logger
 CSGS.MM    0.0000                               : Casing Size (diameter)
 DIGS.      QCDATA                               : Digitizing Company
 DREF.M     KB                                   : Depth Reference
 EGL .M     726.1000                             : Elevation Ground Level
 EKB .M     731.5000                             : Elevation Kelly Bushing
 ENG .                                           : Recording Engineer
 EREF.M     731.5000                             : Elevation of Depth Reference
 RUN .                                           : Run Number
 SRVC.      SCHLUMBERGER CANADA LIMITED          : Service Company
 TDD .M     2680.0000                            : Total Depth, Driller
 TDL .M     2672.6000                            : Total Depth, Logger
 TIML.                                           : Date/Time Logger on Bottom
 TMAX.DEGC  0.0000                               : Max Temperature
 TOPL.M     454.0000                             : Top of Logged Interval
 UNIT.                                           : Unit Number
 WIT .                                           : Witnessed By

~tops
 PUSKWSK            509.5000
 CHINKSS            538.0000
 COLRAD             579.5000
 BADHRT             689.0000
 MUSKIKI            705.0000
 CARD               735.0000
 CARDSD             756.0000
 KASKAPAU           774.0000
 DUNVG              1211.0000
 SHAFTBR            1405.0000
 BFSC               1525.0000
 PADDY              1665.0000
 CADOTT             1685.0000
 HARMON             1708.0000
 NOTIK              1735.0000
 FALHASD            1787.0000
 FALHBSD            1805.0000
 FALHCSD            1835.0000
 FALHDSD            1880.0000
 FALHESD            1901.0000
 WILRICH            1984.0000
 BLUSKY             2065.0000
 GETH               2086.0000
 CADOMIN            2207.0000
 NIKANSN            2226.0000
 FERNIE             2348.0000
 NORD               2424.0000
 CHARLK             2442.0000
 HALFWY             2590.0000
 DOIG               2600.5000

~Other Information
Mnemonics commonly used by IHS Energy, LAS, Alberta EUB and LIS are used in this output file.

~Curve Information
# MNEM .UNIT        API CODE   : Curve Description
#----- .----      ------------ : -------------------
 DEPT  .M         00 001 00 00 : 1 DEPTH
 SP    .MV        07 010 01 00 : 2 SPONTANEOUS POTENTIAL
 ILD   .OHM.M     07 120 46 00 : 3 INDUCTION DEEP RESISTIVITY
 C1    .MM        45 280 01 00 : 4 
 DT    .US/M      60 520 00 00 : 5 DELTA-T COMPRESSIONAL
 GAM   .API       60 310 01 00 : 6 
 NPSS  .%         42 890 03 00 : 7 
 RHOB  .KG/M3     45 350 01 00 : 8 BULK DENSITY
 GR    .GAPI      60 310 01 00 : 9 
 CAX   .MM        42 280 01 00 : 10 
 ILM   .OHM.M     08 120 44 00 : 11 
 SFL   .OHM.M     08 220 01 00 : 12 
 CALS  .MM        60 280 03 00 : 13 
 CAY   .MM        42 280 02 00 : 14 
 AC    .US/M      60 520 00 00 : 15 ACQUISITION TRAVEL TIME
 PEF   .B/E       42 358 01 00 : 16 PHOTO-ELECTRIC FACTOR
 DEN   .KG/M3     42 350 01 00 : 17 BULK DENSITY
 DC    .KG/M3     42 356 01 00 : 18 DENSITY CORRECTION
 INV   .OHM.M     15 250 02 00 : 19 MICRO INVERSE 1 INCH
 NOR   .OHM.M     15 252 02 00 : 20 MICRO NORMAL
 POS   .V/V       42 890 03 00 : 21 
 POL   .V/V       42 890 01 00 : 22 
~A         DEPT             SP            ILD             C1             DT            GAM           NPSS           RHOB             GR            CAX            ILM            SFL           CALS            CAY             AC            PEF            DEN             DC            INV            NOR            POS            POL
# ...
      2518.0000       -16.0702       253.5290       221.5900       170.7910        22.2456         8.0119      2703.6001        19.3650       221.5750      1016.3187       705.7159       241.3750       305.7500       165.9000         3.6920      2779.7000        -3.6000        22.8440        57.0800      -999.2500         0.0730
      2518.2000       -17.7476       782.6800       221.5530       171.7080        23.3927         8.4212      2693.1101        22.3800       221.5000      1949.0811       738.9753       240.9000       299.9750       166.6800         4.0360      2771.7998         1.0000        30.8720        31.9360      -999.2500         0.0726
      2518.4000       -19.3838      1533.2700       221.5150       172.6260        25.1520         9.0141      2679.5100        27.8550       221.5000      1286.5596       579.4686       242.7250       269.1500       168.1000         4.2130      2766.2000         4.1500        34.7880        38.3440      -999.2500         0.0688
      2518.6000       -20.9085      1886.6500       221.4770       172.0440        26.1225         9.2438      2662.3301        26.6700       221.5000       216.8852       469.2777       246.5250       264.2250       170.4400         3.9090      2748.8997         0.8000        54.5200        40.8120      -999.2500         0.0847
      2518.8000       -22.4333      1972.8000       221.4400       168.3280        26.4796         7.7815      2678.7900        27.0750       221.5500       177.4312       432.3445       245.3000       274.8750       173.9200         3.5390      2722.5000        -4.7000        57.4200        51.1000      -999.2500         0.0938
      2519.0000       -23.9580      1986.3101       221.4020       165.2550        26.5167         5.6903      2737.6101        27.7050       221.6250       469.2777       438.3590       242.4750       275.6000       172.1600         3.5590      2710.5000        -4.4000        39.7760        46.2520      -999.2500         0.0823
      2519.2000       -24.0528      1966.7200       221.3650       162.3970        24.7974         3.1260      2806.7200        28.9500       221.6250      1949.0811       648.3804       241.4500       266.9750       168.8400         4.0910      2730.7998        -1.9000        57.0040        52.8720      -999.2500         0.0617
      2519.4000       -23.5245      1943.5699       221.3270       162.3590        22.5866         3.0741      2838.4600        23.5500       221.9250      1949.0811      1908.2263       242.1000       246.6000       163.5800         4.5370      2795.1001         3.7000        47.7320        90.3560      -999.2500         0.0244
      2519.6000       -22.7530      1635.9500       221.2890       162.3200        22.8388         3.8103      2830.6001        19.9800       222.7250      1949.0811      4217.2554       242.3750       247.3750       161.4000         4.6880      2878.6001         7.7000        63.8800        61.5800      -999.2500         0.0137
      2519.8000       -21.5307       557.2630       221.2520       162.2820        24.9835         3.7914      2814.5100        22.9650       223.2500      1767.7869      3867.4961       242.6250       247.7250       160.4800         4.4850      2917.6001         6.5500        61.2240        64.7400      -999.2500         0.0241
      2520.0000       -20.3084       276.8130       221.2140       166.5000        30.0449         3.8118      2805.8701        25.4850       223.2500       376.9033      3405.8843       242.6250       250.3750       159.6800         4.6310      2884.6001        -0.3500        81.2000        70.1000      -999.2500         0.0367
      2520.2000       -19.0861       185.4610       221.1770       171.2520        38.7802         4.3105      2775.0400        28.2150       223.2500       261.7158      2867.0142       242.3250       250.3750       160.4000         4.5490      2863.6001        -0.3000        72.6080        77.7160      -999.2500         0.0325
      2520.4000       -17.8638       147.7670       221.1390       175.0450        55.8120         5.3140      2743.7500        41.1300       223.4750       279.9174       552.8788       238.6250       254.5500       165.5800         4.2290      2877.1001         4.2500        81.5840        79.2800      -999.2500         0.0333
      2520.6000       -16.6068       128.4600       221.1010       176.1910        67.0915         7.0915      2730.3301        61.9950       223.3250       272.0382       176.4534       238.6250       246.8000       171.5400         4.0420      2850.5000         6.1000        37.5760        42.4440      -999.2500         0.0365
      2520.8000       -15.3278       118.6470       221.4990       175.1350        59.8806         6.9225      2726.2500        71.4600       223.1500       194.1914       136.3421       238.6250       245.8750       176.1000         3.8140      2809.7998         3.6000        50.9720        37.1840      -999.2500         0.0672
      2521.0000       -14.2431       124.0940       221.0790       174.0790        55.5672         5.9251      2717.0601        63.1050       223.2250       130.4458       161.6702       238.6250       245.8750       173.3400         3.7570      2779.3997        -2.6000        56.4240        58.1400      -999.2500         0.0789
      2521.2000       -15.0527       129.7920       220.6600       173.0230        53.0377         5.3161      2709.4099        55.0500       223.1500       109.7059       175.9665       238.6250       244.7250       173.4800         4.1640      2792.5000        -2.4000        64.0240        61.8720      -999.2500         0.0519
      2521.4000       -15.9545       143.0400       220.2410       173.2260        52.3695         4.8882      2697.7300        52.8300       223.2500       112.5719       212.9266       238.7750       245.8750       173.7600         3.9290      2783.7000        -6.3000        59.2080        48.0160      -999.2500         0.0554
      2521.6000       -16.5655       155.1300       220.3300       173.9800        52.5634         4.7105      2681.6001        51.9900       223.2500       134.7193       308.9085       238.6250       242.9500       173.0200         3.4650      2765.5000       -11.4000        90.9280        90.4440      -999.2500         0.0482
      2521.8000       -16.8864       160.4070       220.5640       174.7340        53.9887         4.9262      2681.7900        53.6400       223.1500       168.5116       382.1465       238.6250       245.8750       172.2600         3.5640      2764.5000       -10.8000        72.9400        71.7640      -999.2500         0.0376
      2522.0000       -17.2073       159.2650       220.7980       175.4890        55.0956         5.2073      2705.3401        54.0150       223.2500       180.8964       348.5218       238.6250       245.8750       173.9200         3.4330      2756.7998       -10.1500        68.9360        63.6240      -999.2500         0.0419
      2522.2000       -16.8658       141.1180       221.0320       176.2430        55.4763         6.8132      2762.1899        55.9050       223.3500       158.4273       273.0423       238.6250       251.0750       174.9200         3.3830      2732.1001       -12.7500        67.4680        75.6520      -999.2500         0.0452
      2522.4000       -16.3653       144.1550       221.2660       176.2170        54.9358         5.4103      2855.1399        59.5500       223.5500       131.4105       183.5819       238.6250       245.8750       175.5600         3.5330      2734.5000        -9.3500        43.8960        69.3600      -999.2500         0.0434
      2522.6000       -15.8648       149.9050       221.5000       173.5240        46.7470         2.7788      2884.8601        52.0950       223.8750       124.4600       141.0685       238.6250       247.3500       176.3200         3.5470      2757.1001        -6.6000        26.4640        47.8080      -999.2500         0.0674
      2522.8000       -15.3929       144.8840       221.7340       170.3280        36.6410         3.1152      2858.4299        32.5950       223.8750       138.1115       192.4110       238.6250       247.6500       172.7400         3.9200      2805.7000        -5.8500        30.8320        59.2440      -999.2500         0.0617
