~Version Information
 VERS.      2.0                                  : CWLS Log ASCII Standard - VERSION 2.0
 SERV.      IHS Energy                           : IHS Energy
 WRAP.      NO                                   : One line per depth step

~Well Information
#MNEM.UNIT       DATA                            : DESCRIPTION
#----.----       ---------                       : -----------
 NULL.      -999.2500                            : Null Value
 STRT.M     283.0000                             : Start Depth
 STOP.M     2671.2000                            : Stop Depth
 STEP.M     0.2000                               : Depth Increment
 UWI .      100160407110W600                     : Unique Well ID
 CNTY.                                           : County
 COMP.      SUNCOR ENERGY INC.                   : Company
 CTRY.      CAN                                  : Country
 DATE.      1991-06-19                           : Log Date(s)
 FLD .      ELMWORTH                             : Field
 LIC .      0148772                              : License No
 LOC .      00/16-04-071-10W6/0                  : Location
 PROV.      ALBERTA                              : Province
 SON .                                           : Service Order No(s)
 WELL.      SUNCOR CDN HUNTER ELM 16-4-71-10     : Well Name

~Parameter Information
#MNEM.UNIT       DATA                            : DESCRIPTION
#----.----       ---------                       : -----------
 BASE.                                           : Logging Unit Home Base
 BOTL.M     2670.8000                            : Bottom of Logged Interval
 BS  .MM    0.0000                               : Bit Size
 CSGD.M     454.7000                             : Casing Bottom, Driller
 CSGL.M     454.5000                             : Casing Bottom, Logger
 CSGS.MM    0.0000                               : Casing Size (diameter)
 DIGS.      QCDATA                               : Digitizing Company
 DREF.M     KB                                   : Depth Reference
 EGL .M     726.1000                             : Elevation Ground Level
 EKB .M     731.5000                             : Elevation Kelly Bushing
 ENG .                                           : Recording Engineer
 EREF.M     731.5000                             : Elevation of Depth Reference
 RUN .                                           : Run Number
 SRVC.      SCHLUMBERGER CANADA LIMITED          : Service Company
 TDD .M     2680.0000                            : Total Depth, Driller
 TDL .M     2672.6000                            : Total Depth, Logger
 TIML.                                           : Date/Time Logger on Bottom
 TMAX.DEGC  0.0000                               : Max Temperature
 TOPL.M     454.0000                             : Top of Logged Interval
 UNIT.                                           : Unit Number
 WIT .                                           : Witnessed By

~tops
 PUSKWSK            509.5000
 CHINKSS            538.0000
 COLRAD             579.5000
 BADHRT             689.0000
 MUSKIKI            705.0000
 CARD               735.0000
 CARDSD             756.0000
 KASKAPAU           774.0000
 DUNVG              1211.0000
 SHAFTBR            1405.0000
 BFSC               1525.0000
 PADDY              1665.0000
 CADOTT             1685.0000
 HARMON             1708.0000
 NOTIK              1735.0000
 FALHASD            1787.0000
 FALHBSD            1805.0000
 FALHCSD            1835.0000
 FALHDSD            1880.0000
 FALHESD            1901.0000
 WILRICH            1984.0000
 BLUSKY             2065.0000
 GETH               2086.0000
 CADOMIN            2207.0000
 NIKANSN            2226.0000
 FERNIE             2348.0000
 NORD               2424.0000
 CHARLK             2442.0000
 HALFWY             2590.0000
 DOIG               2600.5000

~Other Information
Mnemonics commonly used by IHS Energy, LAS, Alberta EUB and LIS are used in this output file.

~Curve Information
# MNEM .UNIT        API CODE   : Curve Description
#----- .----      ------------ : -------------------
 DEPT  .M         00 001 00 00 : 1 DEPTH
 SP    .MV        07 010 01 00 : 2 SPONTANEOUS POTENTIAL
 ILD   .OHM.M     07 120 46 00 : 3 INDUCTION DEEP RESISTIVITY
 C1    .MM        45 280 01 00 : 4 
 DT    .US/M      60 520 00 00 : 5 DELTA-T COMPRESSIONAL
 GAM   .API       60 310 01 00 : 6 
 NPSS  .%         42 890 03 00 : 7 
 RHOB  .KG/M3     45 350 01 00 : 8 BULK DENSITY
 GR    .GAPI      60 310 01 00 : 9 
 CAX   .MM        42 280 01 00 : 10 
 ILM   .OHM.M     08 120 44 00 : 11 
 SFL   .OHM.M     08 220 01 00 : 12 
 CALS  .MM        60 280 03 00 : 13 
 CAY   .MM        42 280 02 00 : 14 
 AC    .US/M      60 520 00 00 : 15 ACQUISITION TRAVEL TIME
 PEF   .B/E       42 358 01 00 : 16 PHOTO-ELECTRIC FACTOR
 DEN   .KG/M3     42 350 01 00 : 17 BULK DENSITY
 DC    .KG/M3     42 356 01 00 : 18 DENSITY CORRECTION
 INV   .OHM.M     15 250 02 00 : 19 MICRO INVERSE 1 INCH
 NOR   .OHM.M     15 252 02 00 : 20 MICRO NORMAL
 POS   .V/V       42 890 03 00 : 21 
 POL   .V/V       42 890 01 00 : 22 
~A         DEPT             SP            ILD             C1             DT            GAM           NPSS           RHOB             GR            CAX            ILM            SFL           CALS            CAY             AC            PEF            DEN             DC            INV            NOR            POS            POL
# ...
       458.0000       -65.3806         9.1441       318.3740       349.9730        59.8944      -999.2500      -999.2500        56.9700       314.5500         5.8429         6.8585       394.0000       395.0000       347.0800      -999.2500      -999.2500      -999.2500      -999.2500      -999.2500      -999.2500      -999.2500
       458.2000       -65.4171         9.1421       309.5710       341.8300        62.7806      -999.2500      -999.2500        57.5100       308.0500         6.3129         6.7024       349.7500       386.4250       349.0800      -999.2500      -999.2500      -999.2500      -999.2500      -999.2500      -999.2500      -999.2500
       458.4000       -65.8329         9.1402       290.4780       333.6880        64.3517      -999.2500      -999.2500        61.9350       265.9750         7.7666         6.6532       312.2000       348.9250       338.4800      -999.2500      -999.2500      -999.2500      -999.2500      -999.2500      -999.2500      -999.2500
       458.6000       -66.2487         9.1382       262.0480       328.2600        63.4798      -999.2500      -999.2500        65.2200       252.3750         9.3375         7.1751       257.2500       334.4500       330.0000      -999.2500      -999.2500      -999.2500      -999.2500      -999.2500      -999.2500      -999.2500
       458.8000       -66.6645         9.1362       251.9370       326.8290        63.8293      -999.2500      -999.2500        61.6800       247.5000         9.2094         7.7309       257.2500       338.3000       321.0800      -999.2500      -999.2500      -999.2500      -999.2500      -999.2500      -999.2500      -999.2500
       459.0000       -67.0149         9.1343       247.7330       324.8740        64.5206      -999.2500      -999.2500        61.7250       245.9500         7.7096         7.6883       258.6500       308.1000       324.7600      -999.2500      -999.2500      -999.2500      -999.2500      -999.2500      -999.2500      -999.2500
       459.2000       -67.2653         9.1254       244.6950       322.2290        62.7701      -999.2500      -999.2500        65.8050       245.2250         6.5680         6.6901       261.7500       343.5000       330.1600      -999.2500      -999.2500      -999.2500      -999.2500      -999.2500      -999.2500      -999.2500
       459.4000       -67.5157         9.1130       247.3980       313.6910        59.6305      -999.2500      -999.2500        61.0650       244.5250         6.3890         5.8322       267.2500       346.2750       324.0400      -999.2500      -999.2500      -999.2500      -999.2500      -999.2500      -999.2500      -999.2500
       459.6000       -67.8144         8.9835       252.1770       305.1530        56.4175      -999.2500      -999.2500        54.8850       254.6750         7.0963         6.0510       293.6000       328.9000       313.8400      -999.2500      -999.2500      -999.2500      -999.2500      -999.2500      -999.2500      -999.2500
       459.8000       -68.2938         9.0917       258.7070       315.3530        56.0510      -999.2500      -999.2500        55.7250       269.6250         8.5237         7.8312       261.0000       305.1750       302.6400      -999.2500      -999.2500      -999.2500      -999.2500      -999.2500      -999.2500      -999.2500
       460.0000       -67.8156         9.1548       252.9100       325.3070        56.8243      -999.2500      -999.2500        57.4500       236.2500         9.4152        10.2667       264.2500       323.7500       311.6800      -999.2500      -999.2500      -999.2500      -999.2500      -999.2500      -999.2500      -999.2500
       460.2000       -67.8353         9.0651       241.3100       325.3790        57.3692      -999.2500      -999.2500        56.6700       236.5500         8.7545         9.0330       273.3250       352.7500       321.7200      -999.2500      -999.2500      -999.2500      -999.2500      -999.2500      -999.2500      -999.2500
       460.4000       -67.8551         8.9762       240.2300       325.4520        56.1772      -999.2500      -999.2500        54.3150       239.4750         7.4307         6.7333       277.2250       393.4000       335.2400      -999.2500      -999.2500      -999.2500      -999.2500      -999.2500      -999.2500      -999.2500
       460.6000       -67.8762         8.9170       242.6450       318.4380        57.6202      -999.2500      -999.2500        56.0850       249.6500         6.7333         5.9625       278.8250       386.0500       329.9600      -999.2500      -999.2500      -999.2500      -999.2500      -999.2500      -999.2500      -999.2500
       460.8000       -67.9466         8.8750       244.8860       310.2490        58.6707      -999.2500      -999.2500        58.4250       246.0250         6.6593         6.1183       279.2750       395.6500       321.8000      -999.2500      -999.2500      -999.2500      -999.2500      -999.2500      -999.2500      -999.2500
       461.0000       -68.0171         8.8332       247.1260       306.1430        57.7107      -999.2500      -999.2500        57.4650       247.6250         7.0118         6.3772       285.3500       396.6250       313.6400      -999.2500      -999.2500      -999.2500      -999.2500      -999.2500      -999.2500      -999.2500
       461.2000       -68.0875         8.8979       249.4750       305.1010        56.7776      -999.2500      -999.2500        53.8200       249.1500         7.6883         6.9796       292.9000       395.4250       305.4800      -999.2500      -999.2500      -999.2500      -999.2500      -999.2500      -999.2500      -999.2500
       461.4000       -68.1579         9.0357       250.0400       304.0600        55.8785      -999.2500      -999.2500        54.4500       252.2500         8.5631         8.2914       271.5250       369.2000       297.3200      -999.2500      -999.2500      -999.2500      -999.2500      -999.2500      -999.2500      -999.2500
       461.6000       -68.1208         9.2872       244.7570       308.0060        60.0898      -999.2500      -999.2500        59.0550       241.2000         9.3375         9.8589       257.1250       342.0500       292.4400      -999.2500      -999.2500      -999.2500      -999.2500      -999.2500      -999.2500      -999.2500
       461.8000       -68.0595         9.6041       241.0290       325.7310        62.1884      -999.2500      -999.2500        62.8050       238.6750         9.4326         9.6968       261.1000       330.5750       305.2800      -999.2500      -999.2500      -999.2500      -999.2500      -999.2500      -999.2500      -999.2500
       462.0000       -68.0235         9.6266       240.3570       325.1520        60.9993      -999.2500      -999.2500        61.7850       239.1750         8.8599         8.5631       264.6000       330.3250       314.4400      -999.2500      -999.2500      -999.2500      -999.2500      -999.2500      -999.2500      -999.2500
       462.2000       -68.0520         9.6384       239.8910       321.0770        58.0380      -999.2500      -999.2500        59.1900       241.0750         8.2154         7.3355       266.5000       342.9500       322.2400      -999.2500      -999.2500      -999.2500      -999.2500      -999.2500      -999.2500      -999.2500
       462.4000       -67.5825         9.6501       240.2900       311.7910        56.5757      -999.2500      -999.2500        55.5300       242.9250         7.9475         6.8838       265.8750       389.8750       320.4000      -999.2500      -999.2500      -999.2500      -999.2500      -999.2500      -999.2500      -999.2500
       462.6000       -67.4475         9.6521       240.6900       303.3050        55.6014      -999.2500      -999.2500        55.0950       243.3000         8.1251         7.4719       259.8750       371.9750       313.6400      -999.2500      -999.2500      -999.2500      -999.2500      -999.2500      -999.2500      -999.2500
       462.8000       -67.3126         9.6257       240.9330       295.5950        55.5804      -999.2500      -999.2500        55.4850       243.3250         8.5316         8.2382       262.7750       339.3250       306.8800      -999.2500      -999.2500      -999.2500      -999.2500      -999.2500      -999.2500      -999.2500
