~Version Information
 VERS.      2.0                                  : CWLS Log ASCII Standard - VERSION 2.0
 SERV.      IHS Energy                           : IHS Energy
 WRAP.      NO                                   : One line per depth step

~Well Information
#MNEM.UNIT       DATA                            : DESCRIPTION
#----.----       ---------                       : -----------
 NULL.      -999.2500                            : Null Value
 STRT.M     283.0000                             : Start Depth
 STOP.M     2671.2000                            : Stop Depth
 STEP.M     0.2000                               : Depth Increment
 UWI .      100160407110W600                     : Unique Well ID
 CNTY.                                           : County
 COMP.      SUNCOR ENERGY INC.                   : Company
 CTRY.      CAN                                  : Country
 DATE.      1991-06-19                           : Log Date(s)
 FLD .      ELMWORTH                             : Field
 LIC .      0148772                              : License No
 LOC .      00/16-04-071-10W6/0                  : Location
 PROV.      ALBERTA                              : Province
 SON .                                           : Service Order No(s)
 WELL.      SUNCOR CDN HUNTER ELM 16-4-71-10     : Well Name

~Parameter Information
#MNEM.UNIT       DATA                            : DESCRIPTION
#----.----       ---------                       : -----------
 BASE.                                           : Logging Unit Home Base
 BOTL.M     2670.8000                            : Bottom of Logged Interval
 BS  .MM    0.0000                               : Bit Size
 CSGD.M     454.7000                             : Casing Bottom, Driller
 CSGL.M     454.5000                             : Casing Bottom, Logger
 CSGS.MM    0.0000                               : Casing Size (diameter)
 DIGS.      QCDATA                               : Digitizing Company
 DREF.M     KB                                   : Depth Reference
 EGL .M     726.1000                             : Elevation Ground Level
 EKB .M     731.5000                             : Elevation Kelly Bushing
 ENG .                                           : Recording Engineer
 EREF.M     731.5000                             : Elevation of Depth Reference
 RUN .                                           : Run Number
 SRVC.      SCHLUMBERGER CANADA LIMITED          : Service Company
 TDD .M     2680.0000                            : Total Depth, Driller
 TDL .M     2672.6000                            : Total Depth, Logger
 TIML.                                           : Date/Time Logger on Bottom
 TMAX.DEGC  0.0000                               : Max Temperature
 TOPL.M     454.0000                             : Top of Logged Interval
 UNIT.                                           : Unit Number
 WIT .                                           : Witnessed By

~tops
 PUSKWSK            509.5000
 CHINKSS            538.0000
 COLRAD             579.5000
 BADHRT             689.0000
 MUSKIKI            705.0000
 CARD               735.0000
 CARDSD             756.0000
 KASKAPAU           774.0000
 DUNVG              1211.0000
 SHAFTBR            1405.0000
 BFSC               1525.0000
 PADDY              1665.0000
 CADOTT             1685.0000
 HARMON             1708.0000
 NOTIK              1735.0000
 FALHASD            1787.0000
 FALHBSD            1805.0000
 FALHCSD            1835.0000
 FALHDSD            1880.0000
 FALHESD            1901.0000
 WILRICH            1984.0000
 BLUSKY             2065.0000
 GETH               2086.0000
 CADOMIN            2207.0000
 NIKANSN            2226.0000
 FERNIE             2348.0000
 NORD               2424.0000
 CHARLK             2442.0000
 HALFWY             2590.0000
 DOIG               2600.5000

~Other Information
Mnemonics commonly used by IHS Energy, LAS, Alberta EUB and LIS are used in this output file.

~Curve Information
# MNEM .UNIT        API CODE   : Curve Description
#----- .----      ------------ : -------------------
 DEPT  .M         00 001 00 00 : 1 DEPTH
 SP    .MV        07 010 01 00 : 2 SPONTANEOUS POTENTIAL
 ILD   .OHM.M     07 120 46 00 : 3 INDUCTION DEEP RESISTIVITY
 C1    .MM        45 280 01 00 : 4 
 DT    .US/M      60 520 00 00 : 5 DELTA-T COMPRESSIONAL
 GAM   .API       60 310 01 00 : 6 
 NPSS  .%         42 890 03 00 : 7 
 RHOB  .KG/M3     45 350 01 00 : 8 BULK DENSITY
 GR    .GAPI      60 310 01 00 : 9 
 CAX   .MM        42 280 01 00 : 10 
 ILM   .OHM.M     08 120 44 00 : 11 
 SFL   .OHM.M     08 220 01 00 : 12 
 CALS  .MM        60 280 03 00 : 13 
 CAY   .MM        42 280 02 00 : 14 
 AC    .US/M      60 520 00 00 : 15 ACQUISITION TRAVEL TIME
 PEF   .B/E       42 358 01 00 : 16 PHOTO-ELECTRIC FACTOR
 DEN   .KG/M3     42 350 01 00 : 17 BULK DENSITY
 DC    .KG/M3     42 356 01 00 : 18 DENSITY CORRECTION
 INV   .OHM.M     15 250 02 00 : 19 MICRO INVERSE 1 INCH
 NOR   .OHM.M     15 252 02 00 : 20 MICRO NORMAL
 POS   .V/V       42 890 03 00 : 21 
 POL   .V/V       42 890 01 00 : 22 
~A         DEPT             SP            ILD             C1             DT            GAM           NPSS           RHOB             GR            CAX            ILM            SFL           CALS            CAY             AC            PEF            DEN             DC            INV            NOR            POS            POL
# ...
      1048.0000       -58.6416        14.3117       244.0370       281.9340        90.6106      -999.2500      -999.2500        88.5000       244.4500        14.1720        15.4678       271.8000       333.7500       278.4800      -999.2500      -999.2500      -999.2500      -999.2500      -999.2500      -999.2500      -999.2500
      1048.2000       -58.6750        14.3018       244.1200       281.1010        90.9016      -999.2500      -999.2500        93.5550       244.3750        14.1850        15.5392       270.2250       344.2000       277.1200      -999.2500      -999.2500      -999.2500      -999.2500      -999.2500      -999.2500      -999.2500
      1048.4000       -58.0728        14.2824       244.1280       282.1310        91.1925      -999.2500      -999.2500        92.9850       244.3250        14.2899        15.5106       272.8750       329.0000       276.0400      -999.2500      -999.2500      -999.2500      -999.2500      -999.2500      -999.2500      -999.2500
      1048.6000       -58.0573        14.2087       243.8640       283.4320        92.3815      -999.2500      -999.2500        92.6250       243.7250        14.4221        15.5966       269.6250       331.8750       277.3200      -999.2500      -999.2500      -999.2500      -999.2500      -999.2500      -999.2500      -999.2500
      1048.8000       -58.0418        14.0200       243.6800       284.7330        93.5977      -999.2500      -999.2500        93.3300       243.7000        14.4221        15.5679       268.3250       324.9000       278.6400      -999.2500      -999.2500      -999.2500      -999.2500      -999.2500      -999.2500      -999.2500
      1049.0000       -58.0263        13.9797       243.5470       285.5400        94.8139      -999.2500      -999.2500        93.7800       243.5500        14.1459        15.2697       268.4000       333.2500       279.9600      -999.2500      -999.2500      -999.2500      -999.2500      -999.2500      -999.2500      -999.2500
      1049.2000       -58.0108        13.9862       243.1660       284.0630        98.8651      -999.2500      -999.2500        97.6200       243.6000        13.8239        14.9910       270.4000       327.9500       280.9600      -999.2500      -999.2500      -999.2500      -999.2500      -999.2500      -999.2500      -999.2500
      1049.4000       -57.9953        14.0300       242.9530       282.5870        95.5179      -999.2500      -999.2500       102.6300       244.4250        13.7098        14.8126       270.5000       319.4750       281.4000      -999.2500      -999.2500      -999.2500      -999.2500      -999.2500      -999.2500      -999.2500
      1049.6000       -57.9798        14.3463       242.8840       281.1550        91.0351      -999.2500      -999.2500       100.9950       244.2500        13.9518        15.0186       266.2000       334.3500       281.4800      -999.2500      -999.2500      -999.2500      -999.2500      -999.2500      -999.2500      -999.2500
      1049.8000       -57.9644        14.6698       242.8160       280.6630        88.5751      -999.2500      -999.2500        96.0150       244.2500        14.3163        15.6254       265.6500       327.6750       274.8800      -999.2500      -999.2500      -999.2500      -999.2500      -999.2500      -999.2500      -999.2500
      1050.0000       -57.9489        15.0006       243.3530       280.1710        87.5115      -999.2500      -999.2500        90.7650       244.0500        14.5556        16.0188       266.0000       329.0000       275.4800      -999.2500      -999.2500      -999.2500      -999.2500      -999.2500      -999.2500      -999.2500
      1050.2000       -57.9334        15.2823       243.8910       279.6790        86.6846      -999.2500      -999.2500        90.3600       243.1250        14.6632        15.7845       273.0000       332.3250       277.0400      -999.2500      -999.2500      -999.2500      -999.2500      -999.2500      -999.2500      -999.2500
      1050.4000       -57.9179        15.5437       244.4290       280.1840        85.8478      -999.2500      -999.2500        90.2850       243.5000        14.7989        15.7264       273.0000       340.7500       278.3600      -999.2500      -999.2500      -999.2500      -999.2500      -999.2500      -999.2500      -999.2500
      1050.6000       -58.0018        15.7417       244.9300       281.3860        84.9847      -999.2500      -999.2500        89.6250       243.9250        14.9221        16.1968       273.0000       349.6000       277.8400      -999.2500      -999.2500      -999.2500      -999.2500      -999.2500      -999.2500      -999.2500
      1050.8000       -58.1074        15.8012       245.2460       281.5040        85.4041      -999.2500      -999.2500        86.7300       244.1000        14.8946        16.6047       273.0000       346.0750       275.6000      -999.2500      -999.2500      -999.2500      -999.2500      -999.2500      -999.2500      -999.2500
      1051.0000       -58.2129        15.8610       245.5620       279.9240        88.3636      -999.2500      -999.2500        85.9350       244.0000        14.7989        16.1819       273.0000       352.0250       274.2400      -999.2500      -999.2500      -999.2500      -999.2500      -999.2500      -999.2500      -999.2500
      1051.2000       -58.2862        15.9209       245.8970       277.3160        93.7546      -999.2500      -999.2500        90.0750       244.6250        14.7989        16.0779       273.1500       329.3750       276.0800      -999.2500      -999.2500      -999.2500      -999.2500      -999.2500      -999.2500      -999.2500
      1051.4000       -58.1501        15.9458       246.4950       277.4430        96.4901      -999.2500      -999.2500        98.4900       244.8750        14.8946        16.2716       273.0000       323.9500       277.2000      -999.2500      -999.2500      -999.2500      -999.2500      -999.2500      -999.2500      -999.2500
      1051.6000       -58.0140        15.9620       247.0930       277.5740        91.6224      -999.2500      -999.2500        99.8850       245.0000        14.9084        16.2267       273.0500       339.2000       275.5600      -999.2500      -999.2500      -999.2500      -999.2500      -999.2500      -999.2500      -999.2500
      1051.8000       -57.8779        15.8676       247.6910       277.7160        86.8663      -999.2500      -999.2500        93.1200       245.0500        14.9084        16.0631       272.3500       333.5000       276.0400      -999.2500      -999.2500      -999.2500      -999.2500      -999.2500      -999.2500      -999.2500
      1052.0000       -57.9738        15.7254       247.7720       277.8570        86.3528      -999.2500      -999.2500        85.4250       245.3250        15.0325        16.2716       271.1250       341.7000       277.0400      -999.2500      -999.2500      -999.2500      -999.2500      -999.2500      -999.2500      -999.2500
      1052.2000       -58.1425        15.4278       247.6510       277.9990        88.1611      -999.2500      -999.2500        87.3000       245.2250        15.1158        16.6813       272.8250       315.0250       276.5600      -999.2500      -999.2500      -999.2500      -999.2500      -999.2500      -999.2500      -999.2500
      1052.4000       -58.4875        15.1236       247.5300       278.1410        90.3303      -999.2500      -999.2500        90.3750       244.5500        14.8946        16.6047       273.5000       331.4750       275.9600      -999.2500      -999.2500      -999.2500      -999.2500      -999.2500      -999.2500      -999.2500
      1052.6000       -58.5434        14.9669       247.4090       278.0580        92.4994      -999.2500      -999.2500        92.6850       244.6000        14.4354        15.9746       272.5000       343.9250       275.5600      -999.2500      -999.2500      -999.2500      -999.2500      -999.2500      -999.2500      -999.2500
      1052.8000       -58.5994        14.9441       247.3070       277.7430        90.8909      -999.2500      -999.2500        96.8850       244.6750        14.1850        15.5392       274.9000       341.6750       275.7200      -999.2500      -999.2500      -999.2500      -999.2500      -999.2500      -999.2500      -999.2500
