~VERSION INFORMATION
VERS.                               2.00: CWLS LOG ASCII STANDARD VERSION 2.00
WRAP.                               NO  : ONE LINE PER DEPTH STEP               
~WELL INFORMATION
#MNEM.UNIT                     DATA TYPE  INFORMATION
#----------------------------------------------------------------------
STRT.F                            273.00: START DEPTH
STOP.F                           8759.00: STOP DEPTH
STEP.F                              0.50: STEP VALUE
NULL.                            -999.00: NULL VALUE
COMP.                         CONOCO INC: COMPANY                               
WELL.                         ASTOSCH #1: WELL                                  
FLD .            Mid Grd Shoal/Trdng Bay: FIELD                                 
LOC .        10N  13W    3 1300FNL 50FEL: LOCATION                              
CNTY.                              KENAI: COUNTY                                
STAT.                             Alaska: STATE                                 
CTRY.                                 US: COUNTRY                               
SRVC.                                   : SERVICE COMPANY                       
DATE.                                   : LOG DATE                              
API .                   50133204260000  : UNIQUE WELL IDENTIFIER                
~PARAMETER INFORMATION                                                          
#MNEM.UNIT        VALUE   DESCRIPTION                                           
#---------      --------  -----------                                           
ELEV    .F           22.0: KB ELEVATION                                         
TDD     .F         8715.0: TOTAL DEPTH DRILLED                                  
~OTHER INFORMATION                                                              
LGD0    .          2/1/91                                                       
MT0     .          PHPA POLYMER                                                 
LGD0    .          2/13/91                                                      
MT0     .          LOW SOLIDS                                                   
LGD0    .          3/6/91                                                       
MT0     .          LOW SOLIDS                                                   
~CURVE INFORMATION                                                              
#MNEM.UNIT                 DESCRIPTION                                          
#---------                 -----------                                          
DEPTH   .F               :  1 DEPTH
IDPH    .OHMM          00:  2 INDUCTION DB PHASOR                             
IMPH    .OHMM          00:  3 INDUCTION MEDIUM PHASOR                         
ILD     .OHMM          00:  4 INDUCTION LOG DEEP                              
ILM     .OHMM          00:  5 INDUCTION LOG MEDIUM                            
SFL     .OHMM          00:  6 SPHER. OR SHAL. FOC. LOG                        
CAL1    .IN            00:  7 CALIPER                                         
SP      .MV            00:  8 SELF POTENTIAL                                  
GR      .GAPI          00:  9 GAMMA RAY                                       
TENS    .LB            00: 10 TENSION                                         
TEMP    .DEGF          00: 11 CALC TEMP CURVE                                 
DPHI    .V/V           00: 12 DENSITY POROSITY                                
RHOB    .G/C3          00: 13 BULK DENSITY                                    
DRHO    .G/C3          00: 14 DENSITY CORRECTN                                
PEF     .B/E           00: 15 FOTO ELECTRO. XSCT                              
CALI    .IN            00: 16 CALIPER                                         
CNS     .%             00: 17 COMPENSATED NEUT (-S)                           
DT      .US/F          00: 18 INTERV TRANSIT TIME                             
DTL     .US/F          00: 19 INTERV TRANSIT TIME LONG                        
DTL1    .US/F          00: 20 INTERV TRANSIT TIME LONG                        
MSFL    .OHMM          00: 21 MICROSPHERIC. FOC. LOG                          
~A  DEPTH    IDPH       IMPH       ILD        ILM        SFL        CAL1       SP         GR         TENS       TEMP       DPHI       RHOB       DRHO       PEF        CALI       CNS        DT         DTL        DTL1       MSFL                            
# ...
   955.500   -999.000   -999.000   15.78906   15.25000   14.42187   12.51562   -52.8125   53.15625   206.8750   73.59688   0.280540   2.187109   0.005549   2.816406   12.65625   49.76720   171.1000   152.4000   148.8000   15.85937 
   956.000   -999.000   -999.000   16.51563   15.77344   14.65625   12.50000   -53.1250   52.03125   205.0000   73.68126   0.276799   2.193281   0.004984   2.927734   12.64062   45.65526   170.3000   170.9000   146.3000   17.06250 
   956.500   -999.000   -999.000   17.31250   16.51563   14.85156   12.48437   -53.1250   53.62500   205.0000   73.65314   0.275139   2.196021   0.006251   2.978516   12.62500   46.95282   170.3000   168.3000   145.8000   17.67188 
   957.000   -999.000   -999.000   18.00000   17.39063   15.20312   12.46094   -53.1250   52.59375   208.7500   73.68126   0.274193   2.197581   0.003156   2.972656   12.62500   48.42928   167.5000   167.4000   147.0000   16.53125 
   957.500   -999.000   -999.000   18.59375   18.15625   15.85156   12.45312   -53.8125   52.34375   206.2500   73.65314   0.278439   2.190576   -.004836   2.884766   12.49219   49.26991   165.2000   166.6000   147.5000   17.51563 
   958.000   -999.000   -999.000   19.10938   18.64063   16.59375   12.46094   -53.8438   52.03125   205.0000   73.59688   0.277769   2.191681   -.007339   2.867188   12.50781   46.14983   164.6000   166.3000   146.2000   18.59375 
   958.500   -999.000   -999.000   19.56250   18.92188   17.20313   12.46875   -51.7813   50.12500   205.0000   73.56876   0.273598   2.198563   -.006571   2.882813   12.53906   45.19848   165.3000   165.8000   143.2000   17.89063 
   959.000   -999.000   -999.000   19.92188   19.10938   17.35938   12.52344   -52.0938   50.12500   208.7500   73.56876   0.277658   2.191864   -.009383   2.941406   12.63281   43.79654   165.0000   164.2000   140.8000   17.73438 
   959.500   -999.000   -999.000   20.14063   19.23438   17.17188   12.57812   -53.9063   47.37500   206.2500   73.54063   0.277195   2.192628   -.006376   2.929688   12.62500   44.51070   165.0000   164.3000   141.9000   18.14063 
   960.000   -999.000   -999.000   20.21875   19.26563   16.98438   12.57812   -53.9375   49.56250   203.7500   73.45625   0.274766   2.196636   -.000728   2.929688   12.62500   43.88180   165.1000   164.7000   142.0000   17.70313 
   960.500   -999.000   -999.000   20.18750   19.12500   16.84375   12.56250   -53.5938   53.28125   205.0000   73.54063   0.273389   2.198907   0.000361   2.972656   12.65625   43.46803   165.7000   165.5000   143.4000   17.85938 
   961.000   -999.000   -999.000   20.14063   18.81250   16.62500   12.59375   -53.6875   54.09375   208.7500   73.54063   0.274121   2.197700   0.013833   3.244141   12.65625   42.62114   165.3000   165.9000   143.9000   18.15625 
   961.500   -999.000   -999.000   20.09375   18.57813   16.37500   12.74219   -54.1563   53.90625   206.2500   73.45625   0.278864   2.189874   0.042491   3.367188   12.65625   42.21173   165.6000   166.4000   144.2000   18.40625 
   962.000   -999.000   -999.000   20.17188   18.51563   16.09375   12.86719   -52.4688   50.50000   203.7500   73.45625   0.285763   2.178490   0.057002   3.552734   12.83594   43.56065   166.1000   168.0000   145.3000   18.95313 
   962.500   -999.000   -999.000   20.45313   18.68750   16.04688   13.07812   -54.4688   50.50000   203.1250   73.42813   0.280311   2.187488   0.060057   3.367188   13.17969   45.34126   166.9000   168.0000   146.4000   17.92188 
   963.000   -999.000   -999.000   20.87500   19.25000   16.28125   13.20312   -55.0938   51.43750   203.7500   73.51251   0.265947   2.211187   0.061448   3.205078   13.42969   46.55666   167.2000   167.5000   147.6000   17.34375 
   963.500   -999.000   -999.000   21.29688   20.09375   16.87500   13.23437   -53.9688   50.31250   206.2500   73.54063   0.264099   2.214237   0.034505   3.041016   13.48437   46.27065   166.1000   165.9000   147.3000   16.71875 
   964.000   -999.000   -999.000   21.73438   21.03125   17.95313   13.32812   -56.1875   48.53125   203.7500   73.48438   0.277113   2.192763   0.007421   2.876953   13.48437   44.98201   164.2000   164.0000   146.6000   17.67188 
   964.500   -999.000   -999.000   22.20313   21.79688   19.21875   13.39844   -55.6875   45.81250   203.1250   73.54063   0.279013   2.189629   -.002220   2.849609   13.48437   43.55888   164.1000   163.7000   145.4000   17.53125 
   965.000   -999.000   -999.000   22.75000   22.25000   20.35938   13.50000   -55.9688   46.18750   203.7500   73.54063   0.279988   2.188020   -.006947   2.792969   13.59375   41.50370   163.3000   163.2000   144.5000   18.09375 
   965.500   -999.000   -999.000   23.40625   22.42188   20.68750   13.58594   -55.6875   50.15625   204.3750   73.54063   0.270468   2.203728   -.005730   2.902344   13.64062   42.15927   163.5000   163.2000   145.1000   19.85938 
   966.000   -999.000   -999.000   24.20313   22.62500   19.95313   13.34375   -55.7188   52.96875   203.7500   73.56876   0.259786   2.221354   -.001993   2.941406   13.57812   43.07736   163.8000   162.2000   145.6000   21.65625 
   966.500   -999.000   -999.000   25.01563   23.10938   19.14063   13.04687   -56.0625   53.21875   203.1250   73.59688   0.256203   2.227264   0.000649   2.953125   13.32031   44.87856   163.7000   162.2000   146.4000   21.71875 
   967.000   -999.000   -999.000   25.68750   23.82813   19.25000   12.81250   -56.7500   49.46875   203.7500   73.59688   0.265825   2.211389   -.004448   2.902344   13.03125   43.57285   163.8000   162.8000   145.5000   22.20313 
   967.500   -999.000   -999.000   26.18750   24.53125   20.46875   12.83594   -59.4063   45.71875   204.3750   73.59688   0.270680   2.203378   -.003874   2.894531   12.98437   41.83279   164.4000   162.8000   145.6000   19.34375 
   968.000   -999.000   -999.000   26.68750   25.15625   21.93750   12.93750   -58.7500   42.78125   204.3750   73.54063   0.273926   2.198021   -.003933   2.949219   13.10156   40.62112   164.6000   163.4000   144.5000   20.75000 
   968.500   -999.000   -999.000   27.31250   25.89063   22.87500   13.03125   -57.2500   43.21875   203.1250   73.56876   0.275669   2.195147   -.007688   3.066406   13.15625   41.11378   164.5000   164.1000   143.6000   21.64063 
   969.000   -999.000   -999.000   28.06250   26.71875   23.50000   13.11719   -56.6250   42.03125   203.7500   73.62500   0.277074   2.192828   -.011106   3.046875   13.21875   44.20974   164.4000   164.0000   144.7000   21.76563 
   969.500   -999.000   -999.000   28.82813   27.43750   24.06250   13.20312   -58.5000   42.03125   204.3750   73.79376   0.273805   2.198221   -.005394   3.058594   13.31250   43.16940   165.7000   165.2000   144.7000   22.37500 
   970.000   -999.000   -999.000   29.51563   27.98438   24.21875   13.24219   -58.0000   40.46875   204.3750   73.68126   0.272742   2.199976   -.001901   3.033203   13.31250   44.17328   165.8000   164.8000   144.2000   21.89063 
   970.500   -999.000   -999.000   30.01563   28.39063   24.04688   13.21094   -57.6250   42.18750   208.1250   73.56876   0.274286   2.197428   -.002182   3.136719   13.31250   42.89479   166.2000   163.9000   144.3000   22.06250 
   971.000   -999.000   -999.000   30.32813   28.65625   23.81250   13.08594   -58.6250   44.09375   206.2500   73.65314   0.269958   2.204568   0.000024   3.218750   13.16406   42.98919   166.5000   163.6000   143.7000   22.51563 
   971.500   -999.000   -999.000   30.50000   28.82813   23.73438   13.07812   -58.6563   45.00000   204.3750   73.62500   0.268208   2.207456   0.000822   3.275391   13.15625   41.04970   166.1000   164.3000   143.3000   21.51563 
   972.000   -999.000   -999.000   30.65625   28.93750   23.68750   13.00000   -59.5625   43.81250   204.3750   73.59688   0.267230   2.209071   0.002409   3.189453   13.15625   38.57010   166.6000   164.3000   144.2000   20.62500 
   972.500   -999.000   -999.000   30.81250   29.07813   23.84375   13.03125   -60.0313   44.43750   208.1250   73.56876   0.275098   2.196087   0.000376   3.001953   13.15625   41.19344   167.6000   165.0000   144.2000   20.96875 
