~VERSION INFORMATION
VERS.                               2.00: CWLS LOG ASCII STANDARD VERSION 2.00
WRAP.                               NO  : ONE LINE PER DEPTH STEP               
~WELL INFORMATION
#MNEM.UNIT                     DATA TYPE  INFORMATION
#----------------------------------------------------------------------
STRT.F                            273.00: START DEPTH
STOP.F                           8759.00: STOP DEPTH
STEP.F                              0.50: STEP VALUE
NULL.                            -999.00: NULL VALUE
COMP.                         CONOCO INC: COMPANY                               
WELL.                         ASTOSCH #1: WELL                                  
FLD .            Mid Grd Shoal/Trdng Bay: FIELD                                 
LOC .        10N  13W    3 1300FNL 50FEL: LOCATION                              
CNTY.                              KENAI: COUNTY                                
STAT.                             Alaska: STATE                                 
CTRY.                                 US: COUNTRY                               
SRVC.                                   : SERVICE COMPANY                       
DATE.                                   : LOG DATE                              
API .                   50133204260000  : UNIQUE WELL IDENTIFIER                
~PARAMETER INFORMATION                                                          
#MNEM.UNIT        VALUE   DESCRIPTION                                           
#---------      --------  -----------                                           
ELEV    .F           22.0: KB ELEVATION                                         
TDD     .F         8715.0: TOTAL DEPTH DRILLED                                  
~OTHER INFORMATION                                                              
LGD0    .          2/1/91                                                       
MT0     .          PHPA POLYMER                                                 
LGD0    .          2/13/91                                                      
MT0     .          LOW SOLIDS                                                   
LGD0    .          3/6/91                                                       
MT0     .          LOW SOLIDS                                                   
~CURVE INFORMATION                                                              
#MNEM.UNIT                 DESCRIPTION                                          
#---------                 -----------                                          
DEPTH   .F               :  1 DEPTH
IDPH    .OHMM          00:  2 INDUCTION DB PHASOR                             
IMPH    .OHMM          00:  3 INDUCTION MEDIUM PHASOR                         
ILD     .OHMM          00:  4 INDUCTION LOG DEEP                              
ILM     .OHMM          00:  5 INDUCTION LOG MEDIUM                            
SFL     .OHMM          00:  6 SPHER. OR SHAL. FOC. LOG                        
CAL1    .IN            00:  7 CALIPER                                         
SP      .MV            00:  8 SELF POTENTIAL                                  
GR      .GAPI          00:  9 GAMMA RAY                                       
TENS    .LB            00: 10 TENSION                                         
TEMP    .DEGF          00: 11 CALC TEMP CURVE                                 
DPHI    .V/V           00: 12 DENSITY POROSITY                                
RHOB    .G/C3          00: 13 BULK DENSITY                                    
DRHO    .G/C3          00: 14 DENSITY CORRECTN                                
PEF     .B/E           00: 15 FOTO ELECTRO. XSCT                              
CALI    .IN            00: 16 CALIPER                                         
CNS     .%             00: 17 COMPENSATED NEUT (-S)                           
DT      .US/F          00: 18 INTERV TRANSIT TIME                             
DTL     .US/F          00: 19 INTERV TRANSIT TIME LONG                        
DTL1    .US/F          00: 20 INTERV TRANSIT TIME LONG                        
MSFL    .OHMM          00: 21 MICROSPHERIC. FOC. LOG                          
~A  DEPTH    IDPH       IMPH       ILD        ILM        SFL        CAL1       SP         GR         TENS       TEMP       DPHI       RHOB       DRHO       PEF        CALI       CNS        DT         DTL        DTL1       MSFL                            
# ...
  5908.000   4.765625   5.125000   4.707031   5.054687   5.203125   8.710938   -43.9688   85.93750   4615.000   133.7563   0.113334   2.462999   0.000463   2.927734   8.890625   32.76055   86.50000   87.50000   85.70001   6.366211 
  5908.500   4.593750   4.945312   4.527344   4.820312   4.960937   8.812500   -45.3750   85.00000   4610.000   133.8125   0.124902   2.443912   -.000679   2.849609   8.890625   33.15920   87.30000   89.00000   87.30002   5.911133 
  5909.000   4.480469   4.796875   4.417969   4.679687   4.691406   9.234375   -28.5625   79.68750   4645.000   133.8125   0.123560   2.446126   0.005615   2.759766   8.843750   32.01472   88.39999   88.09999   85.70000   6.810547 
  5909.500   4.425781   4.699219   4.382812   4.660156   4.511719   8.531250   -47.9688   81.06250   4615.000   133.8125   0.123999   2.445402   0.008863   2.824219   8.578125   32.10184   90.89999   89.60001   87.50002   8.183594 
  5910.000   4.441406   4.695312   4.441406   4.710937   4.644531   8.601563   -53.3125   76.12500   4630.000   133.5875   0.130166   2.435225   0.011232   3.039063   8.625000   31.95035   91.29999   91.69998   88.80000   6.639160 
  5910.500   4.417969   4.820312   4.453125   4.964844   5.242187   9.085938   -57.4063   70.87500   4625.000   133.5875   0.137112   2.423765   0.013094   3.091797   8.578125   32.73860   87.10001   87.60001   86.30000   9.855469 
  5911.000   4.289062   5.066406   4.328125   5.367187   7.511719   9.187500   -61.3125   58.65625   4630.000   133.8125   0.153955   2.395974   0.013653   3.101563   8.562500   32.41727   83.20000   81.60001   81.00003   11.21875 
  5911.500   4.101562   5.320312   4.136719   5.492187   13.11719   8.898438   -65.5625   48.62500   4620.000   133.8125   0.162767   2.381434   0.011143   2.792969   8.570313   28.46441   75.00000   74.39999   72.29999   8.636719 
  5912.000   3.867188   5.371094   3.876953   5.105469   17.85938   8.523438   -69.6875   45.34375   4630.000   133.7563   0.161752   2.383110   0.005817   2.798828   8.593750   21.64991   70.90001   70.70000   71.29999   28.39063 
  5912.500   3.623047   5.054687   3.611328   4.539062   15.28125   8.523438   -74.3750   48.21875   4650.000   133.8125   0.121751   2.449111   0.013176   2.845703   8.562500   16.81134   74.20000   75.00000   72.40001   47.78125 
  5913.000   3.437500   4.476562   3.425781   4.039062   10.47656   8.523438   -78.0625   49.84375   4650.000   133.8125   0.088054   2.504712   0.014070   2.759766   8.414063   16.26075   82.30002   83.80002   82.90001   30.56250 
  5913.500   3.263672   3.886719   3.248047   3.652344   8.070313   8.546875   -81.1875   51.37500   4645.000   133.8125   0.098330   2.487755   0.009022   2.636719   8.398438   19.24861   92.30000   92.00000   91.20001   23.21875 
  5914.000   3.070313   3.439453   3.029297   3.376953   7.253906   8.578125   -84.1875   50.06250   4645.000   133.7563   0.142635   2.414652   0.001788   2.568359   8.398438   22.01599   96.80000   95.70000   95.09999   20.06250 
  5914.500   2.917969   3.169922   2.853516   3.244141   7.328125   8.578125   -86.5000   51.59375   4670.000   133.7563   0.185466   2.343981   0.002531   2.533203   8.398438   24.57494   97.10001   97.20000   96.60001   18.06250 
  5915.000   2.822266   3.056641   2.744141   3.193359   8.054688   8.578125   -88.1250   52.40625   4655.000   133.8125   0.216996   2.291956   0.004534   2.621094   8.398438   26.35235   96.79999   96.70000   95.20003   18.37695 
  5915.500   2.789063   3.066406   2.708984   3.187500   9.148438   8.578125   -89.1875   50.15625   4650.000   133.8125   0.227856   2.274038   0.011042   2.582031   8.398438   26.31667   95.70000   95.59999   92.79999   19.04346 
  5916.000   2.828125   3.166016   2.755859   3.251953   10.00781   8.593750   -89.8125   47.43750   4645.000   133.7563   0.229787   2.270851   0.016752   2.521484   8.398438   25.03400   94.09999   93.39999   90.00000   20.17383 
  5916.500   2.929688   3.333984   2.875000   3.369141   10.48437   8.578125   -90.6250   42.87500   4645.000   133.8125   0.218993   2.288661   0.022117   2.308594   8.382813   23.37863   92.80000   92.39999   89.70003   21.29004 
  5917.000   3.082031   3.546875   3.050781   3.546875   10.70312   8.531250   -92.0000   43.84375   4630.000   133.8125   0.206102   2.309931   0.024287   2.201172   8.382813   22.29680   93.20000   92.00002   88.70001   23.68750 
  5917.500   3.257813   3.806641   3.250000   3.818359   11.08594   8.492188   -91.6250   41.40625   4665.000   133.8687   0.188775   2.338521   0.025566   2.226563   8.375000   22.29658   92.60001   91.70001   90.70003   19.84375 
  5918.000   3.441406   4.109375   3.445313   4.144531   11.87500   8.484375   -91.3125   42.84375   4630.000   133.8687   0.174087   2.362757   0.024792   2.296875   8.375000   22.31638   92.00002   91.20000   88.50003   21.15430 
  5918.500   3.646484   4.460937   3.666016   4.496094   13.27344   8.414063   -91.0000   40.96875   4660.000   133.8125   0.163457   2.380295   0.030118   2.382813   8.351563   22.39771   91.00002   89.90001   88.70000   23.67822 
  5919.000   3.841797   4.832031   3.871094   4.804687   15.11719   8.359375   -90.6875   41.71875   4625.000   133.8125   0.161781   2.383062   0.028889   2.417969   8.375000   20.69595   88.00000   87.39999   84.60002   24.57813 
  5919.500   4.000000   5.160156   4.023437   5.046875   16.50000   8.312500   -65.1875   41.53125   4655.000   133.8687   0.162180   2.382403   0.021695   2.435547   8.335938   18.66610   86.00000   85.70001   82.39998   33.77344 
  5920.000   4.117187   5.375000   4.136719   5.160156   16.07813   8.289063   -91.0625   42.93750   4605.000   133.8687   0.159644   2.386587   0.014408   2.488281   8.343750   17.34247   84.70000   84.59999   80.59999   32.78320 
  5920.500   4.214844   5.437500   4.234375   5.195312   14.47656   8.320313   -89.8125   45.31250   4620.000   133.7563   0.153207   2.397208   0.011118   2.484375   8.375000   16.18509   84.80000   84.39999   81.09999   30.32129 
  5921.000   4.261719   5.367187   4.281250   5.199219   12.97656   8.304688   -89.5000   45.09375   4640.000   133.7563   0.147993   2.405811   0.009322   2.587891   8.382813   16.60942   85.70000   85.10001   80.20001   46.37500 
  5921.500   4.261719   5.222656   4.273437   5.132812   12.45312   8.304688   -89.4375   44.96875   4630.000   133.8125   0.149543   2.403255   0.010106   2.474609   8.398438   17.61303   85.59999   84.40001   81.79999   22.21875 
  5922.000   4.230469   5.070312   4.218750   5.019531   12.94531   8.304688   -89.8125   46.06250   4630.000   133.8125   0.156372   2.391986   0.014015   2.541016   8.398438   18.95085   86.00000   85.10001   81.40001   23.15625 
  5922.500   4.187500   4.953125   4.156250   4.957031   13.67969   8.328125   -89.5000   44.21875   4635.000   133.7563   0.160921   2.384480   0.019354   2.427734   8.398438   19.17323   85.30000   84.70000   83.20001   23.25391 
  5923.000   4.175781   4.878906   4.132812   4.906250   13.85937   8.335938   -89.5625   42.00000   4625.000   133.7563   0.159456   2.386897   0.025652   2.464844   8.398438   18.82793   85.30000   84.90001   83.09999   27.36719 
  5923.500   4.191406   4.863281   4.136719   4.878906   13.54687   8.375000   -89.6250   40.71875   4625.000   133.8125   0.152702   2.398041   0.025245   2.392578   8.398438   18.33974   86.39999   86.00000   83.60001   32.27344 
  5924.000   4.234375   4.894531   4.175781   4.890625   12.81250   8.445313   -88.9375   43.06250   4630.000   133.8125   0.149733   2.402940   0.024464   2.382813   8.398438   18.82701   87.30000   87.00000   84.90001   29.27344 
  5924.500   4.308594   4.968750   4.253906   4.960937   12.52344   8.492188   -89.7500   47.12500   4635.000   133.8125   0.149441   2.403422   0.025005   2.435547   8.398438   19.28301   87.50000   87.50002   84.49998   27.21875 
  5925.000   4.425781   5.093750   4.371094   5.085937   12.78906   8.492188   -89.5625   48.78125   4660.000   133.8125   0.158137   2.389073   0.017187   2.382813   8.398438   19.94907   87.90001   87.30000   83.00002   25.01953 
