~VERSION INFORMATION
VERS.                               2.00: CWLS LOG ASCII STANDARD VERSION 2.00
WRAP.                               NO  : ONE LINE PER DEPTH STEP               
~WELL INFORMATION
#MNEM.UNIT                     DATA TYPE  INFORMATION
#----------------------------------------------------------------------
STRT.F                            273.00: START DEPTH
STOP.F                           8759.00: STOP DEPTH
STEP.F                              0.50: STEP VALUE
NULL.                            -999.00: NULL VALUE
COMP.                         CONOCO INC: COMPANY                               
WELL.                         ASTOSCH #1: WELL                                  
FLD .            Mid Grd Shoal/Trdng Bay: FIELD                                 
LOC .        10N  13W    3 1300FNL 50FEL: LOCATION                              
CNTY.                              KENAI: COUNTY                                
STAT.                             Alaska: STATE                                 
CTRY.                                 US: COUNTRY                               
SRVC.                                   : SERVICE COMPANY                       
DATE.                                   : LOG DATE                              
API .                   50133204260000  : UNIQUE WELL IDENTIFIER                
~PARAMETER INFORMATION                                                          
#MNEM.UNIT        VALUE   DESCRIPTION                                           
#---------      --------  -----------                                           
ELEV    .F           22.0: KB ELEVATION                                         
TDD     .F         8715.0: TOTAL DEPTH DRILLED                                  
~OTHER INFORMATION                                                              
LGD0    .          2/1/91                                                       
MT0     .          PHPA POLYMER                                                 
LGD0    .          2/13/91                                                      
MT0     .          LOW SOLIDS                                                   
LGD0    .          3/6/91                                                       
MT0     .          LOW SOLIDS                                                   
~CURVE INFORMATION                                                              
#MNEM.UNIT                 DESCRIPTION                                          
#---------                 -----------                                          
DEPTH   .F               :  1 DEPTH
IDPH    .OHMM          00:  2 INDUCTION DB PHASOR                             
IMPH    .OHMM          00:  3 INDUCTION MEDIUM PHASOR                         
ILD     .OHMM          00:  4 INDUCTION LOG DEEP                              
ILM     .OHMM          00:  5 INDUCTION LOG MEDIUM                            
SFL     .OHMM          00:  6 SPHER. OR SHAL. FOC. LOG                        
CAL1    .IN            00:  7 CALIPER                                         
SP      .MV            00:  8 SELF POTENTIAL                                  
GR      .GAPI          00:  9 GAMMA RAY                                       
TENS    .LB            00: 10 TENSION                                         
TEMP    .DEGF          00: 11 CALC TEMP CURVE                                 
DPHI    .V/V           00: 12 DENSITY POROSITY                                
RHOB    .G/C3          00: 13 BULK DENSITY                                    
DRHO    .G/C3          00: 14 DENSITY CORRECTN                                
PEF     .B/E           00: 15 FOTO ELECTRO. XSCT                              
CALI    .IN            00: 16 CALIPER                                         
CNS     .%             00: 17 COMPENSATED NEUT (-S)                           
DT      .US/F          00: 18 INTERV TRANSIT TIME                             
DTL     .US/F          00: 19 INTERV TRANSIT TIME LONG                        
DTL1    .US/F          00: 20 INTERV TRANSIT TIME LONG                        
MSFL    .OHMM          00: 21 MICROSPHERIC. FOC. LOG                          
~A  DEPTH    IDPH       IMPH       ILD        ILM        SFL        CAL1       SP         GR         TENS       TEMP       DPHI       RHOB       DRHO       PEF        CALI       CNS        DT         DTL        DTL1       MSFL                            
# ...
  6468.000   1.766602   2.048828   1.708008   2.033203   9.976563   8.273438   -108.188   50.43750   4810.000   137.2437   0.215815   2.293905   0.014627   2.576172   8.398438   27.76542   98.39998   96.29999   94.40001   24.23438 
  6468.500   1.746094   1.981445   1.688477   2.023438   9.734375   8.273438   -109.375   51.15625   4825.000   137.1875   0.203693   2.313907   0.013490   2.562500   8.398438   25.55191   97.10001   95.60001   93.40001   19.88672 
  6469.000   1.736328   1.978516   1.680664   2.054688   10.31250   8.273438   -106.063   51.03125   4795.000   137.1313   0.185382   2.344121   0.012515   2.474609   8.398438   23.75108   94.20000   93.29999   92.70003   19.05713 
  6469.500   1.734375   2.031250   1.679688   2.109375   11.89062   8.273438   -70.5625   49.34375   4800.000   137.1875   0.180302   2.352501   0.007970   2.533203   8.398438   23.30527   93.00000   91.70000   90.10001   19.30469 
  6470.000   1.742188   2.121094   1.689453   2.167969   13.46094   8.273438   -111.813   44.46875   4815.000   137.1875   0.182447   2.348963   0.007311   2.439453   8.398438   24.81106   92.80000   91.89999   91.60001   23.47656 
  6470.500   1.755859   2.210938   1.705078   2.201172   13.80469   8.273438   -112.313   42.50000   4770.000   137.2437   0.200910   2.318498   0.001077   2.505859   8.398438   25.25873   94.80000   93.70000   94.00000   29.93164 
  6471.000   1.779297   2.265625   1.729492   2.197266   12.77344   8.273438   -113.375   45.15625   4815.000   137.2437   0.216794   2.292290   -.000415   2.460938   8.398438   26.05329   97.70000   95.00000   95.40001   32.13281 
  6471.500   1.817383   2.269531   1.770508   2.179688   11.33594   8.289063   -113.313   45.75000   4800.000   137.2437   0.228239   2.273406   -.004684   2.560547   8.398438   25.81327   98.59999   94.40001   93.50000   29.31787 
  6472.000   1.857422   2.236328   1.809570   2.164063   10.60937   8.304688   -113.688   44.96875   4805.000   137.2437   0.225873   2.277309   -.002778   2.640625   8.398438   26.23858   95.79999   96.39999   93.59999   28.35938 
  6472.500   1.896484   2.203125   1.842773   2.173828   10.21094   8.304688   -114.750   44.75000   4790.000   137.2437   0.213223   2.298183   -.001904   2.580078   8.398438   25.46711   97.09999   94.50000   93.00002   23.01758 
  6473.000   1.948242   2.203125   1.889648   2.228516   10.35156   8.304688   -114.438   46.81250   4800.000   137.3000   0.192973   2.331595   0.004724   2.533203   8.406250   23.39466   95.49998   94.90001   93.20000   21.34766 
  6473.500   2.017578   2.257813   1.958008   2.333984   10.86719   8.304688   -114.438   49.15625   4800.000   137.3000   0.171712   2.366675   0.005422   2.556641   8.398438   20.98966   94.30002   94.40001   93.00002   22.11523 
  6474.000   2.119141   2.378906   2.068359   2.455078   12.14844   8.304688   -114.813   48.40625   4855.000   137.1875   0.155411   2.393571   0.011968   2.582031   8.398438   18.94970   92.40001   91.20001   92.30002   22.29883 
  6474.500   2.250000   2.578125   2.218750   2.642578   14.99219   8.304688   -113.375   46.84375   4805.000   137.1875   0.150613   2.401488   0.012385   2.630859   8.406250   18.08371   90.40001   85.40001   85.00000   23.88477 
  6475.000   2.412109   2.853516   2.408203   2.966797   17.62500   8.304688   -113.188   46.18750   4815.000   137.1313   0.146623   2.408072   0.010744   2.519531   8.398438   17.41875   87.60001   84.19998   87.10002   31.39063 
  6475.500   2.572266   3.189453   2.591797   3.271484   19.14063   8.312500   -112.500   44.62500   4790.000   137.1313   0.138592   2.421324   0.012834   2.474609   8.398438   17.48454   85.39999   83.29999   86.60002   36.99829 
  6476.000   2.728516   3.523438   2.765625   3.441406   20.10938   8.335938   -113.188   44.12500   4820.000   137.2437   0.130086   2.435359   0.014664   2.429688   8.414063   17.52243   83.59999   83.60001   81.40001   32.16406 
  6476.500   2.861328   3.761719   2.898438   3.531250   20.12500   8.343750   -103.688   39.62500   4805.000   137.2437   0.138049   2.422219   0.012783   2.443359   8.523438   19.30526   79.59999   82.60001   83.20001   37.20313 
  6477.000   2.984375   3.837891   3.007813   3.562500   18.53125   8.375000   -81.8750   38.68750   4825.000   137.2437   0.159877   2.386203   0.007986   2.521484   8.562500   20.32970   84.89999   85.90001   86.49998   59.34375 
  6477.500   3.121094   3.798828   3.134766   3.570313   16.12500   8.390625   -115.625   37.96875   4815.000   137.3000   0.168990   2.371166   0.003418   2.585938   8.429688   18.67416   91.20000   90.80000   89.60001   41.18750 
  6478.000   3.304688   3.771484   3.324219   3.656250   14.00781   8.429688   -115.188   39.06250   4795.000   137.3563   0.153403   2.396885   -.000541   2.669922   8.398438   13.74091   84.50000   87.20000   85.60001   49.37500 
  6478.500   3.500000   3.875000   3.541016   3.986328   14.46094   8.398438   -116.750   36.59375   4850.000   137.3000   0.099061   2.486549   0.008763   2.962891   8.398438   9.322950   75.79999   76.20000   76.70001   36.21875 
  6479.000   3.685547   4.214844   3.765625   4.605469   21.39063   8.335938   -117.813   38.46875   4810.000   137.2437   0.043180   2.578753   0.009650   3.191406   8.398438   7.845116   67.10001   64.39999   62.90001   26.86816 
  6479.500   3.835938   4.875000   3.962891   5.457031   42.31250   8.375000   -117.563   39.37500   4785.000   137.3000   0.008434   2.636084   0.012774   3.560547   8.328125   7.140109   56.50001   54.59999   54.00000   33.92188 
  6480.000   3.865234   5.863281   4.027344   6.167969   89.81250   8.398438   -114.563   42.46875   4795.000   137.3563   -.008589   2.664172   0.020045   3.773438   8.265625   7.148627   53.60001   53.39999   54.40001   298.0000 
  6480.500   3.744141   6.843750   3.921875   6.472656   170.2500   8.359375   -114.500   41.06250   4830.000   137.2437   -.013488   2.672256   0.028393   3.634766   8.281250   8.576914   53.59999   55.60001   53.59999   289.5000 
  6481.000   3.500000   6.996094   3.666016   6.140625   230.1250   8.335938   -113.563   39.50000   4820.000   137.2437   0.017120   2.621751   0.020523   3.134766   8.304688   12.28011   51.20000   56.60000   52.20000   500.0000 
  6481.500   3.130859   5.957031   3.240234   4.949219   201.8750   8.335938   -112.750   39.68750   4820.000   137.3000   0.067670   2.538344   0.021076   2.855469   8.281250   18.86717   61.30000   62.30000   62.89999   801.7500 
  6482.000   2.732422   4.519531   2.769531   3.794922   66.68750   8.335938   -112.875   38.00000   4805.000   137.3000   0.146130   2.408885   0.012853   2.703125   8.234375   23.64021   74.89999   72.59999   72.70000   1001.000 
  6482.500   2.398438   3.371094   2.380859   2.990234   22.56250   8.335938   -112.813   37.56250   4825.000   137.3000   0.198360   2.322706   0.008485   2.650391   8.304688   26.69975   83.19998   81.20000   81.70001   1165.500 
  6483.000   2.126953   2.625000   2.068359   2.451172   11.15625   8.335938   -105.625   36.15625   4815.000   137.3000   0.224469   2.279626   0.009282   2.556641   8.312500   25.73682   91.39999   93.60001   89.20000   82.00000 
  6483.500   1.931641   2.181641   1.846680   2.134766   8.656250   8.335938   -113.813   37.81250   4810.000   137.1875   0.220030   2.286951   0.011348   2.566406   8.328125   25.63613   92.40001   92.19998   88.70001   24.46094 
  6484.000   1.810547   1.946289   1.714844   1.999023   8.242188   8.335938   -113.375   39.68750   4785.000   137.1875   0.207591   2.307476   0.013536   2.582031   8.304688   24.49081   91.39999   89.39998   87.59999   23.72363 
  6484.500   1.740234   1.850586   1.641602   1.953125   8.601563   8.312500   -112.625   40.46875   4825.000   137.3000   0.202424   2.316001   0.011643   2.644531   8.234375   25.14919   90.39999   89.89999   85.90001   25.00781 
  6485.000   1.707031   1.854492   1.607422   1.950195   9.546875   8.304688   -111.625   41.28125   4810.000   137.3000   0.207742   2.307226   0.009985   2.642578   8.234375   24.09366   91.00000   89.89999   86.50002   23.03296 
