~VERSION INFORMATION
VERS.                               2.00: CWLS LOG ASCII STANDARD VERSION 2.00
WRAP.                               NO  : ONE LINE PER DEPTH STEP               
~WELL INFORMATION
#MNEM.UNIT                     DATA TYPE  INFORMATION
#----------------------------------------------------------------------
STRT.F                            273.00: START DEPTH
STOP.F                           8759.00: STOP DEPTH
STEP.F                              0.50: STEP VALUE
NULL.                            -999.00: NULL VALUE
COMP.                         CONOCO INC: COMPANY                               
WELL.                         ASTOSCH #1: WELL                                  
FLD .            Mid Grd Shoal/Trdng Bay: FIELD                                 
LOC .        10N  13W    3 1300FNL 50FEL: LOCATION                              
CNTY.                              KENAI: COUNTY                                
STAT.                             Alaska: STATE                                 
CTRY.                                 US: COUNTRY                               
SRVC.                                   : SERVICE COMPANY                       
DATE.                                   : LOG DATE                              
API .                   50133204260000  : UNIQUE WELL IDENTIFIER                
~PARAMETER INFORMATION                                                          
#MNEM.UNIT        VALUE   DESCRIPTION                                           
#---------      --------  -----------                                           
ELEV    .F           22.0: KB ELEVATION                                         
TDD     .F         8715.0: TOTAL DEPTH DRILLED                                  
~OTHER INFORMATION                                                              
LGD0    .          2/1/91                                                       
MT0     .          PHPA POLYMER                                                 
LGD0    .          2/13/91                                                      
MT0     .          LOW SOLIDS                                                   
LGD0    .          3/6/91                                                       
MT0     .          LOW SOLIDS                                                   
~CURVE INFORMATION                                                              
#MNEM.UNIT                 DESCRIPTION                                          
#---------                 -----------                                          
DEPTH   .F               :  1 DEPTH
IDPH    .OHMM          00:  2 INDUCTION DB PHASOR                             
IMPH    .OHMM          00:  3 INDUCTION MEDIUM PHASOR                         
ILD     .OHMM          00:  4 INDUCTION LOG DEEP                              
ILM     .OHMM          00:  5 INDUCTION LOG MEDIUM                            
SFL     .OHMM          00:  6 SPHER. OR SHAL. FOC. LOG                        
CAL1    .IN            00:  7 CALIPER                                         
SP      .MV            00:  8 SELF POTENTIAL                                  
GR      .GAPI          00:  9 GAMMA RAY                                       
TENS    .LB            00: 10 TENSION                                         
TEMP    .DEGF          00: 11 CALC TEMP CURVE                                 
DPHI    .V/V           00: 12 DENSITY POROSITY                                
RHOB    .G/C3          00: 13 BULK DENSITY                                    
DRHO    .G/C3          00: 14 DENSITY CORRECTN                                
PEF     .B/E           00: 15 FOTO ELECTRO. XSCT                              
CALI    .IN            00: 16 CALIPER                                         
CNS     .%             00: 17 COMPENSATED NEUT (-S)                           
DT      .US/F          00: 18 INTERV TRANSIT TIME                             
DTL     .US/F          00: 19 INTERV TRANSIT TIME LONG                        
DTL1    .US/F          00: 20 INTERV TRANSIT TIME LONG                        
MSFL    .OHMM          00: 21 MICROSPHERIC. FOC. LOG                          
~A  DEPTH    IDPH       IMPH       ILD        ILM        SFL        CAL1       SP         GR         TENS       TEMP       DPHI       RHOB       DRHO       PEF        CALI       CNS        DT         DTL        DTL1       MSFL                            
# ...
  8113.000   9.523438   12.12500   9.015625   11.78906   40.43750   8.414063   -60.8125   43.18750   5475.000   146.0188   0.050163   2.567231   0.059287   2.683594   8.757813   11.03209   64.50000   65.39999   63.90001   73.50781 
  8113.500   9.343750   11.83594   8.882813   11.47656   39.78125   8.429688   -61.7188   44.93750   5515.000   146.0188   0.067522   2.538588   0.021671   2.701172   8.742188   10.01648   67.70000   66.99998   65.80002   75.03125 
  8114.000   9.117188   11.63281   8.718750   11.29687   36.18750   8.460938   -62.6875   48.12500   5495.000   146.0750   0.068632   2.536758   0.024010   2.917969   8.601563   9.981182   66.59999   66.20001   64.30000   99.05469 
  8114.500   8.828125   11.47656   8.484375   11.17187   31.93750   8.437500   -63.9688   53.68750   5450.000   146.0750   0.069213   2.535799   0.025017   3.009766   8.562500   10.83706   65.30000   63.60001   62.80000   91.65625 
  8115.000   8.476563   11.25781   8.179688   10.90625   27.12500   8.429688   -64.8125   53.96875   5410.000   145.9625   0.070782   2.533209   0.027285   3.140625   8.562500   12.54478   63.30000   61.30000   60.40001   72.87500 
  8115.500   8.109375   10.89844   7.855469   10.35156   23.32813   8.429688   -66.5000   52.96875   5285.000   145.9625   0.068979   2.536185   0.032661   3.298828   8.492188   14.75369   60.20000   58.70000   58.70000   75.28125 
  8116.000   7.722656   10.34375   7.519531   9.726563   21.29688   8.429688   -68.4375   51.90625   5470.000   146.1313   0.077355   2.522365   0.034375   3.328125   8.398438   17.13145   60.80000   59.70001   57.50000   60.56250 
  8116.500   7.320312   9.664063   7.167969   9.140625   20.48438   8.429688   -70.6250   55.59375   5695.000   146.1313   0.107119   2.473254   0.029041   3.388672   8.398438   18.62031   63.89999   61.90000   59.89999   53.37500 
  8117.000   6.898437   8.968750   6.777344   8.656250   20.21875   8.445313   -71.9375   58.90625   5790.000   146.0750   0.129665   2.436052   0.030417   3.312500   8.398438   18.98349   67.10001   65.10001   64.20001   32.32031 
  8117.500   6.480469   8.320313   6.382812   8.140625   20.32813   8.460938   -74.0625   55.46875   5705.000   146.0750   0.147837   2.406069   0.028068   3.353516   8.398438   18.46245   70.70000   68.39999   68.00000   32.65771 
  8118.000   6.085937   7.726562   6.000000   7.535156   21.09375   8.515625   -75.7500   49.00000   5625.000   146.1313   0.141928   2.415818   0.036470   3.269531   8.398438   17.76183   74.00000   73.09999   72.50002   31.34766 
  8118.500   5.734375   7.171875   5.664062   6.957031   22.32813   8.578125   -76.8125   46.59375   5520.000   146.1313   0.138039   2.422235   0.039363   3.222656   8.398438   17.38755   74.30000   74.20001   75.09999   31.37109 
  8119.000   5.433594   6.667969   5.371094   6.468750   23.32813   8.578125   -78.0625   48.00000   5515.000   146.0750   0.132911   2.430696   0.036107   3.025391   8.398438   16.77418   74.39999   73.80000   74.00000   33.05859 
  8119.500   5.187500   6.242187   5.136719   6.109375   23.70313   8.609375   -78.6875   49.40625   5500.000   145.9625   0.122303   2.448200   0.032713   3.033203   8.398438   16.45533   74.50000   73.20001   69.99998   34.22461 
  8120.000   4.976562   5.917969   4.933594   5.890625   23.59375   8.601563   -79.9375   46.46875   5500.000   146.0188   0.109790   2.468847   0.030839   2.953125   8.398438   15.88483   73.70000   73.30000   69.79999   44.20313 
  8120.500   4.800781   5.703125   4.761719   5.734375   23.60938   8.562500   -80.5625   40.93750   5465.000   146.1313   0.106189   2.474788   0.023957   3.070313   8.398438   15.46916   72.59999   73.00000   70.60001   41.66797 
  8121.000   4.644531   5.585937   4.601562   5.628906   23.93750   8.421875   -80.6875   45.15625   5520.000   146.1313   0.109663   2.469056   0.018029   3.105469   8.304688   15.35280   73.50000   73.10001   70.29999   49.28125 
  8121.500   4.527344   5.535156   4.488281   5.550781   24.42188   8.289063   -81.0625   47.62500   5540.000   146.1875   0.112997   2.463555   0.020716   3.085938   8.265625   15.88598   73.29999   72.30000   70.50002   44.17969 
  8122.000   4.441406   5.511719   4.406250   5.492187   24.64063   8.164063   -81.2500   53.56250   5465.000   146.0750   0.121691   2.449209   0.014946   2.980469   8.234375   16.77412   73.70000   73.89999   71.09999   42.17188 
  8122.500   4.375000   5.496094   4.343750   5.437500   24.37500   8.132813   -81.5000   49.34375   5475.000   146.0188   0.129375   2.436531   0.011185   2.888672   8.234375   17.01796   74.39999   77.79999   70.80000   39.17969 
  8123.000   4.328125   5.460937   4.296875   5.378906   23.85938   8.132813   -81.5000   47.71875   5495.000   146.0188   0.124831   2.444029   0.010004   2.851563   8.234375   16.75361   74.50000   75.89999   70.50000   38.62500 
  8123.500   4.300781   5.406250   4.273437   5.316406   23.28125   8.132813   -81.1875   43.50000   5485.000   146.0750   0.121011   2.450331   0.008870   2.865234   8.234375   16.48369   74.20000   75.30000   70.50000   36.49219 
  8124.000   4.292969   5.351562   4.269531   5.277344   22.54688   8.140625   -81.1250   42.93750   5440.000   146.1875   0.114698   2.460749   0.005601   2.822266   8.234375   16.76678   74.09999   74.20000   69.89999   31.71875 
  8124.500   4.289062   5.312500   4.273437   5.289062   21.92188   8.132813   -80.6250   48.87500   5500.000   146.1313   0.116937   2.457054   0.006119   2.775391   8.242188   17.10002   73.39999   73.39999   70.09999   32.21094 
  8125.000   4.292969   5.308594   4.277344   5.320312   21.51563   8.140625   -80.5625   49.90625   5475.000   146.1313   0.114895   2.460423   0.008484   2.708984   8.242188   17.25640   73.39999   74.50000   70.70001   33.78516 
  8125.500   4.296875   5.339844   4.285156   5.351562   21.18750   8.156250   -80.6250   49.28125   5495.000   145.9062   0.125183   2.443448   0.005967   2.707031   8.242188   17.23029   75.70000   77.10001   73.50000   32.96094 
  8126.000   4.312500   5.398437   4.296875   5.386719   21.23438   8.093750   -80.3125   45.93750   5445.000   145.9062   0.127612   2.439440   0.006018   2.804688   8.242188   16.98729   76.09999   77.90001   74.00002   35.42578 
  8126.500   4.332031   5.468750   4.320312   5.433594   21.57813   7.988281   -79.7500   47.93750   5485.000   145.9625   0.135196   2.426927   0.003899   2.951172   8.250000   16.71502   76.70000   77.50000   75.80000   40.67188 
  8127.000   4.363281   5.535156   4.355469   5.500000   21.96875   8.007813   -79.5000   52.31250   5490.000   145.9625   0.132673   2.431090   0.003361   2.841797   8.265625   16.29558   76.80000   77.70000   76.40001   34.30469 
  8127.500   4.394531   5.597656   4.386719   5.554687   22.42188   8.070313   -79.2500   48.56250   5530.000   145.9062   0.134568   2.427962   0.001279   2.796875   8.273438   16.26819   77.00000   80.39999   75.50000   34.75391 
  8128.000   4.421875   5.648437   4.417969   5.605469   23.17188   8.125000   -78.8125   46.84375   5530.000   146.0188   0.130017   2.435472   0.002050   2.716797   8.304688   15.97421   75.89999   79.30000   75.10001   34.95313 
  8128.500   4.445312   5.687500   4.441406   5.632812   24.25000   8.125000   -78.4375   43.81250   5490.000   146.0750   0.127103   2.440280   0.002509   2.798828   8.296875   15.99083   74.89999   75.50002   73.10001   32.91406 
  8129.000   4.476562   5.718750   4.468750   5.660156   25.28125   8.125000   -79.9375   45.96875   5465.000   145.9625   0.120855   2.450589   0.005005   2.626953   8.281250   15.50450   76.09999   75.50000   69.19998   35.75195 
  8129.500   4.511719   5.750000   4.500000   5.703125   26.32813   8.125000   -80.6250   44.25000   5460.000   145.9625   0.113080   2.463418   0.006398   2.623047   8.273438   15.43033   74.20000   73.10001   70.30000   38.34375 
  8130.000   4.546875   5.792969   4.539062   5.757812   27.04688   8.125000   -81.6250   45.78125   5520.000   145.9062   0.105133   2.476530   0.005405   2.650391   8.265625   14.98999   71.89999   72.30000   70.10001   44.83789 
