~VERSION INFORMATION
VERS.                               2.00: CWLS LOG ASCII STANDARD VERSION 2.00
WRAP.                               NO  : ONE LINE PER DEPTH STEP               
~WELL INFORMATION
#MNEM.UNIT                     DATA TYPE  INFORMATION
#----------------------------------------------------------------------
STRT.F                            273.00: START DEPTH
STOP.F                           8759.00: STOP DEPTH
STEP.F                              0.50: STEP VALUE
NULL.                            -999.00: NULL VALUE
COMP.                         CONOCO INC: COMPANY                               
WELL.                         ASTOSCH #1: WELL                                  
FLD .            Mid Grd Shoal/Trdng Bay: FIELD                                 
LOC .        10N  13W    3 1300FNL 50FEL: LOCATION                              
CNTY.                              KENAI: COUNTY                                
STAT.                             Alaska: STATE                                 
CTRY.                                 US: COUNTRY                               
SRVC.                                   : SERVICE COMPANY                       
DATE.                                   : LOG DATE                              
API .                   50133204260000  : UNIQUE WELL IDENTIFIER                
~PARAMETER INFORMATION                                                          
#MNEM.UNIT        VALUE   DESCRIPTION                                           
#---------      --------  -----------                                           
ELEV    .F           22.0: KB ELEVATION                                         
TDD     .F         8715.0: TOTAL DEPTH DRILLED                                  
~OTHER INFORMATION                                                              
LGD0    .          2/1/91                                                       
MT0     .          PHPA POLYMER                                                 
LGD0    .          2/13/91                                                      
MT0     .          LOW SOLIDS                                                   
LGD0    .          3/6/91                                                       
MT0     .          LOW SOLIDS                                                   
~CURVE INFORMATION                                                              
#MNEM.UNIT                 DESCRIPTION                                          
#---------                 -----------                                          
DEPTH   .F               :  1 DEPTH
IDPH    .OHMM          00:  2 INDUCTION DB PHASOR                             
IMPH    .OHMM          00:  3 INDUCTION MEDIUM PHASOR                         
ILD     .OHMM          00:  4 INDUCTION LOG DEEP                              
ILM     .OHMM          00:  5 INDUCTION LOG MEDIUM                            
SFL     .OHMM          00:  6 SPHER. OR SHAL. FOC. LOG                        
CAL1    .IN            00:  7 CALIPER                                         
SP      .MV            00:  8 SELF POTENTIAL                                  
GR      .GAPI          00:  9 GAMMA RAY                                       
TENS    .LB            00: 10 TENSION                                         
TEMP    .DEGF          00: 11 CALC TEMP CURVE                                 
DPHI    .V/V           00: 12 DENSITY POROSITY                                
RHOB    .G/C3          00: 13 BULK DENSITY                                    
DRHO    .G/C3          00: 14 DENSITY CORRECTN                                
PEF     .B/E           00: 15 FOTO ELECTRO. XSCT                              
CALI    .IN            00: 16 CALIPER                                         
CNS     .%             00: 17 COMPENSATED NEUT (-S)                           
DT      .US/F          00: 18 INTERV TRANSIT TIME                             
DTL     .US/F          00: 19 INTERV TRANSIT TIME LONG                        
DTL1    .US/F          00: 20 INTERV TRANSIT TIME LONG                        
MSFL    .OHMM          00: 21 MICROSPHERIC. FOC. LOG                          
~A  DEPTH    IDPH       IMPH       ILD        ILM        SFL        CAL1       SP         GR         TENS       TEMP       DPHI       RHOB       DRHO       PEF        CALI       CNS        DT         DTL        DTL1       MSFL                            
# ...
  4805.500   1.740234   2.011719   1.665039   2.013672   5.796875   8.328125   -114.250   58.09375   4280.000   126.1062   0.246884   2.242640   0.006437   2.744141   8.234375   33.27937   107.1000   105.8000   104.2000   15.11560 
  4806.000   1.710938   1.972656   1.637695   1.971680   5.703125   8.335938   -114.500   65.75000   4280.000   126.1625   0.249360   2.238555   0.005596   2.847656   8.234375   32.76318   107.6000   106.2000   104.4000   14.55078 
  4806.500   1.697266   1.948242   1.626953   1.948242   5.683594   8.328125   -114.875   64.81250   4295.000   126.2188   0.256814   2.226257   0.003157   2.794922   8.234375   32.50160   107.7000   106.6000   103.1000   14.02026 
  4807.000   1.692383   1.937500   1.623047   1.934570   5.652344   8.328125   -113.875   65.06250   4270.000   126.1062   0.261770   2.218080   0.003947   2.716797   8.234375   31.84371   107.4000   105.8000   104.4000   14.33008 
  4807.500   1.702148   1.938477   1.634766   1.934570   5.660156   8.335938   -113.375   57.40625   4265.000   126.1625   0.264635   2.213352   0.001154   2.734375   8.234375   33.11359   107.8000   106.0000   104.5000   14.43359 
  4808.000   1.722656   1.953125   1.655273   1.951172   5.710937   8.328125   -112.313   56.93750   4275.000   126.2750   0.259843   2.221260   -.000012   2.695313   8.234375   32.43405   107.5000   106.7000   104.2000   13.85986 
  4808.500   1.757813   1.986328   1.693359   1.986328   5.765625   8.335938   -111.375   53.00000   4280.000   126.2750   0.259231   2.222269   -.002523   2.757813   8.234375   33.13683   107.8000   106.6000   103.7000   14.23901 
  4809.000   1.816406   2.042969   1.759766   2.066406   5.765625   8.335938   -110.250   55.65625   4285.000   126.3313   0.254217   2.230543   -.000187   2.689453   8.234375   31.95954   108.3000   106.9000   103.6000   13.74561 
  4809.500   1.892578   2.125000   1.845703   2.154297   5.726562   8.312500   -108.938   60.62500   4275.000   126.2750   0.256645   2.226536   -.001741   2.742188   8.234375   31.51638   107.8000   106.9000   103.5000   13.70898 
  4810.000   1.982422   2.236328   1.947266   2.238281   5.621094   8.296875   -107.000   64.37500   4285.000   126.2188   0.252676   2.233085   0.000503   2.673828   8.234375   30.98611   106.9000   105.3000   101.2000   13.85669 
  4810.500   2.095703   2.378906   2.082031   2.412109   5.390625   8.281250   -104.438   65.18750   4270.000   126.1625   0.251184   2.235547   0.000171   2.658203   8.234375   31.36143   105.5000   104.0000   100.4000   13.43066 
  4811.000   2.224609   2.556641   2.234375   2.619141   5.167969   8.273438   -99.3750   66.18750   4305.000   126.1062   0.244100   2.247235   0.001943   2.736328   8.234375   31.36813   103.0000   101.7000   98.20001   13.72461 
  4811.500   2.341797   2.763672   2.373047   2.796875   5.050781   8.273438   -78.9375   68.56250   4290.000   126.2750   0.233573   2.264605   0.003110   2.917969   8.234375   30.73912   101.7000   100.0000   98.20001   12.55762 
  4812.000   2.447266   2.986328   2.496094   3.005859   5.269531   8.273438   -84.9375   72.25000   4305.000   126.2750   0.219074   2.288527   0.004342   3.044922   8.234375   30.36912   100.9000   98.70001   98.20001   10.59375 
  4812.500   2.517578   3.179688   2.570313   3.169922   5.761719   8.218750   -96.6250   73.37500   4300.000   126.1625   0.210096   2.303341   0.002593   3.089844   8.234375   31.43673   99.49998   98.70000   97.60002   11.04102 
  4813.000   2.552734   3.285156   2.601563   3.191406   6.152344   8.234375   -96.9375   68.18750   4310.000   126.1062   0.202645   2.315636   0.003352   3.205078   8.234375   33.12000   99.60001   98.60001   98.00002   11.95801 
  4813.500   2.556641   3.271484   2.599609   3.119141   6.261719   8.250000   -98.2500   63.53125   4325.000   126.1062   0.201301   2.317853   0.003037   3.408203   8.234375   33.93420   100.2000   98.90001   98.50000   11.64648 
  4814.000   2.539063   3.152344   2.574219   3.011719   6.125000   8.242188   -100.938   57.71875   4325.000   126.2188   0.194424   2.329201   0.003224   3.582031   8.234375   34.76922   101.3000   100.6000   99.19998   12.52637 
  4814.500   2.496094   2.986328   2.519531   2.904297   6.042969   8.242188   -90.5000   60.00000   4305.000   126.3313   0.193932   2.330012   0.006356   3.261719   8.234375   34.43538   102.6000   101.5000   100.7000   12.49179 
  4815.000   2.437500   2.830078   2.447266   2.812500   5.996094   8.257813   -85.7500   61.37500   4315.000   126.1625   0.207226   2.308077   0.000995   2.994141   8.234375   34.04749   102.5000   100.7000   100.0000   13.19531 
  4815.500   2.365234   2.712891   2.355469   2.728516   5.941406   8.273438   -104.750   63.87500   4300.000   126.1625   0.221684   2.284221   -.000270   2.935547   8.234375   32.02886   102.9000   102.0000   100.2000   13.05273 
  4816.000   2.300781   2.640625   2.279297   2.671875   5.890625   8.273438   -104.625   64.31250   4315.000   126.3313   0.228730   2.272595   0.000359   2.966797   8.234375   30.71841   103.2000   102.1000   100.6000   13.50977 
  4816.500   2.257813   2.603516   2.232422   2.630859   5.945312   8.273438   -102.938   59.31250   4300.000   126.2750   0.229750   2.270913   0.001490   3.167969   8.234375   31.35474   103.8000   102.2000   101.3000   13.28809 
  4817.000   2.220703   2.587891   2.193359   2.595703   6.046875   8.273438   -105.313   61.59375   4285.000   126.1062   0.229052   2.272064   0.000289   3.154297   8.234375   32.88472   105.1000   103.6000   102.5000   12.15625 
  4817.500   2.191406   2.576172   2.166016   2.562500   5.945312   8.273438   -104.750   63.50000   4285.000   126.3313   0.225663   2.277657   0.006271   3.191406   8.234375   33.85947   105.0000   103.7000   102.4000   13.16406 
  4818.000   2.166016   2.558594   2.144531   2.527344   5.652344   8.304688   -103.438   72.37500   4315.000   126.5000   0.228657   2.272716   0.005616   3.039063   8.234375   34.67075   105.4000   103.8000   102.4000   13.72461 
  4818.500   2.140625   2.531250   2.117188   2.503906   5.300781   8.304688   -102.688   71.12500   4325.000   126.2188   0.229715   2.270971   0.005300   3.042969   8.234375   33.73399   104.7000   104.2000   102.3000   13.79004 
  4819.000   2.101563   2.496094   2.076172   2.472656   5.140625   8.320313   -102.125   69.18750   4295.000   126.0500   0.227714   2.274271   0.006373   3.070313   8.234375   33.04067   104.3000   103.9000   102.2000   12.43945 
  4819.500   2.064453   2.455078   2.031250   2.429688   5.199219   8.328125   -102.313   65.93750   4300.000   126.2750   0.223139   2.281820   0.008510   3.162109   8.234375   33.05424   103.9000   102.6000   101.9000   12.28467 
  4820.000   2.025391   2.406250   1.988281   2.380859   5.339844   8.335938   -103.188   65.68750   4280.000   126.3313   0.220999   2.285351   0.005581   3.404297   8.234375   34.62489   104.9000   104.1000   101.2000   13.25586 
  4820.500   1.984375   2.353516   1.942383   2.314453   5.359375   8.335938   -104.438   67.75000   4295.000   126.2188   0.213091   2.298400   0.008368   3.457031   8.234375   37.45512   105.5000   104.7000   102.2000   13.95898 
  4821.000   1.958984   2.296875   1.917969   2.261719   5.296875   8.335938   -104.813   69.62500   4320.000   126.2750   0.211120   2.301651   0.009316   3.205078   8.234375   36.79146   106.4000   105.1000   103.6000   12.85278 
  4821.500   1.943359   2.248047   1.907227   2.226563   5.136719   8.335938   -104.750   72.87500   4295.000   126.3875   0.220443   2.286268   0.008528   2.867188   8.234375   34.33936   107.0000   105.8000   104.6000   12.49023 
  4822.000   1.928711   2.210938   1.893555   2.205078   5.082031   8.335938   -104.000   68.93750   4275.000   126.3313   0.234721   2.262710   0.004738   2.648438   8.234375   32.44882   106.4000   105.2000   104.5000   12.17090 
  4822.500   1.919922   2.193359   1.884766   2.201172   5.058594   8.367188   -104.000   67.18750   4330.000   126.2750   0.236674   2.259488   0.007357   2.714844   8.234375   32.57088   105.3000   104.1000   103.0000   11.54248 
