~VERSION INFORMATION
VERS.                               2.00: CWLS LOG ASCII STANDARD VERSION 2.00
WRAP.                               NO  : ONE LINE PER DEPTH STEP               
~WELL INFORMATION
#MNEM.UNIT                     DATA TYPE  INFORMATION
#----------------------------------------------------------------------
STRT.F                            273.00: START DEPTH
STOP.F                           8759.00: STOP DEPTH
STEP.F                              0.50: STEP VALUE
NULL.                            -999.00: NULL VALUE
COMP.                         CONOCO INC: COMPANY                               
WELL.                         ASTOSCH #1: WELL                                  
FLD .            Mid Grd Shoal/Trdng Bay: FIELD                                 
LOC .        10N  13W    3 1300FNL 50FEL: LOCATION                              
CNTY.                              KENAI: COUNTY                                
STAT.                             Alaska: STATE                                 
CTRY.                                 US: COUNTRY                               
SRVC.                                   : SERVICE COMPANY                       
DATE.                                   : LOG DATE                              
API .                   50133204260000  : UNIQUE WELL IDENTIFIER                
~PARAMETER INFORMATION                                                          
#MNEM.UNIT        VALUE   DESCRIPTION                                           
#---------      --------  -----------                                           
ELEV    .F           22.0: KB ELEVATION                                         
TDD     .F         8715.0: TOTAL DEPTH DRILLED                                  
~OTHER INFORMATION                                                              
LGD0    .          2/1/91                                                       
MT0     .          PHPA POLYMER                                                 
LGD0    .          2/13/91                                                      
MT0     .          LOW SOLIDS                                                   
LGD0    .          3/6/91                                                       
MT0     .          LOW SOLIDS                                                   
~CURVE INFORMATION                                                              
#MNEM.UNIT                 DESCRIPTION                                          
#---------                 -----------                                          
DEPTH   .F               :  1 DEPTH
IDPH    .OHMM          00:  2 INDUCTION DB PHASOR                             
IMPH    .OHMM          00:  3 INDUCTION MEDIUM PHASOR                         
ILD     .OHMM          00:  4 INDUCTION LOG DEEP                              
ILM     .OHMM          00:  5 INDUCTION LOG MEDIUM                            
SFL     .OHMM          00:  6 SPHER. OR SHAL. FOC. LOG                        
CAL1    .IN            00:  7 CALIPER                                         
SP      .MV            00:  8 SELF POTENTIAL                                  
GR      .GAPI          00:  9 GAMMA RAY                                       
TENS    .LB            00: 10 TENSION                                         
TEMP    .DEGF          00: 11 CALC TEMP CURVE                                 
DPHI    .V/V           00: 12 DENSITY POROSITY                                
RHOB    .G/C3          00: 13 BULK DENSITY                                    
DRHO    .G/C3          00: 14 DENSITY CORRECTN                                
PEF     .B/E           00: 15 FOTO ELECTRO. XSCT                              
CALI    .IN            00: 16 CALIPER                                         
CNS     .%             00: 17 COMPENSATED NEUT (-S)                           
DT      .US/F          00: 18 INTERV TRANSIT TIME                             
DTL     .US/F          00: 19 INTERV TRANSIT TIME LONG                        
DTL1    .US/F          00: 20 INTERV TRANSIT TIME LONG                        
MSFL    .OHMM          00: 21 MICROSPHERIC. FOC. LOG                          
~A  DEPTH    IDPH       IMPH       ILD        ILM        SFL        CAL1       SP         GR         TENS       TEMP       DPHI       RHOB       DRHO       PEF        CALI       CNS        DT         DTL        DTL1       MSFL                            
# ...
  3703.000   48.53125   31.60938   37.75000   39.40625   41.93750   10.89844   -95.6250   35.68750   3895.000   118.4000   0.814126   1.306692   0.004436   1.121094   11.02344   67.30716   135.6000   134.5000   133.0000   11.10937 
  3703.500   47.21875   35.50000   37.15625   43.78125   40.90625   10.87500   -96.0625   36.93750   3910.000   118.4563   0.766270   1.385654   0.009290   1.520508   11.15625   66.49744   134.9000   133.7000   133.4000   15.55469 
  3704.000   45.31250   44.53125   35.90625   43.84375   42.00000   10.87500   -96.1875   33.18750   3890.000   118.4000   0.720195   1.461678   0.010597   1.566406   11.03125   68.75604   134.7000   133.7000   133.7000   24.13281 
  3704.500   45.96875   58.37500   35.93750   46.00000   52.03125   10.87500   -96.8750   28.95313   3905.000   118.3438   0.690182   1.511200   0.016509   1.201172   11.01562   72.75272   134.0000   133.2000   133.1000   37.08984 
  3705.000   52.40625   73.12500   39.87500   53.18750   70.12500   10.87500   -97.1250   21.89063   3900.000   118.4000   0.683017   1.523022   0.033041   0.973633   11.01562   76.16490   133.4000   133.4000   133.7000   45.81250 
  3705.500   61.96875   83.75000   45.34375   61.62500   104.8125   10.87500   -97.5000   16.78125   3900.000   118.4000   0.702348   1.491125   0.031858   0.743164   11.01562   75.37482   134.2000   132.8000   132.6000   53.68750 
  3706.000   72.62500   89.50000   50.87500   67.31250   148.8750   10.84375   -97.5000   13.48437   3900.000   118.4563   0.728542   1.447906   0.026151   0.651367   11.01562   74.51041   134.6000   133.6000   133.6000   142.0000 
  3706.500   95.43750   91.68750   62.34375   68.87500   144.7500   10.81250   -97.5625   11.59375   3890.000   118.4563   0.770349   1.378924   0.014746   0.592773   11.01562   72.55621   134.4000   133.4000   133.5000   166.3398 
  3707.000   119.5625   91.06250   72.50000   71.12500   135.6250   10.88281   -98.0625   9.984375   3905.000   118.4563   0.807162   1.318182   0.007302   0.604004   11.01562   72.55621   134.9000   134.4000   134.4000   192.7500 
  3707.500   128.2500   90.31250   75.75000   73.43750   139.3750   10.90625   -97.6250   9.046875   3875.000   118.4563   0.836792   1.269292   -.000140   0.635254   11.01562   72.01303   134.2000   134.4000   133.9000   151.0000 
  3708.000   130.6250   93.00000   76.81250   78.06250   162.2500   10.90625   -97.4375   10.28906   3900.000   118.5125   0.843263   1.258615   -.007632   0.680176   11.01562   73.61920   133.7000   133.7000   133.9000   104.9355 
  3708.500   125.0625   101.8125   74.25000   96.06250   171.7500   10.90625   -96.7500   12.39062   3880.000   118.5125   0.835230   1.271870   -.010766   0.714355   11.01562   71.74472   133.4000   133.7000   134.1000   104.2031 
  3709.000   119.5000   115.0000   72.06250   107.1875   168.5000   10.91406   -96.8125   13.60937   3900.000   118.4563   0.818873   1.298860   -.011303   0.684082   11.02344   68.49734   134.0000   133.4000   132.3000   159.0312 
  3709.500   112.6250   121.3125   69.75000   88.12500   151.2500   10.93750   -96.5625   15.03125   3890.000   118.4563   0.814480   1.306107   -.011342   0.658203   11.15625   70.53152   133.7000   133.0000   132.7000   190.6250 
  3710.000   100.3750   110.5000   64.43750   73.81250   141.2500   10.94531   -97.0625   16.26563   3920.000   118.5688   0.822065   1.293592   -.013540   0.650391   11.14062   69.36429   133.8000   133.8000   133.7000   92.84375 
  3710.500   94.50000   92.25000   62.18750   69.06250   135.1250   10.96875   -97.5000   18.45313   3880.000   118.5688   0.832592   1.276224   -.012804   0.682129   11.15625   70.88542   134.5000   133.5000   135.2000   101.3125 
  3711.000   93.56250   78.81250   62.46875   68.93750   109.9375   10.96875   -97.5625   22.54688   3900.000   118.6250   0.835669   1.271147   -.011611   0.737793   11.15625   68.99034   133.6000   133.7000   134.2000   206.0000 
  3711.500   91.18750   72.75000   61.50000   70.81250   90.56250   10.97656   -97.7500   28.03125   3905.000   118.5125   0.827989   1.283818   -.010735   0.799805   11.17187   67.30548   133.7000   133.7000   133.8000   74.37500 
  3712.000   90.25000   72.56250   61.59375   68.56250   84.62500   10.96875   -97.9375   29.78125   3910.000   118.4563   0.808708   1.315633   -.009287   0.888672   11.15625   66.91553   133.1000   132.9000   133.6000   61.00000 
  3712.500   90.31250   76.93750   62.56250   69.25000   84.25000   10.97656   -98.8125   30.85938   3900.000   118.4563   0.788621   1.348776   -.004840   0.949219   11.17187   63.64362   132.4000   132.6000   132.0000   68.40625 
  3713.000   88.50000   85.50000   61.53125   78.12500   90.25000   10.99219   -98.6875   26.67188   3915.000   118.5125   0.762800   1.391381   -.004297   1.157227   11.17187   66.46649   132.5000   132.6000   133.5000   58.92188 
  3713.500   86.37500   97.75000   60.37500   89.00000   103.7500   10.96875   -98.3750   23.71875   3890.000   118.5125   0.730277   1.445042   -.001818   1.227539   11.17187   71.87411   131.4000   129.5000   131.5000   92.31250 
  3714.000   83.56250   108.1250   58.71875   89.18750   128.8750   11.05469   -97.5000   19.15625   3895.000   118.5125   0.698267   1.497859   0.001693   1.185547   11.17187   70.51399   134.1000   132.4000   132.5000   79.50000 
  3714.500   78.56250   103.6875   55.68750   75.00000   152.0000   11.10156   -83.1250   19.70313   3900.000   118.4563   0.712986   1.473573   0.002841   0.985840   11.17187   73.96272   133.9000   132.7000   132.6000   135.4062 
  3715.000   77.62500   85.00000   55.46875   56.90625   129.1250   11.18750   -71.9375   24.26563   3915.000   118.4563   0.762454   1.391950   -.000716   0.885742   11.17969   66.95926   133.7000   131.3000   130.8000   168.1250 
  3715.500   79.25000   67.43750   57.25000   49.00000   91.75000   11.26562   -97.1875   27.95313   3890.000   118.5125   0.808421   1.316106   -.001667   0.858887   11.24219   71.07358   134.7000   132.3000   131.9000   160.5937 
  3716.000   77.37500   57.81250   57.03125   54.84375   70.87500   11.33594   -96.4375   29.35938   3885.000   118.5125   0.813857   1.307136   -.005437   0.873047   11.34375   68.28961   134.1000   131.1000   130.5000   77.02344 
  3716.500   75.06250   55.15625   56.96875   63.59375   61.65625   11.42187   -95.2500   33.06250   3900.000   118.5125   0.792658   1.342115   -.007353   1.027344   11.34375   68.11127   133.1000   131.3000   131.2000   34.06250 
  3717.000   69.93750   57.12500   55.18750   57.93750   60.40625   11.54687   -95.3750   34.40625   3900.000   118.6250   0.757614   1.399937   -.009543   1.135742   11.47656   67.07678   132.3000   131.8000   130.9000   52.71875 
  3717.500   58.06250   59.87500   48.25000   53.43750   59.78125   11.65625   -95.0625   36.21875   3910.000   118.6250   0.739631   1.429608   -.008476   1.227539   11.47656   67.35916   132.4000   132.3000   130.7000   61.32031 
  3718.000   46.87500   57.90625   40.96875   49.78125   61.78125   11.77344   -95.6250   32.53125   3885.000   118.5125   0.738971   1.430698   -.007954   1.206055   11.59375   71.72742   131.9000   132.6000   129.7000   56.75000 
  3718.500   35.03125   48.43750   31.82813   42.00000   66.81250   11.89844   -95.6875   35.18750   3915.000   118.5125   0.749621   1.413125   -.006800   1.122070   11.71094   71.51326   133.5000   131.9000   130.6000   59.34375 
  3719.000   26.07813   35.40625   24.31250   29.93750   60.40625   11.97656   -95.6250   43.03125   3885.000   118.5125   0.765258   1.387323   -.006207   1.063477   11.93750   72.06403   132.9000   130.6000   129.7000   93.38281 
  3719.500   21.46875   24.34375   20.54688   19.48438   35.78125   12.00781   -95.8750   55.12500   3910.000   118.5125   0.777070   1.367835   -.005580   1.113281   12.13281   71.17331   130.1000   127.0000   126.3000   78.23438 
  3720.000   18.06250   17.12500   17.59375   14.25000   17.01563   12.13281   -95.8125   70.75000   3885.000   118.4000   0.767779   1.383164   -.004851   1.306641   12.17187   69.85739   128.5000   125.0000   124.4000   42.07275 
