~VERSION INFORMATION
VERS.                               2.00: CWLS LOG ASCII STANDARD VERSION 2.00
WRAP.                               NO  : ONE LINE PER DEPTH STEP               
~WELL INFORMATION
#MNEM.UNIT                     DATA TYPE  INFORMATION
#----------------------------------------------------------------------
STRT.F                            273.00: START DEPTH
STOP.F                           8759.00: STOP DEPTH
STEP.F                              0.50: STEP VALUE
NULL.                            -999.00: NULL VALUE
COMP.                         CONOCO INC: COMPANY                               
WELL.                         ASTOSCH #1: WELL                                  
FLD .            Mid Grd Shoal/Trdng Bay: FIELD                                 
LOC .        10N  13W    3 1300FNL 50FEL: LOCATION                              
CNTY.                              KENAI: COUNTY                                
STAT.                             Alaska: STATE                                 
CTRY.                                 US: COUNTRY                               
SRVC.                                   : SERVICE COMPANY                       
DATE.                                   : LOG DATE                              
API .                   50133204260000  : UNIQUE WELL IDENTIFIER                
~PARAMETER INFORMATION                                                          
#MNEM.UNIT        VALUE   DESCRIPTION                                           
#---------      --------  -----------                                           
ELEV    .F           22.0: KB ELEVATION                                         
TDD     .F         8715.0: TOTAL DEPTH DRILLED                                  
~OTHER INFORMATION                                                              
LGD0    .          2/1/91                                                       
MT0     .          PHPA POLYMER                                                 
LGD0    .          2/13/91                                                      
MT0     .          LOW SOLIDS                                                   
LGD0    .          3/6/91                                                       
MT0     .          LOW SOLIDS                                                   
~CURVE INFORMATION                                                              
#MNEM.UNIT                 DESCRIPTION                                          
#---------                 -----------                                          
DEPTH   .F               :  1 DEPTH
IDPH    .OHMM          00:  2 INDUCTION DB PHASOR                             
IMPH    .OHMM          00:  3 INDUCTION MEDIUM PHASOR                         
ILD     .OHMM          00:  4 INDUCTION LOG DEEP                              
ILM     .OHMM          00:  5 INDUCTION LOG MEDIUM                            
SFL     .OHMM          00:  6 SPHER. OR SHAL. FOC. LOG                        
CAL1    .IN            00:  7 CALIPER                                         
SP      .MV            00:  8 SELF POTENTIAL                                  
GR      .GAPI          00:  9 GAMMA RAY                                       
TENS    .LB            00: 10 TENSION                                         
TEMP    .DEGF          00: 11 CALC TEMP CURVE                                 
DPHI    .V/V           00: 12 DENSITY POROSITY                                
RHOB    .G/C3          00: 13 BULK DENSITY                                    
DRHO    .G/C3          00: 14 DENSITY CORRECTN                                
PEF     .B/E           00: 15 FOTO ELECTRO. XSCT                              
CALI    .IN            00: 16 CALIPER                                         
CNS     .%             00: 17 COMPENSATED NEUT (-S)                           
DT      .US/F          00: 18 INTERV TRANSIT TIME                             
DTL     .US/F          00: 19 INTERV TRANSIT TIME LONG                        
DTL1    .US/F          00: 20 INTERV TRANSIT TIME LONG                        
MSFL    .OHMM          00: 21 MICROSPHERIC. FOC. LOG                          
~A  DEPTH    IDPH       IMPH       ILD        ILM        SFL        CAL1       SP         GR         TENS       TEMP       DPHI       RHOB       DRHO       PEF        CALI       CNS        DT         DTL        DTL1       MSFL                            
# ...
   395.500   -999.000   -999.000   -999.000   -999.000   -999.000   12.64062   -41.4688   28.00000   355.5000   72.27501   0.455625   -999.000   -999.000   -999.000   13.21875   64.44688   -999.000   -999.000   -999.000   2.642578 
   396.000   -999.000   -999.000   -999.000   -999.000   -999.000   12.58594   -30.4219   25.70313   356.2500   72.27501   0.451271   -999.000   -999.000   -999.000   13.15625   68.45618   -999.000   -999.000   -999.000   2.626953 
   396.500   -999.000   -999.000   -999.000   -999.000   -999.000   12.55469   -30.1563   27.43750   357.5000   72.10626   0.455359   -999.000   -999.000   -999.000   13.15625   68.72243   -999.000   -999.000   -999.000   3.011719 
   397.000   -999.000   -999.000   -999.000   -999.000   -999.000   12.48437   -44.2500   26.65625   356.2500   72.16251   0.457791   -999.000   -999.000   -999.000   13.03906   64.95628   -999.000   -999.000   -999.000   3.015625 
   397.500   -999.000   -999.000   -999.000   -999.000   -999.000   12.45312   -42.5625   27.46875   358.0000   72.24689   0.457403   -999.000   -999.000   -999.000   12.98437   67.02324   -999.000   -999.000   -999.000   2.851563 
   398.000   -999.000   -999.000   -999.000   -999.000   -999.000   12.43750   -28.9688   30.00000   356.2500   72.21875   0.455814   -999.000   -999.000   -999.000   12.96094   66.14491   -999.000   -999.000   -999.000   2.873047 
   398.500   -999.000   -999.000   -999.000   -999.000   -999.000   12.45312   -26.8125   32.15625   357.5000   72.13438   0.452316   -999.000   -999.000   -999.000   12.94531   66.45987   -999.000   -999.000   -999.000   2.666016 
   399.000   -999.000   -999.000   -999.000   -999.000   -999.000   12.46875   -34.0313   32.15625   356.2500   72.10626   0.454568   -999.000   -999.000   -999.000   12.98437   64.38051   -999.000   -999.000   -999.000   2.650391 
   399.500   -999.000   -999.000   -999.000   -999.000   -999.000   12.49219   -37.0000   31.25000   358.0000   72.07813   0.443099   -999.000   -999.000   -999.000   12.98437   66.90959   -999.000   -999.000   -999.000   2.687500 
   400.000   -999.000   -999.000   -999.000   -999.000   -999.000   12.54687   -30.1719   31.17188   356.2500   72.07813   0.396536   -999.000   -999.000   -999.000   13.03906   59.97380   -999.000   -999.000   -999.000   2.714844 
   400.500   -999.000   -999.000   -999.000   -999.000   -999.000   12.60937   -28.1250   34.90625   357.5000   72.05000   0.321092   -999.000   -999.000   -999.000   13.01562   49.18568   -999.000   -999.000   -999.000   2.773438 
   401.000   -999.000   -999.000   -999.000   -999.000   -999.000   13.17969   -29.0313   40.65625   356.2500   72.02188   0.243349   -999.000   -999.000   -999.000   13.39844   42.05472   -999.000   -999.000   -999.000   3.105469 
   401.500   -999.000   -999.000   -999.000   -999.000   -999.000   14.17969   -27.3125   45.65625   358.0000   71.93750   0.249684   -999.000   -999.000   -999.000   14.00000   43.74847   -999.000   -999.000   -999.000   8.343750 
   402.000   -999.000   -999.000   -999.000   -999.000   -999.000   13.81250   -18.3594   51.00000   356.2500   71.96564   0.302241   -999.000   -999.000   -999.000   14.21875   53.15253   -999.000   -999.000   -999.000   60.18750 
   402.500   -999.000   -999.000   -999.000   -999.000   -999.000   13.78125   -17.2656   53.50000   356.2500   72.02188   0.339238   -999.000   -999.000   -999.000   14.30469   55.84676   -999.000   -999.000   -999.000   10.24219 
   403.000   -999.000   -999.000   -999.000   -999.000   -999.000   13.83594   -11.8203   54.96875   355.5000   72.05000   0.363867   -999.000   -999.000   -999.000   14.09375   56.66898   -999.000   -999.000   -999.000   4.441406 
   403.500   -999.000   -999.000   -999.000   -999.000   -999.000   13.77344   -15.4766   56.03125   358.0000   72.05000   0.390813   -999.000   -999.000   -999.000   14.09375   53.45015   -999.000   -999.000   -999.000   3.910156 
   404.000   -999.000   -999.000   -999.000   -999.000   -999.000   13.78125   -16.1250   53.43750   356.2500   72.07813   0.413044   -999.000   -999.000   -999.000   14.05469   51.41931   -999.000   -999.000   -999.000   4.140625 
   404.500   -999.000   -999.000   -999.000   -999.000   -999.000   13.64844   -18.5469   51.25000   356.2500   72.07813   0.433549   -999.000   -999.000   -999.000   13.95312   54.05977   -999.000   -999.000   -999.000   3.978516 
   405.000   -999.000   -999.000   -999.000   -999.000   -999.000   13.52344   -14.0156   48.06250   355.5000   72.07813   0.449458   -999.000   -999.000   -999.000   13.46094   54.29914   -999.000   -999.000   -999.000   4.125000 
   405.500   -999.000   -999.000   -999.000   -999.000   -999.000   13.32812   -20.7188   46.15625   356.2500   72.05000   0.443245   -999.000   -999.000   -999.000   13.34375   55.64993   -999.000   -999.000   -999.000   4.207031 
   406.000   -999.000   -999.000   -999.000   -999.000   -999.000   13.21094   -25.0000   49.09375   356.2500   72.07813   0.426535   -999.000   -999.000   -999.000   13.31250   55.14050   -999.000   -999.000   -999.000   4.105469 
   406.500   -999.000   -999.000   -999.000   -999.000   -999.000   13.14062   -23.7031   47.62500   356.2500   72.13438   0.415645   -999.000   -999.000   -999.000   13.31250   55.00880   -999.000   -999.000   -999.000   4.460937 
   407.000   -999.000   -999.000   -999.000   -999.000   -999.000   13.12500   -23.2813   53.62500   355.5000   72.16251   0.426523   -999.000   -999.000   -999.000   13.31250   53.83784   -999.000   -999.000   -999.000   3.886719 
   407.500   -999.000   -999.000   -999.000   -999.000   -999.000   13.27344   -15.8516   52.43750   356.2500   72.10626   0.430613   -999.000   -999.000   -999.000   13.31250   53.37353   -999.000   -999.000   -999.000   3.767578 
   408.000   -999.000   -999.000   -999.000   -999.000   -999.000   13.00000   -20.2344   56.78125   359.2500   72.07813   0.419262   -999.000   -999.000   -999.000   13.16406   52.75086   -999.000   -999.000   -999.000   3.707031 
   408.500   -999.000   -999.000   2.382813   2.212891   2.230469   13.05469   -19.8906   53.40625   356.2500   71.96564   0.411376   1.971229   -.004141   2.953125   13.31250   53.91928   235.6000   211.4000   207.0000   3.925781 
   409.000   -999.000   -999.000   2.416016   2.212891   2.126953   13.07812   -20.6719   54.25000   355.5000   71.96564   0.411069   1.971736   -.010273   2.837891   13.31250   56.48469   232.9000   209.4000   206.3000   3.791016 
   409.500   -999.000   -999.000   2.443359   2.216797   2.099609   13.08594   -19.0781   52.40625   356.2500   72.05000   0.414267   1.966460   -.013898   2.898438   13.31250   57.37974   227.8000   209.6000   205.8000   4.285156 
   410.000   -999.000   -999.000   2.490234   2.224609   2.164063   13.06250   -23.7813   52.65625   359.2500   72.13438   0.413250   1.968138   -.012506   3.080078   13.36719   56.78463   227.9000   209.2000   205.4000   3.867188 
   410.500   -999.000   -999.000   2.570313   2.248047   2.214844   13.10937   -14.4844   52.25000   356.2500   72.19063   0.404649   1.982329   -.010365   3.218750   13.49219   53.19094   229.0000   209.2000   205.4000   3.529297 
   411.000   -999.000   -999.000   2.644531   2.287109   2.240234   13.25000   -14.7656   54.25000   358.0000   72.24689   0.403555   1.984134   -.008045   3.175781   13.58594   55.28443   230.7000   209.3000   205.4000   3.712891 
   411.500   -999.000   -999.000   2.642578   2.345703   2.251953   13.43750   -3.13672   52.81250   356.2500   72.24689   0.397363   1.994351   -.004391   3.064453   13.64062   53.51748   228.3000   209.5000   205.1000   4.152344 
   412.000   -999.000   -999.000   2.566406   2.417969   2.285156   13.56250   -10.9766   50.96875   359.2500   72.19063   0.388965   2.008208   -.001164   3.099609   13.78125   52.93683   228.0000   208.0000   204.7000   3.871094 
   412.500   -999.000   -999.000   2.531250   2.486328   2.400391   13.89062   -22.5625   49.21875   356.2500   72.24689   0.377435   2.027233   -.000953   3.351563   14.09375   52.73318   227.7000   207.2000   204.7000   4.000000 
