~VERSION INFORMATION
VERS.                               2.00: CWLS LOG ASCII STANDARD VERSION 2.00
WRAP.                               NO  : ONE LINE PER DEPTH STEP               
~WELL INFORMATION
#MNEM.UNIT                     DATA TYPE  INFORMATION
#----------------------------------------------------------------------
STRT.F                            273.00: START DEPTH
STOP.F                           8759.00: STOP DEPTH
STEP.F                              0.50: STEP VALUE
NULL.                            -999.00: NULL VALUE
COMP.                         CONOCO INC: COMPANY                               
WELL.                         ASTOSCH #1: WELL                                  
FLD .            Mid Grd Shoal/Trdng Bay: FIELD                                 
LOC .        10N  13W    3 1300FNL 50FEL: LOCATION                              
CNTY.                              KENAI: COUNTY                                
STAT.                             Alaska: STATE                                 
CTRY.                                 US: COUNTRY                               
SRVC.                                   : SERVICE COMPANY                       
DATE.                                   : LOG DATE                              
API .                   50133204260000  : UNIQUE WELL IDENTIFIER                
~PARAMETER INFORMATION                                                          
#MNEM.UNIT        VALUE   DESCRIPTION                                           
#---------      --------  -----------                                           
ELEV    .F           22.0: KB ELEVATION                                         
TDD     .F         8715.0: TOTAL DEPTH DRILLED                                  
~OTHER INFORMATION                                                              
LGD0    .          2/1/91                                                       
MT0     .          PHPA POLYMER                                                 
LGD0    .          2/13/91                                                      
MT0     .          LOW SOLIDS                                                   
LGD0    .          3/6/91                                                       
MT0     .          LOW SOLIDS                                                   
~CURVE INFORMATION                                                              
#MNEM.UNIT                 DESCRIPTION                                          
#---------                 -----------                                          
DEPTH   .F               :  1 DEPTH
IDPH    .OHMM          00:  2 INDUCTION DB PHASOR                             
IMPH    .OHMM          00:  3 INDUCTION MEDIUM PHASOR                         
ILD     .OHMM          00:  4 INDUCTION LOG DEEP                              
ILM     .OHMM          00:  5 INDUCTION LOG MEDIUM                            
SFL     .OHMM          00:  6 SPHER. OR SHAL. FOC. LOG                        
CAL1    .IN            00:  7 CALIPER                                         
SP      .MV            00:  8 SELF POTENTIAL                                  
GR      .GAPI          00:  9 GAMMA RAY                                       
TENS    .LB            00: 10 TENSION                                         
TEMP    .DEGF          00: 11 CALC TEMP CURVE                                 
DPHI    .V/V           00: 12 DENSITY POROSITY                                
RHOB    .G/C3          00: 13 BULK DENSITY                                    
DRHO    .G/C3          00: 14 DENSITY CORRECTN                                
PEF     .B/E           00: 15 FOTO ELECTRO. XSCT                              
CALI    .IN            00: 16 CALIPER                                         
CNS     .%             00: 17 COMPENSATED NEUT (-S)                           
DT      .US/F          00: 18 INTERV TRANSIT TIME                             
DTL     .US/F          00: 19 INTERV TRANSIT TIME LONG                        
DTL1    .US/F          00: 20 INTERV TRANSIT TIME LONG                        
MSFL    .OHMM          00: 21 MICROSPHERIC. FOC. LOG                          
~A  DEPTH    IDPH       IMPH       ILD        ILM        SFL        CAL1       SP         GR         TENS       TEMP       DPHI       RHOB       DRHO       PEF        CALI       CNS        DT         DTL        DTL1       MSFL                            
# ...
  8673.000   11.78906   11.37500   11.75000   11.87500   14.71875   -999.000   -55.8438   -999.000   5700.000   146.9188   0.129873   2.435709   0.046199   2.666016   9.539063   19.23840   75.20000   70.49998   65.30000   -999.000 
  8673.500   11.64062   11.51562   11.69531   11.50000   15.52344   -999.000   -57.4375   -999.000   5730.000   146.9188   0.127514   2.439601   0.048345   2.701172   9.539063   20.07207   70.70000   68.70001   63.20000   -999.000 
  8674.000   11.46094   11.63281   11.56250   11.38281   14.91406   -999.000   -58.4375   -999.000   5740.000   146.9188   0.115326   2.459713   0.052024   3.066406   9.992188   18.23596   63.70000   68.70000   62.29999   -999.000 
  8674.500   11.33594   11.60937   11.46094   11.29687   13.71094   -999.000   -60.3750   -999.000   5710.000   146.9188   0.157450   2.390207   0.050377   3.203125   10.82031   17.37374   62.30000   70.80000   59.60001   -999.000 
  8675.000   11.28906   11.44531   11.42187   11.22656   12.84375   -999.000   -61.6250   -999.000   5690.000   146.9188   0.236094   2.260445   0.050521   3.474609   11.00781   20.26974   67.09999   68.80000   58.90001   -999.000 
  8675.500   11.08594   11.21875   11.17969   10.86719   12.14062   -999.000   -62.4375   -999.000   5725.000   146.9188   0.263594   2.215070   0.054280   3.255859   11.67187   24.97642   65.59999   63.10001   57.10001   -999.000 
  8676.000   10.76562   11.04687   10.75000   10.89844   12.58594   -999.000   -61.6250   -999.000   5715.000   146.9188   0.254001   2.230899   0.070240   3.207031   11.67187   27.35342   70.59999   64.39999   61.60001   -999.000 
  8676.500   10.60156   11.07812   10.51562   11.09375   16.53125   -999.000   -59.1250   -999.000   5705.000   146.9188   0.193722   2.330359   0.104667   3.279297   11.67187   27.62910   69.79999   67.00000   59.20000   -999.000 
  8677.000   10.69531   11.44531   10.63281   11.93750   16.98438   -999.000   -58.5625   -999.000   5700.000   146.9188   0.193694   2.330405   0.099818   3.580078   11.60156   28.13115   74.29999   69.50000   63.09999   -999.000 
  8677.500   11.02344   12.12500   11.04687   12.75781   16.57813   -999.000   -58.9375   -999.000   5755.000   146.9188   0.233189   2.265238   0.089159   3.875000   10.67969   28.03882   73.50000   69.59999   64.60001   -999.000 
  8678.000   11.41406   12.98437   11.53906   13.01562   16.09375   -999.000   -60.5000   -999.000   5750.000   146.9188   0.288550   2.173893   0.088867   3.847656   9.765625   27.45023   74.59999   74.30002   70.89999   -999.000 
  8678.500   11.74219   13.79687   11.93750   13.12500   13.88281   -999.000   -63.0000   -999.000   5710.000   146.9188   0.301614   2.152336   0.100674   3.669922   9.796875   25.91105   72.10001   76.30000   71.00000   -999.000 
  8679.000   11.95312   14.42969   12.14062   13.92187   13.28125   -999.000   -64.3750   -999.000   5740.000   146.9188   0.294529   2.164026   0.108306   3.166016   9.093750   26.73307   65.29999   74.79999   67.39999   -999.000 
  8679.500   11.76562   14.78125   11.78906   15.13281   14.78906   -999.000   -65.5625   -999.000   5780.000   146.9188   0.239712   2.254475   0.106083   2.777344   8.648438   27.87559   66.59999   67.90001   68.60001   -999.000 
  8680.000   11.75000   14.72656   11.61719   14.55469   15.98437   -999.000   -66.7500   -999.000   5730.000   146.9188   0.193760   2.330296   0.091447   2.591797   8.671875   27.30054   66.79999   65.70000   65.50000   -999.000 
  8680.500   11.97656   14.17187   11.73437   12.79687   16.17188   -999.000   -67.0000   -999.000   5780.000   146.9188   0.120875   2.450556   0.105709   2.830078   9.523438   26.13769   65.89999   63.90000   66.70000   -999.000 
  8681.000   12.65625   13.29687   12.38281   12.10937   15.91406   -999.000   -67.2500   -999.000   5730.000   146.9188   0.141261   2.416919   0.118088   3.134766   10.82031   24.32557   65.80000   63.60001   64.50000   -999.000 
  8681.500   13.65625   12.56250   13.38281   12.40625   16.31250   -999.000   -66.6875   -999.000   5800.000   146.9188   0.213515   2.297700   0.120632   3.294922   12.30469   24.18650   61.70000   59.30000   62.10001   -999.000 
  8682.000   14.40625   12.41406   14.06250   12.94531   18.45313   -999.000   -65.3125   -999.000   5740.000   146.9188   0.256592   2.226624   0.149392   3.435547   12.89062   23.70768   62.70000   59.49999   60.70001   -999.000 
  8682.500   15.71094   13.17969   15.37500   14.10937   21.68750   -999.000   -65.0625   -999.000   5760.000   146.9188   0.244822   2.246043   0.192491   3.439453   13.78125   24.05139   61.39999   61.00002   60.59999   -999.000 
  8683.000   17.70313   15.15625   17.46875   17.37500   22.15625   -999.000   -65.6250   -999.000   5770.000   146.9188   0.216634   2.292554   0.237668   3.580078   14.03906   23.98406   61.89999   58.80000   59.20000   -999.000 
  8683.500   18.95313   18.68750   18.51563   20.70313   21.95313   -999.000   -65.6875   -999.000   5740.000   146.9188   0.202696   2.315552   0.247553   4.128906   14.12500   23.57290   60.90000   60.49999   61.09999   -999.000 
  8684.000   20.09375   23.75000   19.26563   22.14063   23.67188   -999.000   -65.5625   -999.000   5725.000   146.9188   0.193140   2.331318   0.263383   4.527344   14.23437   23.48133   59.10000   57.90001   60.60001   -999.000 
  8684.500   21.20313   29.01563   19.96875   23.54688   25.71875   -999.000   -65.1875   -999.000   5730.000   146.9188   0.328300   2.108305   0.197703   4.531250   14.37500   24.01711   59.10001   59.90001   58.10001   -999.000 
  8685.000   22.20313   32.06250   20.53125   26.26563   26.17188   -999.000   -64.5000   -999.000   5730.000   146.9188   0.362002   2.052696   0.187990   4.042969   12.83594   24.96988   61.60000   61.70000   59.50000   -999.000 
  8685.500   23.28125   32.31250   21.26563   27.98438   27.26563   -999.000   -65.0625   -999.000   5745.000   146.9188   0.378711   2.025127   0.167509   3.652344   12.08594   25.13285   62.59999   61.30001   62.10002   -999.000 
  8686.000   25.20313   31.31250   23.06250   29.51563   30.21875   -999.000   -67.5625   -999.000   5700.000   146.9188   0.288488   2.173995   0.186742   3.681641   12.15625   24.17341   62.19999   61.20000   63.70000   -999.000 
  8686.500   26.75000   30.01563   24.53125   29.18750   31.21875   -999.000   -69.6875   -999.000   5740.000   146.9188   0.270845   2.203106   0.170934   3.748047   12.15625   24.95653   66.00000   62.90001   68.80000   -999.000 
  8687.000   27.42188   28.46875   25.21875   27.01563   29.90625   -999.000   -71.6250   -999.000   5710.000   146.9188   0.263211   2.215702   0.191354   3.972656   12.15625   24.44251   68.70000   66.60001   70.40001   -999.000 
  8687.500   27.76563   26.46875   25.59375   24.23438   27.53125   -999.000   -72.6875   -999.000   5740.000   146.9188   0.272852   2.199794   0.187950   4.539062   12.31250   25.29763   69.09999   67.09999   70.80002   -999.000 
  8688.000   27.60938   24.23438   25.50000   22.28125   24.73438   -999.000   -71.9375   -999.000   5720.000   146.9188   0.282177   2.184407   0.175613   5.210937   13.76562   24.52421   68.30000   66.20000   70.30002   -999.000 
  8688.500   26.82813   22.28125   24.87500   21.26563   20.87500   -999.000   -70.4375   -999.000   5710.000   146.9188   0.348679   2.074679   0.128694   5.710937   12.92969   24.30935   67.30000   66.40001   69.60001   -999.000 
  8689.000   25.57813   20.82813   23.73438   20.89063   17.54688   -999.000   -69.9375   -999.000   5760.000   146.9188   0.381520   2.020491   0.105197   6.078125   12.81250   23.68772   64.90001   64.90001   69.60001   -999.000 
  8689.500   22.82813   19.62500   21.01563   20.10938   16.68750   -999.000   -69.5625   -999.000   5720.000   146.9188   0.414720   1.965711   0.078936   6.410156   12.85156   25.15359   64.70000   62.90001   67.39999   -999.000 
  8690.000   21.46875   18.32813   19.81250   17.31250   16.09375   -999.000   -55.1563   -999.000   5700.000   146.9188   0.413420   1.967856   0.056540   6.289062   12.97656   27.60000   64.39999   62.90002   67.29999   -999.000 
