~VERSION INFORMATION
VERS.                               2.00: CWLS LOG ASCII STANDARD VERSION 2.00
WRAP.                               NO  : ONE LINE PER DEPTH STEP               
~WELL INFORMATION
#MNEM.UNIT                     DATA TYPE  INFORMATION
#----------------------------------------------------------------------
STRT.F                            273.00: START DEPTH
STOP.F                           8759.00: STOP DEPTH
STEP.F                              0.50: STEP VALUE
NULL.                            -999.00: NULL VALUE
COMP.                         CONOCO INC: COMPANY                               
WELL.                         ASTOSCH #1: WELL                                  
FLD .            Mid Grd Shoal/Trdng Bay: FIELD                                 
LOC .        10N  13W    3 1300FNL 50FEL: LOCATION                              
CNTY.                              KENAI: COUNTY                                
STAT.                             Alaska: STATE                                 
CTRY.                                 US: COUNTRY                               
SRVC.                                   : SERVICE COMPANY                       
DATE.                                   : LOG DATE                              
API .                   50133204260000  : UNIQUE WELL IDENTIFIER                
~PARAMETER INFORMATION                                                          
#MNEM.UNIT        VALUE   DESCRIPTION                                           
#---------      --------  -----------                                           
ELEV    .F           22.0: KB ELEVATION                                         
TDD     .F         8715.0: TOTAL DEPTH DRILLED                                  
~OTHER INFORMATION                                                              
LGD0    .          2/1/91                                                       
MT0     .          PHPA POLYMER                                                 
LGD0    .          2/13/91                                                      
MT0     .          LOW SOLIDS                                                   
LGD0    .          3/6/91                                                       
MT0     .          LOW SOLIDS                                                   
~CURVE INFORMATION                                                              
#MNEM.UNIT                 DESCRIPTION                                          
#---------                 -----------                                          
DEPTH   .F               :  1 DEPTH
IDPH    .OHMM          00:  2 INDUCTION DB PHASOR                             
IMPH    .OHMM          00:  3 INDUCTION MEDIUM PHASOR                         
ILD     .OHMM          00:  4 INDUCTION LOG DEEP                              
ILM     .OHMM          00:  5 INDUCTION LOG MEDIUM                            
SFL     .OHMM          00:  6 SPHER. OR SHAL. FOC. LOG                        
CAL1    .IN            00:  7 CALIPER                                         
SP      .MV            00:  8 SELF POTENTIAL                                  
GR      .GAPI          00:  9 GAMMA RAY                                       
TENS    .LB            00: 10 TENSION                                         
TEMP    .DEGF          00: 11 CALC TEMP CURVE                                 
DPHI    .V/V           00: 12 DENSITY POROSITY                                
RHOB    .G/C3          00: 13 BULK DENSITY                                    
DRHO    .G/C3          00: 14 DENSITY CORRECTN                                
PEF     .B/E           00: 15 FOTO ELECTRO. XSCT                              
CALI    .IN            00: 16 CALIPER                                         
CNS     .%             00: 17 COMPENSATED NEUT (-S)                           
DT      .US/F          00: 18 INTERV TRANSIT TIME                             
DTL     .US/F          00: 19 INTERV TRANSIT TIME LONG                        
DTL1    .US/F          00: 20 INTERV TRANSIT TIME LONG                        
MSFL    .OHMM          00: 21 MICROSPHERIC. FOC. LOG                          
~A  DEPTH    IDPH       IMPH       ILD        ILM        SFL        CAL1       SP         GR         TENS       TEMP       DPHI       RHOB       DRHO       PEF        CALI       CNS        DT         DTL        DTL1       MSFL                            
# ...
  3160.500   -999.000   -999.000   7.269531   7.171875   7.070312   12.28125   -1.97754   72.37500   3365.000   97.53125   0.213989   2.296917   -.002835   2.953125   12.50000   37.13387   113.5000   114.0000   111.7000   12.54687 
  3161.000   -999.000   -999.000   7.398437   7.257812   7.062500   12.33594   -2.10937   78.43750   3420.000   97.53125   0.212885   2.298740   -.002124   2.867188   12.53906   38.91136   113.7000   112.6000   110.6000   11.78125 
  3161.500   -999.000   -999.000   7.484375   7.375000   6.992187   12.24219   -2.60352   79.81250   3510.000   97.58751   0.210220   2.303137   -.000200   2.869141   12.37500   40.15242   113.2000   113.6000   110.5000   13.14844 
  3162.000   -999.000   -999.000   7.484375   7.488281   7.050781   12.18750   -2.75781   76.43750   3465.000   97.58751   0.188097   2.339640   -.002357   3.183594   12.32812   35.63137   113.0000   113.3000   109.0000   12.08594 
  3162.500   -999.000   -999.000   7.437500   7.511719   7.234375   12.23437   -3.11133   74.37500   3415.000   97.58751   0.170142   2.369266   -.001848   3.392578   12.32812   34.59654   107.7000   106.2000   101.4000   12.07031 
  3163.000   -999.000   -999.000   7.363281   7.359375   7.222656   12.15625   -4.48437   78.87500   3450.000   97.53125   0.166155   2.375844   -.000441   3.455078   12.32812   34.63688   105.7000   104.0000   100.4000   12.58594 
  3163.500   -999.000   -999.000   7.292969   7.207031   6.843750   12.20312   -5.21094   79.50000   3515.000   97.58751   0.189562   2.337222   -.000772   3.191406   12.35156   38.04057   106.2000   104.7000   100.6000   15.47656 
  3164.000   -999.000   -999.000   7.171875   7.070312   6.554687   12.14844   -6.00000   77.37500   3475.000   97.58751   0.213840   2.297164   -.001440   2.982422   12.35156   39.26391   105.9000   105.3000   100.8000   13.75000 
  3164.500   -999.000   -999.000   7.074219   6.953125   6.347656   12.14844   -7.87109   69.06250   3390.000   97.58751   0.225848   2.277350   0.001538   2.964844   12.32812   38.46967   112.5000   113.1000   108.9000   12.99219 
  3165.000   -999.000   -999.000   6.835937   6.816406   6.316406   12.14062   -9.07812   69.00000   3420.000   97.70000   0.230420   2.269807   0.005544   2.832031   12.32812   38.28667   116.3000   115.1000   112.2000   11.06250 
  3165.500   -999.000   -999.000   6.617187   6.695312   6.500000   12.21094   -11.6953   68.31250   3440.000   97.58751   0.240105   2.253827   0.005487   2.851563   12.37500   37.56308   118.4000   117.3000   113.1000   13.03906 
  3166.000   -999.000   -999.000   6.515625   6.523437   6.695312   12.24219   -13.1953   69.12500   3370.000   97.58751   0.244845   2.246006   0.002830   2.867188   12.32812   37.02733   118.9000   118.6000   115.6000   11.14844 
  3166.500   -999.000   -999.000   6.390625   6.382812   6.648437   12.24219   -13.7656   66.81250   3430.000   97.58751   0.247523   2.241586   -.001988   3.019531   12.32812   37.32054   118.7000   118.7000   115.1000   13.27344 
  3167.000   -999.000   -999.000   6.300781   6.312500   6.210937   12.27344   -14.5703   67.62500   3450.000   97.70000   0.241219   2.251988   0.001515   3.054688   12.39844   37.41806   120.6000   118.8000   115.8000   13.90625 
  3167.500   -999.000   -999.000   6.230469   6.261719   5.937500   12.24219   -14.5547   66.37500   3375.000   97.64375   0.239516   2.254798   0.004004   3.056641   12.32812   38.71235   120.3000   118.5000   114.9000   10.72656 
  3168.000   -999.000   -999.000   6.144531   6.257812   6.078125   12.17187   -15.6016   66.18750   3395.000   97.58751   0.246418   2.243411   0.002419   2.957031   12.32812   39.26601   120.4000   119.2000   115.8000   9.914063 
  3168.500   -999.000   -999.000   6.062500   6.136719   6.394531   12.26562   -17.1250   64.31250   3480.000   97.70000   0.254108   2.230721   0.003766   2.892578   12.42187   39.15794   121.5000   119.7000   117.3000   12.85156 
  3169.000   -999.000   -999.000   6.066406   6.000000   6.175781   12.14844   -18.3281   67.25000   3440.000   97.64375   0.253411   2.231873   0.009369   2.826172   12.20312   38.90197   121.5000   121.1000   118.7000   11.09375 
  3169.500   -999.000   -999.000   6.128906   6.027344   5.542969   12.12500   -19.2344   67.93750   3455.000   97.58751   0.247513   2.241603   0.011041   2.724609   12.16406   38.33578   121.2000   120.3000   118.1000   14.10937 
  3170.000   -999.000   -999.000   6.175781   6.214844   5.367187   12.11719   -20.9219   67.00000   3415.000   97.58751   0.240684   2.252871   0.009677   2.753906   12.20312   35.77658   121.0000   119.8000   118.6000   12.57031 
  3170.500   -999.000   -999.000   6.246094   6.378906   5.910156   12.05469   -22.4063   63.00000   3455.000   97.53125   0.237651   2.257876   0.011749   2.785156   12.16406   35.83041   120.0000   120.3000   121.6000   7.562500 
  3171.000   -999.000   -999.000   6.292969   6.500000   6.562500   12.02344   -24.9531   62.34375   3410.000   97.64375   0.243273   2.248600   0.008169   2.867188   12.14844   35.97011   120.9000   120.3000   120.4000   11.12500 
  3171.500   -999.000   -999.000   6.375000   6.585937   6.902344   11.99219   -27.4688   63.18750   3450.000   97.70000   0.249633   2.238105   0.004571   2.894531   12.16406   37.73261   123.0000   121.2000   120.5000   12.07031 
  3172.000   -999.000   -999.000   6.519531   6.707031   7.085937   11.99219   -30.5156   64.00000   3420.000   97.58751   0.255841   2.227862   0.002289   2.906250   12.09375   36.54286   123.7000   122.3000   119.5000   14.11719 
  3172.500   -999.000   -999.000   6.640625   6.816406   7.402344   11.99219   -32.5313   64.68750   3520.000   97.58751   0.257203   2.225615   0.004765   2.949219   12.02344   36.56509   122.5000   121.5000   119.1000   14.66406 
  3173.000   -999.000   -999.000   6.742187   6.921875   7.531250   11.99219   -34.0625   63.90625   3455.000   97.64375   0.259302   2.222152   0.003134   2.880859   12.02344   37.38629   122.1000   120.0000   118.0000   15.57812 
  3173.500   -999.000   -999.000   6.796875   6.953125   7.539062   11.99219   -35.7188   62.25000   3460.000   97.70000   0.259212   2.222300   0.005781   2.890625   12.00000   38.32455   121.2000   119.6000   119.4000   15.81250 
  3174.000   -999.000   -999.000   6.796875   6.964844   7.445312   11.99219   -37.3125   60.50000   3440.000   97.58751   0.263372   2.215436   0.006264   2.875000   12.00000   36.48322   122.8000   122.1000   120.0000   15.35937 
  3174.500   -999.000   -999.000   6.757812   6.933594   7.414062   11.99219   -38.7500   60.25000   3425.000   97.70000   0.267136   2.209226   0.005154   2.955078   12.00000   35.08036   124.1000   122.5000   121.7000   15.03125 
  3175.000   -999.000   -999.000   6.695312   6.867187   7.433594   11.99219   -40.3438   60.37500   3500.000   97.70000   0.269492   2.205338   0.000821   2.849609   12.00000   33.89200   125.0000   124.1000   122.8000   16.73438 
  3175.500   -999.000   -999.000   6.640625   6.781250   7.410156   11.99219   -41.9063   58.81250   3485.000   97.81250   0.270840   2.203114   0.000062   2.794922   12.00000   34.44910   126.5000   125.7000   128.9000   16.25000 
  3176.000   -999.000   -999.000   6.585937   6.726562   7.292969   11.96875   -42.6875   55.06250   3395.000   97.75626   0.271845   2.201456   -.002215   2.767578   12.00000   33.93911   126.8000   124.9000   128.6000   16.45313 
  3176.500   -999.000   -999.000   6.527344   6.683594   7.171875   11.95312   -43.3438   57.18750   3555.000   97.64375   0.274354   2.197317   -.004701   2.755859   12.00000   35.01273   126.3000   125.4000   131.6000   16.00000 
  3177.000   -999.000   -999.000   6.492187   6.652344   7.171875   11.95312   -43.9688   59.65625   3510.000   97.64375   0.273672   2.198442   -.004572   2.773438   12.00000   35.53418   126.6000   126.3000   128.4000   15.99219 
  3177.500   -999.000   -999.000   6.460937   6.613281   7.253906   11.93750   -44.6875   62.15625   3460.000   97.64375   0.272792   2.199893   -.004919   2.791016   12.00000   34.81243   126.6000   123.6000   128.3000   16.10938 
