~VERSION INFORMATION
VERS.                               2.00: CWLS LOG ASCII STANDARD VERSION 2.00
WRAP.                               NO  : ONE LINE PER DEPTH STEP               
~WELL INFORMATION
#MNEM.UNIT                     DATA TYPE  INFORMATION
#----------------------------------------------------------------------
STRT.F                            273.00: START DEPTH
STOP.F                           8759.00: STOP DEPTH
STEP.F                              0.50: STEP VALUE
NULL.                            -999.00: NULL VALUE
COMP.                         CONOCO INC: COMPANY                               
WELL.                         ASTOSCH #1: WELL                                  
FLD .            Mid Grd Shoal/Trdng Bay: FIELD                                 
LOC .        10N  13W    3 1300FNL 50FEL: LOCATION                              
CNTY.                              KENAI: COUNTY                                
STAT.                             Alaska: STATE                                 
CTRY.                                 US: COUNTRY                               
SRVC.                                   : SERVICE COMPANY                       
DATE.                                   : LOG DATE                              
API .                   50133204260000  : UNIQUE WELL IDENTIFIER                
~PARAMETER INFORMATION                                                          
#MNEM.UNIT        VALUE   DESCRIPTION                                           
#---------      --------  -----------                                           
ELEV    .F           22.0: KB ELEVATION                                         
TDD     .F         8715.0: TOTAL DEPTH DRILLED                                  
~OTHER INFORMATION                                                              
LGD0    .          2/1/91                                                       
MT0     .          PHPA POLYMER                                                 
LGD0    .          2/13/91                                                      
MT0     .          LOW SOLIDS                                                   
LGD0    .          3/6/91                                                       
MT0     .          LOW SOLIDS                                                   
~CURVE INFORMATION                                                              
#MNEM.UNIT                 DESCRIPTION                                          
#---------                 -----------                                          
DEPTH   .F               :  1 DEPTH
IDPH    .OHMM          00:  2 INDUCTION DB PHASOR                             
IMPH    .OHMM          00:  3 INDUCTION MEDIUM PHASOR                         
ILD     .OHMM          00:  4 INDUCTION LOG DEEP                              
ILM     .OHMM          00:  5 INDUCTION LOG MEDIUM                            
SFL     .OHMM          00:  6 SPHER. OR SHAL. FOC. LOG                        
CAL1    .IN            00:  7 CALIPER                                         
SP      .MV            00:  8 SELF POTENTIAL                                  
GR      .GAPI          00:  9 GAMMA RAY                                       
TENS    .LB            00: 10 TENSION                                         
TEMP    .DEGF          00: 11 CALC TEMP CURVE                                 
DPHI    .V/V           00: 12 DENSITY POROSITY                                
RHOB    .G/C3          00: 13 BULK DENSITY                                    
DRHO    .G/C3          00: 14 DENSITY CORRECTN                                
PEF     .B/E           00: 15 FOTO ELECTRO. XSCT                              
CALI    .IN            00: 16 CALIPER                                         
CNS     .%             00: 17 COMPENSATED NEUT (-S)                           
DT      .US/F          00: 18 INTERV TRANSIT TIME                             
DTL     .US/F          00: 19 INTERV TRANSIT TIME LONG                        
DTL1    .US/F          00: 20 INTERV TRANSIT TIME LONG                        
MSFL    .OHMM          00: 21 MICROSPHERIC. FOC. LOG                          
~A  DEPTH    IDPH       IMPH       ILD        ILM        SFL        CAL1       SP         GR         TENS       TEMP       DPHI       RHOB       DRHO       PEF        CALI       CNS        DT         DTL        DTL1       MSFL                            
# ...
  5365.500   8.531250   9.101563   8.335938   8.796875   8.921875   9.617188   -63.1875   86.18750   4480.000   130.4375   0.229730   2.270946   0.020536   2.816406   9.218750   43.37815   104.9000   105.7000   103.5000   7.097656 
  5366.000   8.484375   9.484375   8.343750   9.015625   10.59375   9.906250   -60.5625   82.68750   4475.000   130.4375   0.233692   2.264408   0.018907   2.902344   9.218750   44.12308   113.5000   112.7000   108.5000   5.211426 
  5366.500   8.265625   9.343750   8.187500   8.640625   10.09375   9.664063   -63.3750   82.06250   4465.000   130.4375   0.259256   2.222227   0.011063   2.792969   9.304688   46.16453   117.0000   116.7000   110.2000   10.46094 
  5367.000   8.054688   8.703125   8.039063   7.769531   8.773438   9.851563   -62.5000   84.06250   4475.000   130.5500   0.299656   2.155567   0.009987   2.666016   9.453125   49.69529   117.2000   118.3000   113.4000   6.166504 
  5367.500   7.777344   7.875000   7.808594   7.218750   6.937500   10.25781   -61.7500   91.81250   4465.000   130.6063   0.367191   2.044135   0.007983   2.630859   9.625000   58.03793   118.0000   117.9000   113.7000   6.355469 
  5368.000   7.289062   7.136719   7.328125   7.070312   6.066406   9.843750   -60.2500   94.25000   4455.000   130.5500   0.448333   1.910251   0.006819   2.544922   10.07031   60.64171   111.7000   110.3000   113.2000   5.149780 
  5368.500   6.660156   6.570312   6.671875   6.785156   5.855469   9.437500   -59.5938   101.5000   4500.000   130.4937   0.498836   1.826921   0.008609   2.615234   10.17969   58.38354   107.2000   107.8000   107.2000   4.920654 
  5369.000   6.000000   6.101562   5.980469   6.062500   5.648437   9.031250   -58.2500   103.8125   4460.000   130.3813   0.507144   1.813212   0.030050   2.714844   9.992188   52.09409   104.6000   105.1000   103.2000   5.064697 
  5369.500   5.429687   5.621094   5.394531   5.386719   5.378906   9.015625   -57.6875   105.6250   4500.000   130.4375   0.475602   1.865257   0.045624   2.998047   9.375000   46.53996   99.39999   101.6000   98.99998   5.572266 
  5370.000   5.062500   5.109375   5.058594   4.851562   4.597656   9.078125   -56.3438   99.18750   4450.000   130.4937   0.439468   1.924878   0.040010   3.056641   9.140625   43.70481   96.29999   101.2000   93.70000   5.263672 
  5370.500   4.789062   4.632812   4.812500   4.472656   4.148437   9.039063   -55.2188   94.18750   4500.000   130.4937   0.374230   2.032521   0.039391   2.931641   8.960938   40.03823   92.09999   95.40001   90.29999   4.470703 
  5371.000   4.496094   4.253906   4.523437   4.257812   3.984375   9.000000   -43.1250   89.06250   4490.000   130.4937   0.320083   2.121863   0.041953   2.740234   8.890625   41.07072   91.49998   90.00000   87.09999   3.675781 
  5371.500   4.199219   3.980469   4.210937   4.058594   4.007812   8.914063   -2.55273   86.56250   4460.000   130.4375   0.295585   2.162284   0.020824   2.675781   8.890625   38.36691   91.00000   90.20000   87.80002   3.738281 
  5372.000   3.945313   3.783203   3.931641   3.808594   3.843750   8.750000   -56.6250   90.62500   4490.000   130.6063   0.278911   2.189796   0.011446   2.699219   8.890625   37.51106   89.39999   94.60002   94.00002   3.869629 
  5372.500   3.707031   3.625000   3.658203   3.597656   3.550781   8.726563   -57.1563   94.75000   4495.000   130.6063   0.258581   2.223341   0.015740   2.796875   8.890625   34.49616   95.90001   95.00002   95.39999   3.635010 
  5373.000   3.523438   3.468750   3.447266   3.412109   3.341797   8.750000   -55.4375   98.00000   4495.000   130.6063   0.241644   2.251288   0.023278   2.828125   8.726563   35.85844   96.50000   101.6000   95.20001   3.515381 
  5373.500   3.443359   3.302734   3.359375   3.208984   3.240234   8.804688   -30.3125   94.37500   4485.000   130.6625   0.245865   2.244322   0.022102   2.945313   8.726563   35.99245   98.80000   102.0000   96.70001   3.689453 
  5374.000   3.494141   3.173828   3.431641   3.035156   2.736328   8.843750   -52.7188   92.62500   4460.000   130.6625   0.256361   2.227004   0.014991   3.027344   8.726563   37.56947   97.50000   97.60001   103.6000   3.679688 
  5374.500   3.607422   3.142578   3.578125   3.164063   2.333984   8.843750   -53.1875   91.75000   4440.000   130.6625   0.265702   2.211591   0.015251   3.060547   8.726563   39.76336   100.0000   102.2000   109.3000   3.354675 
  5375.000   3.714844   3.271484   3.699219   3.607422   2.261719   8.867188   -52.7188   92.12500   4455.000   130.4937   0.276357   2.194010   0.020167   3.042969   8.726563   38.88014   99.89999   101.4000   105.9000   3.987305 
  5375.500   3.824219   3.589844   3.810547   4.023437   3.099609   8.906250   -52.2188   93.56250   4455.000   130.5500   0.282738   2.183482   0.031770   3.074219   8.726563   40.02000   103.6000   99.40001   104.7000   2.463013 
  5376.000   3.947266   4.082031   3.921875   4.230469   4.281250   8.914063   -51.6250   94.81250   4470.000   130.6063   0.293407   2.165879   0.034649   2.986328   8.726563   42.33516   101.4000   95.39999   96.60001   4.146484 
  5376.500   4.109375   4.625000   4.070312   4.398437   5.007812   9.039063   -50.8125   96.00000   4465.000   130.6063   0.301481   2.152556   0.030298   3.001953   8.726563   43.50773   92.49998   94.10001   96.80000   4.783081 
  5377.000   4.433594   5.015625   4.425781   4.582031   5.109375   9.179688   -49.3750   90.81250   4450.000   130.6063   0.292869   2.166765   0.025771   3.003906   8.835938   42.77777   92.59999   92.10001   99.10002   4.790527 
  5377.500   4.765625   5.152344   4.796875   4.785156   5.085937   9.257813   -50.6875   82.25000   4440.000   130.5500   0.264013   2.214379   0.026569   3.146484   8.937500   38.93349   95.99998   95.10001   100.1000   5.583008 
  5378.000   5.023437   5.128906   5.070312   4.941406   4.937500   9.296875   -50.6250   77.50000   4475.000   130.5500   0.227903   2.273961   0.020060   3.171875   9.054688   37.71929   97.10001   93.40001   99.70000   4.972656 
  5378.500   5.191406   5.078125   5.242187   5.066406   4.832031   9.289063   -50.4688   74.12500   4450.000   130.5500   0.190154   2.336246   0.021244   2.984375   9.054688   36.50533   96.29999   93.00000   96.09998   5.474609 
  5379.000   5.285156   5.085937   5.328125   5.164062   4.792969   9.351563   -50.0000   83.06250   4470.000   130.4937   0.167382   2.373820   0.027188   3.087891   9.054688   36.28585   92.70000   92.20000   96.20000   6.914062 
  5379.500   5.257812   5.160156   5.273437   5.253906   4.867187   9.250000   -49.8750   85.68750   4440.000   130.4937   0.152368   2.398592   0.032558   2.923828   9.054688   36.12621   94.00002   91.00000   95.50000   6.166016 
  5380.000   5.238281   5.269531   5.230469   5.289062   5.078125   9.234375   -49.5938   92.62500   4460.000   130.5500   0.160618   2.384980   0.018898   2.931641   9.054688   35.68102   93.79999   91.50000   93.20003   6.229004 
  5380.500   5.246094   5.367187   5.214844   5.285156   5.335937   9.234375   -50.5625   90.93750   4455.000   130.6063   0.145921   2.409230   0.019825   2.968750   9.054688   36.23345   93.50000   91.10001   89.70001   5.390869 
  5381.000   5.257812   5.410156   5.214844   5.246094   5.496094   9.187500   -51.4063   89.56250   4455.000   130.6063   0.134304   2.428399   0.011674   3.345703   9.015625   36.32101   92.30000   88.70000   90.89999   5.757324 
  5381.500   5.257812   5.394531   5.203125   5.234375   5.351562   9.101563   -52.4375   93.12500   4470.000   130.6063   0.113155   2.463294   0.013510   3.611328   8.898438   36.41481   90.70000   90.20001   89.60004   6.991211 
  5382.000   5.222656   5.343750   5.152344   5.273437   4.964844   9.015625   -48.9688   92.62500   4455.000   130.6063   0.104497   2.477581   0.011046   3.626953   8.890625   35.34920   88.10001   84.70000   86.70000   5.462891 
  5382.500   5.203125   5.308594   5.125000   5.296875   4.691406   9.039063   -41.5938   95.18750   4460.000   130.6063   0.105636   2.475701   0.012654   3.617188   8.875000   34.85103   90.49998   87.30000   87.10002   4.663086 
