~VERSION INFORMATION
VERS.                               2.00: CWLS LOG ASCII STANDARD VERSION 2.00
WRAP.                               NO  : ONE LINE PER DEPTH STEP               
~WELL INFORMATION
#MNEM.UNIT                     DATA TYPE  INFORMATION
#----------------------------------------------------------------------
STRT.F                            273.00: START DEPTH
STOP.F                           8759.00: STOP DEPTH
STEP.F                              0.50: STEP VALUE
NULL.                            -999.00: NULL VALUE
COMP.                         CONOCO INC: COMPANY                               
WELL.                         ASTOSCH #1: WELL                                  
FLD .            Mid Grd Shoal/Trdng Bay: FIELD                                 
LOC .        10N  13W    3 1300FNL 50FEL: LOCATION                              
CNTY.                              KENAI: COUNTY                                
STAT.                             Alaska: STATE                                 
CTRY.                                 US: COUNTRY                               
SRVC.                                   : SERVICE COMPANY                       
DATE.                                   : LOG DATE                              
API .                   50133204260000  : UNIQUE WELL IDENTIFIER                
~PARAMETER INFORMATION                                                          
#MNEM.UNIT        VALUE   DESCRIPTION                                           
#---------      --------  -----------                                           
ELEV    .F           22.0: KB ELEVATION                                         
TDD     .F         8715.0: TOTAL DEPTH DRILLED                                  
~OTHER INFORMATION                                                              
LGD0    .          2/1/91                                                       
MT0     .          PHPA POLYMER                                                 
LGD0    .          2/13/91                                                      
MT0     .          LOW SOLIDS                                                   
LGD0    .          3/6/91                                                       
MT0     .          LOW SOLIDS                                                   
~CURVE INFORMATION                                                              
#MNEM.UNIT                 DESCRIPTION                                          
#---------                 -----------                                          
DEPTH   .F               :  1 DEPTH
IDPH    .OHMM          00:  2 INDUCTION DB PHASOR                             
IMPH    .OHMM          00:  3 INDUCTION MEDIUM PHASOR                         
ILD     .OHMM          00:  4 INDUCTION LOG DEEP                              
ILM     .OHMM          00:  5 INDUCTION LOG MEDIUM                            
SFL     .OHMM          00:  6 SPHER. OR SHAL. FOC. LOG                        
CAL1    .IN            00:  7 CALIPER                                         
SP      .MV            00:  8 SELF POTENTIAL                                  
GR      .GAPI          00:  9 GAMMA RAY                                       
TENS    .LB            00: 10 TENSION                                         
TEMP    .DEGF          00: 11 CALC TEMP CURVE                                 
DPHI    .V/V           00: 12 DENSITY POROSITY                                
RHOB    .G/C3          00: 13 BULK DENSITY                                    
DRHO    .G/C3          00: 14 DENSITY CORRECTN                                
PEF     .B/E           00: 15 FOTO ELECTRO. XSCT                              
CALI    .IN            00: 16 CALIPER                                         
CNS     .%             00: 17 COMPENSATED NEUT (-S)                           
DT      .US/F          00: 18 INTERV TRANSIT TIME                             
DTL     .US/F          00: 19 INTERV TRANSIT TIME LONG                        
DTL1    .US/F          00: 20 INTERV TRANSIT TIME LONG                        
MSFL    .OHMM          00: 21 MICROSPHERIC. FOC. LOG                          
~A  DEPTH    IDPH       IMPH       ILD        ILM        SFL        CAL1       SP         GR         TENS       TEMP       DPHI       RHOB       DRHO       PEF        CALI       CNS        DT         DTL        DTL1       MSFL                            
# ...
  2600.500   -999.000   -999.000   9.046875   9.390625   8.101563   12.62500   -24.5938   44.56250   2965.000   94.66251   0.222150   2.283453   -.014910   2.753906   12.82031   28.89960   148.1000   114.5000   108.5000   75.62500 
  2601.000   -999.000   -999.000   7.898437   8.125000   5.988281   12.82812   -26.5938   43.03125   2890.000   94.71875   0.241737   2.251133   -.010124   2.708984   12.87500   31.26225   142.0000   116.9000   115.0000   13.64844 
  2601.500   -999.000   -999.000   7.214844   7.128906   5.425781   12.81250   -28.3594   44.31250   2815.000   94.71875   0.240953   2.252428   -.003636   2.759766   12.90625   32.74798   144.5000   116.1000   116.3000   12.64844 
  2602.000   -999.000   -999.000   6.558594   6.539062   5.367187   12.77344   -29.0781   45.21875   2770.000   94.66251   0.238004   2.257293   -.004682   2.738281   12.82031   31.83009   139.5000   124.0000   113.9000   12.67187 
  2602.500   -999.000   -999.000   6.066406   6.117187   5.535156   12.70312   -29.5938   46.50000   2885.000   94.66251   0.235515   2.261401   -.006205   2.634766   12.82031   31.73096   111.8000   122.0000   112.0000   12.41406 
  2603.000   -999.000   -999.000   5.781250   5.859375   5.902344   12.64062   -29.3438   47.46875   2800.000   94.66251   0.224455   2.279648   -.003686   2.480469   12.79687   29.77237   111.4000   114.1000   110.5000   12.10156 
  2603.500   -999.000   -999.000   5.601562   5.738281   6.421875   12.65625   -29.7031   45.00000   2880.000   94.71875   0.221343   2.284783   -.006037   2.523438   12.82031   29.36226   111.8000   111.8000   110.2000   12.17187 
  2604.000   -999.000   -999.000   5.527344   5.691406   7.000000   12.65625   -29.7344   44.40625   2830.000   94.71875   0.210189   2.303188   -.006646   2.623047   12.82031   28.18450   112.0000   112.7000   110.6000   13.33594 
  2604.500   -999.000   -999.000   5.500000   5.656250   7.335937   12.65625   -30.1094   44.31250   2835.000   94.71875   0.212307   2.299693   -.009624   2.748047   12.82031   26.82923   112.1000   110.8000   111.2000   15.06250 
  2605.000   -999.000   -999.000   5.515625   5.605469   7.507812   12.64844   -30.4531   44.65625   2870.000   94.77501   0.211776   2.300570   -.008335   2.820313   12.82031   26.40674   111.1000   109.3000   101.3000   14.92969 
  2605.500   -999.000   -999.000   5.589844   5.562500   7.078125   12.74219   -29.6719   45.34375   2785.000   94.60625   0.220327   2.286460   -.006929   2.826172   12.82031   27.41221   110.7000   107.7000   105.8000   19.59375 
  2606.000   -999.000   -999.000   5.710937   5.589844   6.289062   12.75000   -27.4531   47.50000   2850.000   94.66251   0.221084   2.285211   -.006144   2.726563   12.82812   29.01994   109.4000   106.1000   106.1000   15.56250 
  2606.500   -999.000   -999.000   5.835937   5.703125   5.750000   12.75000   -25.3906   48.65625   2790.000   94.66251   0.220194   2.286679   -.005421   2.699219   12.89062   29.46685   107.3000   103.9000   103.9000   12.64844 
  2607.000   -999.000   -999.000   6.058594   5.875000   5.746094   12.76562   -22.3438   48.65625   2880.000   94.66251   0.206562   2.309173   -.001031   2.683594   12.85937   28.94095   105.5000   101.0000   87.09999   13.82031 
  2607.500   -999.000   -999.000   6.281250   6.097656   5.925781   12.75000   -20.2656   45.56250   2890.000   94.66251   0.197984   2.323327   0.000205   2.832031   12.91406   29.76107   104.2000   96.59999   80.90001   12.20312 
  2608.000   -999.000   -999.000   6.496094   6.351562   6.003906   12.78125   -18.5000   47.34375   2840.000   94.71875   0.189023   2.338112   -.000512   2.865234   12.92187   29.79166   103.8000   90.50000   89.30000   12.58594 
  2608.500   -999.000   -999.000   6.664062   6.535156   6.050781   12.75000   -16.7656   48.37500   2790.000   94.71875   0.187990   2.339817   -.001349   2.931641   12.93750   30.65867   104.0000   91.19998   103.9000   12.01562 
  2609.000   -999.000   -999.000   6.738281   6.730469   6.074219   12.83594   -15.4453   51.68750   2825.000   94.66251   0.188099   2.339637   -.000942   2.925781   12.93750   30.48727   103.8000   100.6000   104.4000   8.890625 
  2609.500   -999.000   -999.000   6.750000   6.761719   6.121094   12.85937   -13.7969   53.90625   2885.000   94.71875   0.193314   2.331031   -.002232   2.863281   12.98437   31.53329   105.1000   101.5000   100.3000   9.968750 
  2610.000   -999.000   -999.000   6.734375   6.648437   6.003906   12.85937   -13.3750   54.15625   2875.000   94.77501   0.200292   2.319518   -.005434   2.964844   12.98437   31.35647   107.5000   102.2000   99.70003   9.742188 
  2610.500   -999.000   -999.000   6.671875   6.394531   5.589844   12.86719   -13.2500   54.28125   2895.000   94.71875   0.200545   2.319101   -.003411   2.791016   12.98437   33.23766   108.3000   102.1000   99.10002   9.406250 
  2611.000   -999.000   -999.000   6.683594   6.218750   5.226562   12.84375   -12.8906   49.46875   2850.000   94.71875   0.200923   2.318477   -.001168   2.787109   12.98437   35.34785   108.2000   102.8000   99.40001   8.679688 
  2611.500   -999.000   -999.000   6.789062   6.242187   5.066406   13.01562   -12.7578   50.87500   2855.000   94.77501   0.204093   2.313246   -.002145   2.615234   12.98437   35.54425   108.7000   102.4000   100.8000   9.039063 
  2612.000   -999.000   -999.000   7.078125   6.554687   5.132812   12.68750   -12.4844   49.56250   2910.000   94.88750   0.205292   2.311268   -.001141   2.742188   12.99219   33.91899   104.0000   93.30000   90.99998   9.093750 
  2612.500   -999.000   -999.000   7.437500   7.226562   5.828125   12.60937   -11.8437   48.25000   2815.000   94.83125   0.199932   2.320113   -.000218   2.966797   13.14062   32.68610   97.00000   81.00002   78.40002   8.937500 
  2613.000   -999.000   -999.000   7.707031   8.210938   7.195312   12.68750   -11.0469   45.43750   2830.000   94.77501   0.182853   2.348292   -.000147   3.455078   12.84375   32.36126   85.20000   73.89999   70.39999   8.820313 
  2613.500   -999.000   -999.000   8.085938   8.820313   11.53125   12.77344   -9.67187   45.56250   2865.000   94.71875   0.162096   2.382541   0.001628   3.746094   12.83594   30.09584   80.19998   79.00000   63.60001   9.218750 
  2614.000   -999.000   -999.000   8.421875   9.453125   13.65625   12.81250   -8.78906   47.78125   2900.000   94.77501   0.150902   2.401011   0.004611   3.527344   12.95312   28.40962   84.29999   84.70000   75.09999   9.679688 
  2614.500   -999.000   -999.000   8.531250   9.531250   13.41406   12.83594   -8.71094   50.96875   2940.000   94.66251   0.170436   2.368781   0.001122   3.238281   12.98437   30.71747   91.29999   88.00002   79.40001   13.88281 
  2615.000   -999.000   -999.000   8.328125   9.164063   10.38281   12.84375   -9.92187   51.40625   2850.000   94.66251   0.199486   2.320848   -.002795   3.050781   12.98437   35.54908   104.4000   100.2000   94.70000   10.28906 
  2615.500   -999.000   -999.000   7.910156   8.164063   7.457031   12.81250   -11.1250   54.37500   2890.000   94.71875   0.219137   2.288424   -.004297   2.935547   12.98437   38.16999   111.3000   109.1000   103.1000   8.601563 
  2616.000   -999.000   -999.000   7.246094   7.156250   6.195312   12.85937   -12.5312   54.71875   2920.000   94.77501   0.226370   2.276489   -.005811   2.908203   12.98437   38.19803   113.9000   110.6000   125.4000   9.031250 
  2616.500   -999.000   -999.000   6.648437   6.593750   5.375000   12.89062   -14.5078   56.12500   2925.000   94.77501   0.225298   2.278258   -.007009   2.841797   12.98437   38.60107   115.5000   110.8000   116.2000   8.960938 
  2617.000   -999.000   -999.000   6.386719   6.109375   5.144531   12.92969   -16.2344   51.96875   2930.000   94.77501   0.222332   2.283152   -.005789   2.857422   13.00000   38.28162   114.8000   112.3000   114.9000   8.976563 
  2617.500   -999.000   -999.000   6.105469   5.925781   5.125000   12.95312   -17.3750   48.00000   2835.000   94.88750   0.220932   2.285463   -.006338   2.814453   13.03906   33.95518   112.9000   112.1000   115.8000   8.804688 
