~VERSION INFORMATION
VERS.                               2.00: CWLS LOG ASCII STANDARD VERSION 2.00
WRAP.                               NO  : ONE LINE PER DEPTH STEP               
~WELL INFORMATION
#MNEM.UNIT                     DATA TYPE  INFORMATION
#----------------------------------------------------------------------
STRT.F                            273.00: START DEPTH
STOP.F                           8759.00: STOP DEPTH
STEP.F                              0.50: STEP VALUE
NULL.                            -999.00: NULL VALUE
COMP.                         CONOCO INC: COMPANY                               
WELL.                         ASTOSCH #1: WELL                                  
FLD .            Mid Grd Shoal/Trdng Bay: FIELD                                 
LOC .        10N  13W    3 1300FNL 50FEL: LOCATION                              
CNTY.                              KENAI: COUNTY                                
STAT.                             Alaska: STATE                                 
CTRY.                                 US: COUNTRY                               
SRVC.                                   : SERVICE COMPANY                       
DATE.                                   : LOG DATE                              
API .                   50133204260000  : UNIQUE WELL IDENTIFIER                
~PARAMETER INFORMATION                                                          
#MNEM.UNIT        VALUE   DESCRIPTION                                           
#---------      --------  -----------                                           
ELEV    .F           22.0: KB ELEVATION                                         
TDD     .F         8715.0: TOTAL DEPTH DRILLED                                  
~OTHER INFORMATION                                                              
LGD0    .          2/1/91                                                       
MT0     .          PHPA POLYMER                                                 
LGD0    .          2/13/91                                                      
MT0     .          LOW SOLIDS                                                   
LGD0    .          3/6/91                                                       
MT0     .          LOW SOLIDS                                                   
~CURVE INFORMATION                                                              
#MNEM.UNIT                 DESCRIPTION                                          
#---------                 -----------                                          
DEPTH   .F               :  1 DEPTH
IDPH    .OHMM          00:  2 INDUCTION DB PHASOR                             
IMPH    .OHMM          00:  3 INDUCTION MEDIUM PHASOR                         
ILD     .OHMM          00:  4 INDUCTION LOG DEEP                              
ILM     .OHMM          00:  5 INDUCTION LOG MEDIUM                            
SFL     .OHMM          00:  6 SPHER. OR SHAL. FOC. LOG                        
CAL1    .IN            00:  7 CALIPER                                         
SP      .MV            00:  8 SELF POTENTIAL                                  
GR      .GAPI          00:  9 GAMMA RAY                                       
TENS    .LB            00: 10 TENSION                                         
TEMP    .DEGF          00: 11 CALC TEMP CURVE                                 
DPHI    .V/V           00: 12 DENSITY POROSITY                                
RHOB    .G/C3          00: 13 BULK DENSITY                                    
DRHO    .G/C3          00: 14 DENSITY CORRECTN                                
PEF     .B/E           00: 15 FOTO ELECTRO. XSCT                              
CALI    .IN            00: 16 CALIPER                                         
CNS     .%             00: 17 COMPENSATED NEUT (-S)                           
DT      .US/F          00: 18 INTERV TRANSIT TIME                             
DTL     .US/F          00: 19 INTERV TRANSIT TIME LONG                        
DTL1    .US/F          00: 20 INTERV TRANSIT TIME LONG                        
MSFL    .OHMM          00: 21 MICROSPHERIC. FOC. LOG                          
~A  DEPTH    IDPH       IMPH       ILD        ILM        SFL        CAL1       SP         GR         TENS       TEMP       DPHI       RHOB       DRHO       PEF        CALI       CNS        DT         DTL        DTL1       MSFL                            
# ...
  4263.000   5.394531   4.964844   5.253906   5.175781   5.289062   8.695313   -39.1875   93.68750   4100.000   121.6062   0.262221   2.217335   0.012268   2.855469   8.570313   45.32147   100.9000   98.89999   99.90002   5.148437 
  4263.500   5.226562   5.046875   5.105469   5.066406   5.773437   8.734375   -76.0000   92.25000   4110.000   121.6625   0.266312   2.210584   0.011749   2.720703   8.562500   45.11285   98.89999   101.9000   100.0000   4.952637 
  4264.000   5.148437   5.109375   5.042969   4.976562   6.261719   8.726563   -76.0625   90.00000   4110.000   121.7188   0.265599   2.211762   0.011306   2.949219   8.562500   44.06586   103.3000   103.7000   103.7000   4.651367 
  4264.500   5.128906   5.097656   5.039062   4.894531   5.984375   8.648438   -74.6250   90.93750   4110.000   121.5500   0.255441   2.228522   0.015358   2.849609   8.476563   45.92982   106.0000   104.8000   105.7000   5.426758 
  4265.000   5.171875   5.015625   5.101562   4.808594   5.230469   8.601563   -73.9375   89.00000   4090.000   121.6625   0.256795   2.226288   0.021198   2.994141   8.429688   44.34729   105.9000   104.7000   104.2000   5.292480 
  4265.500   5.183594   4.917969   5.128906   4.824219   4.722656   8.578125   -74.9375   87.37500   4100.000   121.7750   0.250711   2.236327   0.031338   2.949219   8.359375   43.24878   104.9000   103.3000   105.0000   4.485352 
  4266.000   5.128906   4.843750   5.062500   4.878906   4.671875   8.578125   -74.6875   90.68750   4110.000   121.7188   0.253666   2.231451   0.038758   3.076172   8.398438   40.61095   109.7000   107.8000   105.8000   4.716797 
  4266.500   5.074219   4.773437   4.996094   4.746094   5.019531   8.578125   -73.8750   91.31250   4100.000   121.7750   0.249408   2.238476   0.039833   2.919922   8.218750   43.98849   109.5000   108.3000   108.2000   6.192383 
  4267.000   5.058594   4.699219   4.988281   4.511719   4.949219   8.593750   -73.3750   92.31250   4090.000   121.7188   0.259034   2.222594   0.037865   2.933594   8.234375   45.85567   111.1000   110.7000   107.3000   4.529297 
  4267.500   5.070312   4.625000   5.011719   4.480469   4.453125   8.507813   -68.1250   94.50000   4100.000   121.6625   0.268689   2.206663   0.019601   3.001953   8.351563   47.50616   113.8000   110.5000   107.7000   4.184082 
  4268.000   5.117187   4.597656   5.082031   4.636719   4.039062   8.460938   -34.1875   97.31250   4115.000   121.6625   0.272995   2.199558   0.013676   3.246094   8.492188   46.91388   107.5000   105.9000   105.0000   4.362793 
  4268.500   5.144531   4.660156   5.125000   4.820312   4.234375   8.460938   -75.4375   95.56250   4080.000   121.6625   0.263449   2.215309   0.012540   3.146484   8.789063   42.50162   104.7000   104.7000   104.7000   4.699860 
  4269.000   5.109375   4.808594   5.074219   4.933594   4.625000   8.453125   -75.3750   93.87500   4130.000   121.7188   0.250726   2.236302   0.019407   3.039063   8.507813   41.01208   102.6000   101.8000   101.5000   5.007324 
  4269.500   5.093750   4.980469   5.046875   4.988281   4.910156   8.421875   -75.1875   91.00000   4120.000   121.6625   0.234588   2.262929   0.034102   2.910156   8.437500   41.34401   103.7000   103.4000   100.8000   4.965332 
  4270.000   5.148437   5.085937   5.105469   4.929687   5.085937   8.375000   -75.3125   91.81250   4100.000   121.6062   0.226945   2.275541   0.047663   3.076172   8.664063   42.63317   103.8000   104.9000   102.0000   5.983307 
  4270.500   5.207031   5.082031   5.167969   4.828125   4.953125   8.406250   -75.6250   91.87500   4100.000   121.6625   0.234737   2.262684   0.050535   3.244141   8.562500   43.60521   103.8000   103.9000   105.9000   5.225342 
  4271.000   5.289062   5.015625   5.257812   4.828125   4.636719   8.609375   -75.9375   93.18750   4090.000   121.6625   0.244361   2.246805   0.051001   3.226563   8.562500   42.62048   105.6000   105.8000   107.5000   5.267578 
  4271.500   5.371094   4.964844   5.347656   4.976562   4.492187   9.062500   -76.3750   94.56250   4125.000   121.6625   0.251563   2.234921   0.045624   3.000000   8.562500   40.83265   103.7000   104.6000   105.4000   4.655273 
  4272.000   5.398437   4.980469   5.363281   5.105469   4.687500   8.804688   -54.5000   93.37500   4130.000   121.6625   0.247867   2.241020   0.037613   2.990234   8.625000   39.13276   104.3000   104.6000   106.9000   5.249573 
  4272.500   5.367187   5.050781   5.312500   5.109375   4.988281   8.515625   -76.0625   93.87500   4105.000   121.6625   0.233496   2.264731   0.040952   3.025391   8.742188   38.61733   106.9000   104.5000   110.2000   4.591553 
  4273.000   5.343750   5.121094   5.277344   5.035156   5.156250   8.484375   -76.5625   94.50000   4130.000   121.6625   0.233019   2.265519   0.032770   3.162109   8.929688   41.14064   105.4000   104.2000   112.7000   5.567627 
  4273.500   5.335937   5.136719   5.265625   4.984375   5.089844   8.523438   -76.6250   89.50000   4140.000   121.7188   0.238726   2.256102   0.031046   3.062500   9.179688   43.88578   105.7000   105.6000   113.4000   4.788086 
  4274.000   5.343750   5.097656   5.277344   4.941406   4.957031   8.335938   -77.1875   90.56250   4130.000   121.7188   0.245145   2.245511   0.031928   3.021484   9.125000   45.90144   105.8000   105.9000   107.3000   4.930420 
  4274.500   5.355469   5.031250   5.296875   4.925781   4.839844   8.648438   -77.6875   91.56250   4080.000   121.7188   0.248554   2.239886   0.031541   2.984375   8.890625   45.27166   105.9000   107.2000   108.2000   4.605469 
  4275.000   5.343750   4.976562   5.285156   4.953125   4.757812   8.625000   -91.1250   95.18750   4130.000   121.6625   0.249779   2.237865   0.035164   2.876953   8.906250   46.27599   106.1000   106.2000   107.5000   4.327148 
  4275.500   5.324219   4.960937   5.265625   4.964844   4.640625   8.710938   -77.0625   93.56250   4105.000   121.6625   0.257224   2.225581   0.035757   2.898438   8.890625   43.62110   104.1000   106.9000   103.4000   4.368408 
  4276.000   5.304687   4.980469   5.242187   4.972656   4.632812   8.906250   -76.4375   89.00000   4140.000   121.7750   0.261357   2.218761   0.030090   2.861328   8.890625   44.15578   105.3000   105.5000   100.6000   4.075928 
  4276.500   5.277344   5.027344   5.199219   4.996094   4.648437   9.156250   -75.8750   92.31250   4090.000   121.7750   0.267379   2.208825   0.015630   2.851563   8.757813   40.65852   106.3000   109.0000   100.9000   4.041443 
  4277.000   5.269531   5.074219   5.191406   5.011719   4.812500   8.929688   -76.1875   95.81250   4135.000   121.7750   0.258478   2.223512   0.014431   2.806641   8.726563   40.88656   107.9000   109.3000   102.1000   4.046875 
  4277.500   5.285156   5.121094   5.210937   5.027344   4.898437   8.945313   -76.4375   98.62500   4115.000   121.8875   0.261886   2.217887   0.008448   2.761719   8.726563   40.99435   103.8000   107.0000   103.4000   4.110840 
  4278.000   5.296875   5.152344   5.226562   5.074219   4.941406   8.976563   -77.1250   93.00000   4130.000   121.8875   0.259273   2.222199   0.007355   2.716797   8.703125   45.65049   104.7000   106.0000   103.5000   4.460693 
  4278.500   5.304687   5.167969   5.246094   5.109375   4.937500   9.156250   -77.4375   91.43750   4130.000   121.8875   0.252619   2.233178   0.005109   2.791016   8.593750   44.82228   104.9000   113.9000   106.2000   4.578125 
  4279.000   5.312500   5.171875   5.261719   5.109375   5.015625   9.085938   -76.7500   90.81250   4120.000   121.8875   0.229754   2.270905   0.009480   2.962891   8.562500   43.91825   103.7000   115.3000   103.7000   5.757812 
  4279.500   5.289062   5.148437   5.242187   5.062500   5.078125   8.648438   -76.7500   90.25000   4120.000   121.8875   0.210840   2.302114   0.013944   3.226563   8.640625   41.45724   107.7000   112.3000   103.8000   5.207031 
  4280.000   5.242187   5.097656   5.187500   4.996094   5.019531   8.750000   -68.5625   83.37500   4125.000   121.8875   0.201797   2.317036   0.023778   3.166016   8.562500   42.62354   108.0000   114.2000   106.4000   5.181641 
