~VERSION INFORMATION
VERS.                               2.00: CWLS LOG ASCII STANDARD VERSION 2.00
WRAP.                               NO  : ONE LINE PER DEPTH STEP               
~WELL INFORMATION
#MNEM.UNIT                     DATA TYPE  INFORMATION
#----------------------------------------------------------------------
STRT.F                            273.00: START DEPTH
STOP.F                           8759.00: STOP DEPTH
STEP.F                              0.50: STEP VALUE
NULL.                            -999.00: NULL VALUE
COMP.                         CONOCO INC: COMPANY                               
WELL.                         ASTOSCH #1: WELL                                  
FLD .            Mid Grd Shoal/Trdng Bay: FIELD                                 
LOC .        10N  13W    3 1300FNL 50FEL: LOCATION                              
CNTY.                              KENAI: COUNTY                                
STAT.                             Alaska: STATE                                 
CTRY.                                 US: COUNTRY                               
SRVC.                                   : SERVICE COMPANY                       
DATE.                                   : LOG DATE                              
API .                   50133204260000  : UNIQUE WELL IDENTIFIER                
~PARAMETER INFORMATION                                                          
#MNEM.UNIT        VALUE   DESCRIPTION                                           
#---------      --------  -----------                                           
ELEV    .F           22.0: KB ELEVATION                                         
TDD     .F         8715.0: TOTAL DEPTH DRILLED                                  
~OTHER INFORMATION                                                              
LGD0    .          2/1/91                                                       
MT0     .          PHPA POLYMER                                                 
LGD0    .          2/13/91                                                      
MT0     .          LOW SOLIDS                                                   
LGD0    .          3/6/91                                                       
MT0     .          LOW SOLIDS                                                   
~CURVE INFORMATION                                                              
#MNEM.UNIT                 DESCRIPTION                                          
#---------                 -----------                                          
DEPTH   .F               :  1 DEPTH
IDPH    .OHMM          00:  2 INDUCTION DB PHASOR                             
IMPH    .OHMM          00:  3 INDUCTION MEDIUM PHASOR                         
ILD     .OHMM          00:  4 INDUCTION LOG DEEP                              
ILM     .OHMM          00:  5 INDUCTION LOG MEDIUM                            
SFL     .OHMM          00:  6 SPHER. OR SHAL. FOC. LOG                        
CAL1    .IN            00:  7 CALIPER                                         
SP      .MV            00:  8 SELF POTENTIAL                                  
GR      .GAPI          00:  9 GAMMA RAY                                       
TENS    .LB            00: 10 TENSION                                         
TEMP    .DEGF          00: 11 CALC TEMP CURVE                                 
DPHI    .V/V           00: 12 DENSITY POROSITY                                
RHOB    .G/C3          00: 13 BULK DENSITY                                    
DRHO    .G/C3          00: 14 DENSITY CORRECTN                                
PEF     .B/E           00: 15 FOTO ELECTRO. XSCT                              
CALI    .IN            00: 16 CALIPER                                         
CNS     .%             00: 17 COMPENSATED NEUT (-S)                           
DT      .US/F          00: 18 INTERV TRANSIT TIME                             
DTL     .US/F          00: 19 INTERV TRANSIT TIME LONG                        
DTL1    .US/F          00: 20 INTERV TRANSIT TIME LONG                        
MSFL    .OHMM          00: 21 MICROSPHERIC. FOC. LOG                          
~A  DEPTH    IDPH       IMPH       ILD        ILM        SFL        CAL1       SP         GR         TENS       TEMP       DPHI       RHOB       DRHO       PEF        CALI       CNS        DT         DTL        DTL1       MSFL                            
# ...
  1498.000   -999.000   -999.000   9.570313   9.351563   7.878906   2.441406   -35.3125   37.81250   398.0000   73.99063   0.250027   2.237456   0.010656   3.185547   13.79687   63.49917   55.80000   54.50001   64.30000   11.39844 
  1498.500   -999.000   -999.000   9.531250   9.359375   8.640625   2.441406   -35.3438   33.06250   400.5000   73.99063   0.251127   2.235641   0.007147   3.402344   13.73437   66.86336   53.40000   50.00000   64.29999   11.39844 
  1499.000   -999.000   -999.000   9.539063   9.367188   9.171875   2.441406   -33.6875   29.90625   403.0000   73.99063   0.248957   2.239220   0.009968   3.353516   13.64844   65.00023   55.70000   49.29999   64.00002   11.39844 
  1499.500   -999.000   -999.000   9.617188   9.375000   9.054688   2.441406   -31.6563   30.96875   401.2500   73.99063   0.250766   2.236236   0.010152   3.341797   13.64844   65.87074   57.70000   64.79999   65.00000   11.39844 
  1500.000   -999.000   -999.000   9.757813   9.414063   8.562500   2.441406   -29.7969   34.43750   398.0000   73.99063   0.255909   2.227750   0.007387   3.031250   13.75781   69.23106   67.90001   58.50000   66.09999   11.39844 
  1500.500   -999.000   -999.000   9.882813   9.539063   8.289063   2.441406   -33.6563   35.31250   400.5000   73.99063   0.257190   2.225637   0.004888   2.890625   14.01562   70.78078   67.00000   66.80000   13.59999   11.39844 
  1501.000   -999.000   -999.000   9.937500   9.664063   8.367188   2.441406   -35.8438   35.46875   403.0000   73.99063   0.248390   2.240156   0.008048   2.921875   14.06250   68.89259   68.09999   66.30000   -38.2000   11.39844 
  1501.500   -999.000   -999.000   9.937500   9.718750   8.679688   2.441406   -34.7500   36.18750   401.7500   73.99063   0.243463   2.248286   0.006380   2.976563   14.40625   64.59390   64.50000   65.10001   12.90001   11.39844 
  1502.000   -999.000   -999.000   9.921875   9.718750   8.953125   2.441406   -35.7188   35.62500   398.0000   73.99063   0.248355   2.240213   0.002159   3.146484   13.73437   64.49377   65.70000   65.60001   3.600006   11.39844 
  1502.500   -999.000   -999.000   9.882813   9.703125   9.000000   2.441406   -36.5938   34.71875   400.5000   73.99063   0.249213   2.238798   0.004105   3.162109   13.64062   61.73763   72.99998   64.70000   64.20000   11.39844 
  1503.000   -999.000   -999.000   9.835938   9.632813   8.968750   2.441406   -36.0625   34.84375   403.0000   73.99063   0.249479   2.238359   0.003470   3.242188   13.88281   59.51822   73.39999   66.89999   65.40001   11.39844 
  1503.500   -999.000   -999.000   9.804688   9.539063   8.921875   2.441406   -36.0313   35.34375   401.7500   73.99063   0.253222   2.232184   -.000520   3.210938   14.03125   56.92831   73.50000   65.19998   65.40001   11.39844 
  1504.000   -999.000   -999.000   9.804688   9.453125   8.750000   2.441406   -36.0313   31.92188   396.7500   73.99063   0.263066   2.215941   -.000053   3.066406   13.80469   58.05490   63.30000   63.89999   66.30000   11.39844 
  1504.500   -999.000   -999.000   9.820313   9.421875   8.304688   2.441406   -35.2500   31.34375   400.5000   73.99063   0.273896   2.198071   -.001404   2.933594   13.82031   57.58627   63.40001   65.49998   55.80000   11.39844 
  1505.000   -999.000   -999.000   9.898438   9.476563   7.964844   2.441406   -35.4688   33.21875   403.0000   73.99063   0.274458   2.197145   -.003009   2.980469   14.10937   60.64018   57.00000   73.40001   36.90001   11.39844 
  1505.500   -999.000   -999.000   10.04687   9.695313   7.804687   2.441406   -36.8438   33.34375   401.7500   73.99063   0.261305   2.218847   0.000092   3.123047   13.82812   60.15737   56.80000   70.80000   37.10001   11.39844 
  1506.000   -999.000   -999.000   10.22656   10.08594   8.085938   2.441406   -37.9688   33.68750   396.7500   73.99063   0.243164   2.248780   0.000804   3.316406   13.65625   58.91070   64.89999   64.10001   37.70000   11.39844 
  1506.500   -999.000   -999.000   10.41406   10.54687   8.898438   2.441406   -38.9375   33.28125   404.2500   73.99063   0.228544   2.272902   -.000532   3.328125   13.59375   52.01540   65.00000   73.00002   56.10001   11.39844 
  1507.000   -999.000   -999.000   10.65625   10.95312   9.742188   2.441406   -41.1250   33.59375   398.0000   73.99063   0.222703   2.282540   0.001006   3.304688   13.34375   50.34509   63.10000   63.60001   55.59999   11.39844 
  1507.500   -999.000   -999.000   10.94531   11.22656   10.74219   2.441406   -41.6875   34.00000   401.7500   73.99063   0.225669   2.277646   -.000473   3.376953   13.15625   49.65279   64.59999   63.50000   62.80000   11.39844 
  1508.000   -999.000   -999.000   11.27344   11.42187   11.34375   2.441406   -42.6250   33.71875   396.7500   73.99063   0.236091   2.260450   -.002661   3.437500   13.15625   53.70107   63.49999   63.19999   63.10001   11.39844 
  1508.500   -999.000   -999.000   11.60937   11.57031   11.47656   2.441406   -43.8438   37.31250   404.2500   73.99063   0.240377   2.253378   0.001165   3.496094   12.98437   54.71068   64.90001   63.39999   63.60001   11.39844 
  1509.000   -999.000   -999.000   11.89062   11.71094   11.12500   2.441406   -46.2188   39.03125   398.0000   73.99063   0.542564   1.754770   -.832648   53.12500   12.49219   53.87827   64.30000   63.89999   8.100006   11.39844 
  1509.500   -999.000   -999.000   12.07031   11.90625   10.63281   2.441406   -45.5625   38.62500   397.5000   73.99063   0.525072   1.783631   -.825209   72.62500   12.49219   51.12618   56.50000   71.39999   15.60001   11.39844 
  1510.000   -999.000   -999.000   12.16406   12.07031   10.54687   2.441406   -48.0313   37.71875   396.7500   73.99063   0.496737   1.830383   -.811378   62.56250   12.49219   50.01653   57.19999   70.39999   55.50000   11.39844 
  1510.500   -999.000   -999.000   12.21875   12.14844   10.92969   2.441406   -48.6875   36.43750   404.2500   73.99063   0.461332   1.888803   -.789130   47.90625   12.49219   52.37134   55.80000   71.09999   55.20000   11.39844 
  1511.000   -999.000   -999.000   12.28125   12.16406   11.13281   2.441406   -49.4375   36.56250   398.0000   73.99063   0.465217   1.882392   -.800850   48.75000   12.49219   52.47379   56.20000   71.30000   54.90001   11.39844 
  1511.500   -999.000   -999.000   12.35937   12.21094   11.28125   2.441406   -50.1250   36.09375   397.5000   73.99063   0.482745   1.853472   -.815399   46.06250   12.49219   51.94746   56.80000   72.00000   55.00002   11.39844 
  1512.000   -999.000   -999.000   12.46875   12.35937   11.32812   2.441406   -51.8125   37.53125   398.7500   73.99063   0.498272   1.827851   -.824371   39.71875   12.49219   52.02321   55.70000   72.00000   49.40001   11.39844 
  1512.500   -999.000   -999.000   12.53906   12.51562   11.53125   2.441406   -52.8125   38.06250   404.2500   73.99063   0.506024   1.815060   -.826847   33.03125   12.49219   53.30715   56.40000   72.89999   55.10001   11.39844 
  1513.000   -999.000   -999.000   12.56250   12.57812   11.67969   2.441406   -52.5000   37.21875   398.0000   73.99063   0.512533   1.804321   -.828447   37.68750   12.49219   53.37541   56.60001   72.39999   54.89999   11.39844 
  1513.500   -999.000   -999.000   12.53125   12.56250   11.92187   2.441406   -51.9688   35.50000   397.5000   73.99063   0.517420   1.796257   -.829458   55.09375   12.49219   50.21133   56.00001   71.89999   55.90001   11.39844 
  1514.000   -999.000   -999.000   12.46094   12.40625   12.05469   2.441406   -51.8750   33.68750   398.7500   73.99063   0.534363   1.768300   -.840837   55.68750   12.49219   50.05026   56.40000   72.49998   55.00002   11.39844 
  1514.500   -999.000   -999.000   12.36719   12.13281   11.82812   2.441406   -51.8750   37.50000   395.0000   73.99063   0.540703   1.757839   -.863642   49.15625   12.49219   51.95679   56.50000   71.10001   55.20000   11.39844 
  1515.000   -999.000   -999.000   12.26562   11.93750   11.04687   2.441406   -50.0000   36.93750   395.0000   73.99063   0.555366   1.733646   -.905056   34.00000   12.49219   59.05199   56.70000   72.20000   55.20000   11.39844 
