~VERSION INFORMATION
VERS.                               2.00: CWLS LOG ASCII STANDARD VERSION 2.00
WRAP.                               NO  : ONE LINE PER DEPTH STEP               
~WELL INFORMATION
#MNEM.UNIT                     DATA TYPE  INFORMATION
#----------------------------------------------------------------------
STRT.F                            273.00: START DEPTH
STOP.F                           8759.00: STOP DEPTH
STEP.F                              0.50: STEP VALUE
NULL.                            -999.00: NULL VALUE
COMP.                         CONOCO INC: COMPANY                               
WELL.                         ASTOSCH #1: WELL                                  
FLD .            Mid Grd Shoal/Trdng Bay: FIELD                                 
LOC .        10N  13W    3 1300FNL 50FEL: LOCATION                              
CNTY.                              KENAI: COUNTY                                
STAT.                             Alaska: STATE                                 
CTRY.                                 US: COUNTRY                               
SRVC.                                   : SERVICE COMPANY                       
DATE.                                   : LOG DATE                              
API .                   50133204260000  : UNIQUE WELL IDENTIFIER                
~PARAMETER INFORMATION                                                          
#MNEM.UNIT        VALUE   DESCRIPTION                                           
#---------      --------  -----------                                           
ELEV    .F           22.0: KB ELEVATION                                         
TDD     .F         8715.0: TOTAL DEPTH DRILLED                                  
~OTHER INFORMATION                                                              
LGD0    .          2/1/91                                                       
MT0     .          PHPA POLYMER                                                 
LGD0    .          2/13/91                                                      
MT0     .          LOW SOLIDS                                                   
LGD0    .          3/6/91                                                       
MT0     .          LOW SOLIDS                                                   
~CURVE INFORMATION                                                              
#MNEM.UNIT                 DESCRIPTION                                          
#---------                 -----------                                          
DEPTH   .F               :  1 DEPTH
IDPH    .OHMM          00:  2 INDUCTION DB PHASOR                             
IMPH    .OHMM          00:  3 INDUCTION MEDIUM PHASOR                         
ILD     .OHMM          00:  4 INDUCTION LOG DEEP                              
ILM     .OHMM          00:  5 INDUCTION LOG MEDIUM                            
SFL     .OHMM          00:  6 SPHER. OR SHAL. FOC. LOG                        
CAL1    .IN            00:  7 CALIPER                                         
SP      .MV            00:  8 SELF POTENTIAL                                  
GR      .GAPI          00:  9 GAMMA RAY                                       
TENS    .LB            00: 10 TENSION                                         
TEMP    .DEGF          00: 11 CALC TEMP CURVE                                 
DPHI    .V/V           00: 12 DENSITY POROSITY                                
RHOB    .G/C3          00: 13 BULK DENSITY                                    
DRHO    .G/C3          00: 14 DENSITY CORRECTN                                
PEF     .B/E           00: 15 FOTO ELECTRO. XSCT                              
CALI    .IN            00: 16 CALIPER                                         
CNS     .%             00: 17 COMPENSATED NEUT (-S)                           
DT      .US/F          00: 18 INTERV TRANSIT TIME                             
DTL     .US/F          00: 19 INTERV TRANSIT TIME LONG                        
DTL1    .US/F          00: 20 INTERV TRANSIT TIME LONG                        
MSFL    .OHMM          00: 21 MICROSPHERIC. FOC. LOG                          
~A  DEPTH    IDPH       IMPH       ILD        ILM        SFL        CAL1       SP         GR         TENS       TEMP       DPHI       RHOB       DRHO       PEF        CALI       CNS        DT         DTL        DTL1       MSFL                            
# ...
  2058.000   -999.000   -999.000   8.757813   8.296875   10.68750   12.67969   -13.5078   57.28125   2370.000   92.13126   0.237907   2.257453   0.050714   4.097656   12.75000   34.72895   136.5000   135.5000   133.0000   57.75000 
  2058.500   -999.000   -999.000   8.210938   7.285156   6.867187   12.82812   -11.5781   58.18750   2510.000   92.13126   0.281366   2.185746   0.041367   3.865234   12.88281   41.96793   135.4000   133.9000   134.4000   32.31250 
  2059.000   -999.000   -999.000   7.703125   6.601562   4.718750   12.87500   -9.57812   57.62500   2415.000   92.13126   0.288323   2.174267   0.039929   3.775391   13.42187   47.83211   133.4000   131.9000   129.1000   9.828125 
  2059.500   -999.000   -999.000   7.031250   6.023437   4.113281   12.81250   -8.71094   55.46875   2430.000   92.07500   0.239140   2.255419   0.055779   3.853516   13.45312   47.32287   128.5000   125.9000   126.0000   8.218750 
  2060.000   -999.000   -999.000   6.480469   5.683594   4.117187   12.95312   -7.16016   52.25000   2455.000   92.13126   0.228162   2.273532   0.043379   3.990234   13.40625   46.06200   123.5000   124.0000   123.7000   5.023437 
  2060.500   -999.000   -999.000   6.253906   5.546875   4.371094   13.00000   -6.32422   53.90625   2380.000   92.13126   0.233679   2.264429   0.020039   4.296875   13.48437   43.40118   124.5000   124.2000   124.9000   5.378906 
  2061.000   -999.000   -999.000   5.914062   5.468750   4.710937   13.01562   -5.90234   54.34375   2635.000   91.96251   0.233767   2.264285   0.017335   4.398437   13.48437   43.49032   123.8000   126.2000   125.6000   6.015625 
  2061.500   -999.000   -999.000   5.812500   5.449219   4.972656   13.08594   -5.89844   56.93750   2490.000   92.07500   0.241954   2.250776   0.013026   4.414062   13.52344   47.78262   126.6000   126.1000   125.9000   5.484375 
  2062.000   -999.000   -999.000   5.781250   5.457031   5.273437   13.14844   -5.97656   54.68750   2495.000   92.13126   0.241444   2.251616   0.012045   4.105469   13.48437   44.86069   127.6000   124.0000   128.5000   5.519531 
  2062.500   -999.000   -999.000   5.796875   5.433594   5.578125   13.24219   -6.14844   53.15625   2465.000   92.13126   0.246771   2.242827   0.011097   3.763672   13.60156   42.88828   130.3000   131.1000   129.1000   5.609375 
  2063.000   -999.000   -999.000   5.796875   5.394531   5.441406   13.15625   -6.48828   53.71875   2400.000   92.30000   0.254279   2.230440   0.010257   3.500000   13.49219   41.34200   134.4000   133.3000   132.9000   5.562500 
  2063.500   -999.000   -999.000   5.785156   5.335937   5.250000   13.48437   -6.64453   54.28125   2380.000   92.30000   0.274437   2.197178   0.008469   3.546875   13.74219   46.16174   138.8000   136.2000   135.2000   5.500000 
  2064.000   -999.000   -999.000   5.695312   5.296875   4.832031   13.37500   -6.84375   56.75000   2550.000   92.24376   0.292532   2.167321   0.004729   3.636719   13.71094   50.35224   138.6000   137.2000   136.6000   6.250000 
  2064.500   -999.000   -999.000   5.617187   5.171875   4.593750   13.21094   -6.87500   56.53125   2415.000   92.18750   0.300386   2.154363   0.006834   3.679688   13.69531   53.18253   137.6000   137.0000   135.5000   5.628906 
  2065.000   -999.000   -999.000   5.554687   5.066406   4.312500   13.32812   -7.34375   61.50000   2395.000   92.13126   0.301298   2.152859   0.004591   3.410156   13.50000   53.64119   136.6000   135.4000   134.9000   6.148437 
  2065.500   -999.000   -999.000   5.535156   5.003906   4.164062   13.27344   -7.47266   59.62500   2460.000   92.13126   0.294392   2.164253   0.003493   3.359375   13.81250   52.24397   134.9000   134.0000   132.9000   5.453125 
  2066.000   -999.000   -999.000   5.554687   5.062500   4.058594   13.28125   -7.47266   60.90625   2590.000   92.13126   0.285928   2.178218   0.005963   3.382813   13.64062   48.96645   133.0000   131.2000   131.1000   5.679687 
  2066.500   -999.000   -999.000   5.609375   5.179687   4.121094   13.17187   -7.44141   58.31250   2390.000   92.30000   0.270248   2.204091   0.014303   3.679688   13.61719   46.53374   130.7000   128.6000   129.2000   5.937500 
  2067.000   -999.000   -999.000   5.703125   5.324219   4.492187   13.10937   -7.37109   55.53125   2355.000   92.35625   0.267261   2.209019   0.015225   3.871094   13.46875   43.56532   126.5000   126.2000   124.4000   5.093750 
  2067.500   -999.000   -999.000   5.824219   5.589844   4.921875   13.09375   -7.50391   52.81250   2550.000   92.41251   0.243903   2.247560   0.028199   4.039062   13.44531   41.81548   124.5000   123.5000   122.3000   5.285156 
  2068.000   -999.000   -999.000   5.937500   5.789062   5.343750   13.32812   -8.37500   52.81250   2400.000   92.41251   0.230342   2.269936   0.028399   3.818359   13.47656   42.87604   125.9000   122.9000   123.4000   5.355469 
  2068.500   -999.000   -999.000   6.125000   5.917969   5.656250   13.59375   -8.07812   55.96875   2485.000   92.24376   0.213428   2.297843   0.028249   3.552734   13.79687   44.14626   126.3000   124.8000   124.7000   5.886719 
  2069.000   -999.000   -999.000   6.304687   5.957031   5.941406   13.57812   -7.84766   56.59375   2415.000   92.18750   0.214168   2.296622   0.023264   3.261719   14.13281   46.50191   128.7000   127.2000   126.1000   7.367187 
  2069.500   -999.000   -999.000   6.406250   5.972656   5.910156   13.89062   -8.23437   56.43750   2450.000   92.35625   0.229689   2.271013   0.012055   3.269531   14.13281   47.74345   129.9000   128.1000   128.1000   7.292969 
  2070.000   -999.000   -999.000   6.480469   5.992187   5.574219   13.46875   -8.20312   55.62500   2475.000   92.41251   0.237493   2.258137   0.006918   3.402344   13.64062   48.72906   131.3000   129.1000   128.4000   6.917969 
  2070.500   -999.000   -999.000   6.500000   6.011719   5.304687   13.32812   -8.01562   55.50000   2470.000   92.41251   0.243712   2.247875   0.007184   3.365234   13.64062   49.52998   131.9000   129.0000   129.0000   7.054687 
  2071.000   -999.000   -999.000   6.492187   6.039062   5.199219   13.42187   -8.18750   52.59375   2455.000   92.30000   0.245611   2.244742   0.006768   3.279297   13.64062   48.23027   131.1000   129.1000   128.3000   6.039062 
  2071.500   -999.000   -999.000   6.449219   6.042969   5.226562   13.59375   -8.56250   53.09375   2450.000   92.41251   0.247483   2.241652   0.003099   3.076172   13.64062   47.72930   130.3000   129.2000   127.5000   5.816406 
  2072.000   -999.000   -999.000   6.410156   6.054687   5.316406   13.65625   -8.42187   52.90625   2390.000   92.46875   0.241759   2.251098   0.003976   3.132813   13.75781   44.95321   130.5000   129.0000   128.4000   6.117187 
  2072.500   -999.000   -999.000   6.375000   6.066406   5.429687   13.64062   -8.70312   57.21875   2470.000   92.52501   0.231393   2.268201   0.008637   3.193359   13.84375   44.12465   132.5000   130.5000   129.1000   7.394531 
  2073.000   -999.000   -999.000   6.359375   6.039062   5.574219   13.64062   -8.60937   57.43750   2415.000   92.46875   0.233446   2.264814   0.007173   3.189453   13.81250   45.09875   132.1000   130.2000   129.4000   7.183594 
  2073.500   -999.000   -999.000   6.386719   5.980469   5.613281   13.85937   -8.66406   61.43750   2365.000   92.52501   0.235477   2.261464   0.007365   3.314453   14.02344   45.24948   132.5000   131.3000   130.0000   6.718750 
  2074.000   -999.000   -999.000   6.406250   5.945312   5.433594   13.80469   -8.65625   57.50000   2515.000   92.52501   0.236494   2.259785   0.008141   3.363281   13.96875   47.80811   131.7000   130.7000   128.7000   7.757812 
  2074.500   -999.000   -999.000   6.453125   5.984375   5.210937   13.92187   -8.76562   58.00000   2455.000   92.35625   0.236124   2.260396   0.005894   3.423828   13.96875   45.75140   130.5000   128.8000   127.6000   7.945312 
  2075.000   -999.000   -999.000   6.484375   6.042969   5.097656   13.86719   -8.21875   54.46875   2450.000   92.35625   0.236183   2.260297   0.001561   3.324219   13.97656   45.35583   130.7000   128.4000   127.6000   7.175781 
