~VERSION INFORMATION
VERS.                               2.00: CWLS LOG ASCII STANDARD VERSION 2.00
WRAP.                               NO  : ONE LINE PER DEPTH STEP               
~WELL INFORMATION
#MNEM.UNIT                     DATA TYPE  INFORMATION
#----------------------------------------------------------------------
STRT.F                            273.00: START DEPTH
STOP.F                           8759.00: STOP DEPTH
STEP.F                              0.50: STEP VALUE
NULL.                            -999.00: NULL VALUE
COMP.                         CONOCO INC: COMPANY                               
WELL.                         ASTOSCH #1: WELL                                  
FLD .            Mid Grd Shoal/Trdng Bay: FIELD                                 
LOC .        10N  13W    3 1300FNL 50FEL: LOCATION                              
CNTY.                              KENAI: COUNTY                                
STAT.                             Alaska: STATE                                 
CTRY.                                 US: COUNTRY                               
SRVC.                                   : SERVICE COMPANY                       
DATE.                                   : LOG DATE                              
API .                   50133204260000  : UNIQUE WELL IDENTIFIER                
~PARAMETER INFORMATION                                                          
#MNEM.UNIT        VALUE   DESCRIPTION                                           
#---------      --------  -----------                                           
ELEV    .F           22.0: KB ELEVATION                                         
TDD     .F         8715.0: TOTAL DEPTH DRILLED                                  
~OTHER INFORMATION                                                              
LGD0    .          2/1/91                                                       
MT0     .          PHPA POLYMER                                                 
LGD0    .          2/13/91                                                      
MT0     .          LOW SOLIDS                                                   
LGD0    .          3/6/91                                                       
MT0     .          LOW SOLIDS                                                   
~CURVE INFORMATION                                                              
#MNEM.UNIT                 DESCRIPTION                                          
#---------                 -----------                                          
DEPTH   .F               :  1 DEPTH
IDPH    .OHMM          00:  2 INDUCTION DB PHASOR                             
IMPH    .OHMM          00:  3 INDUCTION MEDIUM PHASOR                         
ILD     .OHMM          00:  4 INDUCTION LOG DEEP                              
ILM     .OHMM          00:  5 INDUCTION LOG MEDIUM                            
SFL     .OHMM          00:  6 SPHER. OR SHAL. FOC. LOG                        
CAL1    .IN            00:  7 CALIPER                                         
SP      .MV            00:  8 SELF POTENTIAL                                  
GR      .GAPI          00:  9 GAMMA RAY                                       
TENS    .LB            00: 10 TENSION                                         
TEMP    .DEGF          00: 11 CALC TEMP CURVE                                 
DPHI    .V/V           00: 12 DENSITY POROSITY                                
RHOB    .G/C3          00: 13 BULK DENSITY                                    
DRHO    .G/C3          00: 14 DENSITY CORRECTN                                
PEF     .B/E           00: 15 FOTO ELECTRO. XSCT                              
CALI    .IN            00: 16 CALIPER                                         
CNS     .%             00: 17 COMPENSATED NEUT (-S)                           
DT      .US/F          00: 18 INTERV TRANSIT TIME                             
DTL     .US/F          00: 19 INTERV TRANSIT TIME LONG                        
DTL1    .US/F          00: 20 INTERV TRANSIT TIME LONG                        
MSFL    .OHMM          00: 21 MICROSPHERIC. FOC. LOG                          
~A  DEPTH    IDPH       IMPH       ILD        ILM        SFL        CAL1       SP         GR         TENS       TEMP       DPHI       RHOB       DRHO       PEF        CALI       CNS        DT         DTL        DTL1       MSFL                            
# ...
  7570.500   4.160156   5.304687   4.140625   5.234375   14.51562   8.835938   -66.0625   46.18750   5190.000   143.0375   0.136560   2.424676   0.000068   2.496094   9.054688   17.21751   77.79999   76.30000   76.50000   25.59619 
  7571.000   4.148437   5.214844   4.132812   5.164062   14.62500   8.867188   -66.0625   45.68750   5210.000   143.0375   0.140417   2.418312   -.000859   2.650391   9.054688   17.35806   77.99998   76.79999   74.89999   28.16406 
  7571.500   4.140625   5.148437   4.125000   5.121094   14.61719   8.898438   -65.8750   44.84375   5195.000   143.0375   0.144571   2.411457   -.003526   2.824219   9.062500   17.96458   78.40001   77.70000   75.50000   29.86426 
  7572.000   4.152344   5.128906   4.125000   5.136719   14.51562   8.937500   -66.2500   44.96875   5220.000   143.0375   0.147178   2.407157   -.003888   2.806641   9.054688   18.57333   79.40001   77.30000   75.09999   27.32031 
  7572.500   4.175781   5.156250   4.144531   5.187500   14.57031   8.953125   -65.0625   44.84375   5185.000   143.0937   0.145270   2.410304   -.002221   2.814453   9.062500   19.01884   79.00000   76.80002   75.09999   22.94727 
  7573.000   4.234375   5.230469   4.199219   5.261719   14.92969   8.914063   -64.8125   45.68750   5195.000   143.1500   0.139309   2.420141   0.000408   2.841797   9.054688   19.75887   78.10001   75.20000   75.10001   28.81250 
  7573.500   4.320312   5.343750   4.285156   5.347656   15.32812   8.914063   -63.8438   45.84375   5190.000   143.2063   0.135257   2.426826   0.002000   2.873047   9.078125   19.69380   77.59999   75.40001   75.60001   22.45313 
  7574.000   4.421875   5.472656   4.382812   5.445312   15.59375   8.914063   -62.7188   47.15625   5200.000   143.2625   0.141484   2.416552   0.002959   2.822266   9.156250   20.22694   79.70001   77.70000   77.60001   24.70313 
  7574.500   4.554687   5.613281   4.515625   5.554687   15.50000   8.914063   -61.5313   45.28125   5195.000   143.1500   0.145517   2.409897   -.000448   2.648438   9.218750   19.47813   80.60001   81.39999   82.50000   27.67188 
  7575.000   4.726562   5.757812   4.691406   5.699219   15.02344   8.921875   -59.9688   44.31250   5215.000   143.0937   0.153149   2.397304   -.004885   2.599609   9.218750   19.10947   81.40001   79.80000   80.29999   28.14844 
  7575.500   4.894531   5.929687   4.855469   5.875000   14.27344   8.953125   -58.8438   46.06250   5205.000   143.1500   0.140769   2.417731   -.007385   2.406250   9.218750   17.57388   77.59999   78.00000   75.80000   27.84766 
  7576.000   5.062500   6.160156   5.015625   6.148437   13.81250   9.007813   -57.4688   48.53125   5220.000   143.1500   0.135655   2.426169   -.010617   2.312500   9.218750   16.93724   76.80000   76.39999   74.59999   25.66406 
  7576.500   5.281250   6.464844   5.226562   6.531250   14.34375   9.039063   -55.9375   48.75000   5215.000   143.2063   0.117382   2.456319   -.011617   2.287109   9.226563   15.99116   76.59999   74.89999   73.80000   25.18732 
  7577.000   5.523437   6.847656   5.464844   6.871094   15.30469   9.085938   -54.6250   46.75000   5235.000   143.2063   0.104472   2.477622   -.010780   2.351563   9.296875   15.21430   73.50000   71.89999   70.60001   24.85352 
  7577.500   5.722656   7.289062   5.644531   7.179687   16.82813   9.101563   -53.3125   44.56250   5215.000   143.0937   0.092202   2.497868   -.007183   2.404297   9.343750   14.34539   71.80000   69.09998   67.59999   30.00000 
  7578.000   5.925781   7.738281   5.832031   7.535156   19.00000   9.101563   -52.2188   44.25000   5215.000   143.0375   0.090288   2.501026   -.005002   2.437500   9.476563   13.10487   69.59999   67.20000   65.20000   36.90918 
  7578.500   6.152344   8.164063   6.054687   7.968750   21.17188   9.101563   -50.8125   41.75000   5210.000   143.2063   0.093142   2.496315   0.008444   2.511719   9.281250   12.24854   68.20001   65.00000   62.69998   39.44922 
  7579.000   6.355469   8.554688   6.261719   8.351563   23.14063   9.085938   -50.0625   44.50000   5215.000   143.2063   0.077272   2.522501   0.026675   2.623047   9.070313   11.40501   65.60001   64.69998   63.30000   41.30957 
  7579.500   6.531250   8.906250   6.433594   8.648438   25.09375   9.070313   -49.5313   45.59375   5230.000   143.1500   0.064965   2.542807   0.032628   2.585938   9.054688   10.97505   63.10000   62.00000   61.49998   43.19531 
  7580.000   6.656250   9.203125   6.554687   8.953125   26.07813   9.070313   -49.3438   46.37500   5190.000   143.1500   0.044928   2.575868   0.035713   2.511719   9.054688   11.78848   60.30000   60.60000   61.39999   47.86523 
  7580.500   6.714844   9.406250   6.605469   9.140625   26.14063   9.125000   -49.7500   47.84375   5220.000   143.0937   0.050014   2.567477   0.033771   2.294922   9.054688   13.18979   62.30001   61.40001   60.80000   46.85156 
  7581.000   6.695312   9.492188   6.578125   9.140625   25.78125   9.117188   -50.5625   42.96875   5175.000   143.1500   0.078469   2.520526   0.008318   2.281250   9.054688   14.16499   66.00000   64.89999   60.00000   74.93750 
  7581.500   6.609375   9.414063   6.476562   9.015625   24.31250   9.148438   -52.2813   42.68750   5190.000   143.1500   0.098577   2.487349   -.002539   2.281250   8.929688   14.72308   69.40001   68.70000   65.59999   178.8750 
  7582.000   6.484375   9.164063   6.347656   8.750000   21.79688   9.164063   -54.2500   34.71875   5190.000   143.0937   0.103177   2.479758   -.001259   2.292969   9.015625   14.53955   73.09999   73.00000   71.30000   123.5000 
  7582.500   6.328125   8.789063   6.199219   8.367188   19.82813   9.164063   -56.8750   38.78125   5225.000   143.0937   0.103375   2.479432   -.000963   2.384766   9.054688   15.31175   74.09999   73.70000   72.70000   52.71875 
  7583.000   6.171875   8.351563   6.058594   8.015625   18.75000   9.093750   -59.3125   37.81250   5195.000   143.1500   0.103544   2.479153   -.001194   2.437500   9.054688   15.49209   74.50000   73.79999   72.39999   44.06250 
  7583.500   6.011719   7.945312   5.914062   7.742187   18.53125   9.195313   -60.8438   40.34375   5220.000   143.1500   0.110419   2.467808   -.001613   2.617188   8.984375   16.17429   75.20000   74.39998   72.59999   40.03125 
  7584.000   5.839844   7.613281   5.761719   7.515625   18.89063   9.179688   -62.1875   39.87500   5225.000   143.2063   0.116145   2.458362   -.000111   2.669922   8.929688   16.81427   76.00000   75.50000   73.29999   42.62402 
  7584.500   5.648437   7.355469   5.578125   7.289062   19.32813   9.085938   -63.7813   40.81250   5210.000   143.2625   0.127170   2.440170   0.002495   2.664063   8.898438   17.03683   76.30000   76.89999   73.50000   40.31250 
  7585.000   5.449219   7.148437   5.371094   7.042969   19.21875   8.968750   -64.9375   40.62500   5195.000   143.2625   0.131511   2.433006   0.004175   2.746094   8.929688   17.45797   76.60001   76.39999   73.20000   43.91406 
  7585.500   5.265625   6.949219   5.179687   6.804687   18.50000   8.851563   -65.0625   41.90625   5220.000   143.2625   0.131113   2.433664   0.006458   2.662109   8.929688   17.02306   76.89999   75.99998   73.49998   44.14453 
  7586.000   5.140625   6.738281   5.054687   6.566406   17.34375   8.828125   -65.3125   44.71875   5230.000   143.2625   0.124824   2.444040   0.008319   2.710938   8.890625   17.34466   80.29999   76.30000   73.20000   34.51563 
  7586.500   5.054687   6.511719   4.976562   6.324219   16.29688   8.828125   -65.1250   45.34375   5225.000   143.3188   0.123249   2.446639   0.006005   2.632813   8.890625   16.61364   79.70000   76.90001   73.00002   30.87793 
  7587.000   5.011719   6.304687   4.941406   6.156250   15.54687   8.765625   -64.7500   42.81250   5185.000   143.3188   0.126448   2.441360   0.003216   2.644531   8.921875   16.52148   79.20000   76.20000   73.20000   31.62891 
  7587.500   5.000000   6.152344   4.941406   6.089844   14.85937   8.734375   -64.0625   40.21875   5210.000   143.3188   0.130344   2.434932   0.003360   2.533203   9.007813   16.60553   81.00000   77.09999   73.89999   31.63477 
