~VERSION INFORMATION
VERS.                               2.00: CWLS LOG ASCII STANDARD VERSION 2.00
WRAP.                               NO  : ONE LINE PER DEPTH STEP               
~WELL INFORMATION
#MNEM.UNIT                     DATA TYPE  INFORMATION
#----------------------------------------------------------------------
STRT.F                            273.00: START DEPTH
STOP.F                           8759.00: STOP DEPTH
STEP.F                              0.50: STEP VALUE
NULL.                            -999.00: NULL VALUE
COMP.                         CONOCO INC: COMPANY                               
WELL.                         ASTOSCH #1: WELL                                  
FLD .            Mid Grd Shoal/Trdng Bay: FIELD                                 
LOC .        10N  13W    3 1300FNL 50FEL: LOCATION                              
CNTY.                              KENAI: COUNTY                                
STAT.                             Alaska: STATE                                 
CTRY.                                 US: COUNTRY                               
SRVC.                                   : SERVICE COMPANY                       
DATE.                                   : LOG DATE                              
API .                   50133204260000  : UNIQUE WELL IDENTIFIER                
~PARAMETER INFORMATION                                                          
#MNEM.UNIT        VALUE   DESCRIPTION                                           
#---------      --------  -----------                                           
ELEV    .F           22.0: KB ELEVATION                                         
TDD     .F         8715.0: TOTAL DEPTH DRILLED                                  
~OTHER INFORMATION                                                              
LGD0    .          2/1/91                                                       
MT0     .          PHPA POLYMER                                                 
LGD0    .          2/13/91                                                      
MT0     .          LOW SOLIDS                                                   
LGD0    .          3/6/91                                                       
MT0     .          LOW SOLIDS                                                   
~CURVE INFORMATION                                                              
#MNEM.UNIT                 DESCRIPTION                                          
#---------                 -----------                                          
DEPTH   .F               :  1 DEPTH
IDPH    .OHMM          00:  2 INDUCTION DB PHASOR                             
IMPH    .OHMM          00:  3 INDUCTION MEDIUM PHASOR                         
ILD     .OHMM          00:  4 INDUCTION LOG DEEP                              
ILM     .OHMM          00:  5 INDUCTION LOG MEDIUM                            
SFL     .OHMM          00:  6 SPHER. OR SHAL. FOC. LOG                        
CAL1    .IN            00:  7 CALIPER                                         
SP      .MV            00:  8 SELF POTENTIAL                                  
GR      .GAPI          00:  9 GAMMA RAY                                       
TENS    .LB            00: 10 TENSION                                         
TEMP    .DEGF          00: 11 CALC TEMP CURVE                                 
DPHI    .V/V           00: 12 DENSITY POROSITY                                
RHOB    .G/C3          00: 13 BULK DENSITY                                    
DRHO    .G/C3          00: 14 DENSITY CORRECTN                                
PEF     .B/E           00: 15 FOTO ELECTRO. XSCT                              
CALI    .IN            00: 16 CALIPER                                         
CNS     .%             00: 17 COMPENSATED NEUT (-S)                           
DT      .US/F          00: 18 INTERV TRANSIT TIME                             
DTL     .US/F          00: 19 INTERV TRANSIT TIME LONG                        
DTL1    .US/F          00: 20 INTERV TRANSIT TIME LONG                        
MSFL    .OHMM          00: 21 MICROSPHERIC. FOC. LOG                          
~A  DEPTH    IDPH       IMPH       ILD        ILM        SFL        CAL1       SP         GR         TENS       TEMP       DPHI       RHOB       DRHO       PEF        CALI       CNS        DT         DTL        DTL1       MSFL                            
# ...
  7010.500   3.035156   3.498047   3.013672   3.480469   9.093750   8.429688   -65.6875   58.21875   4970.000   140.5625   0.189991   2.336514   -.006160   2.847656   8.562500   27.03099   88.09999   87.20001   85.20000   21.32031 
  7011.000   2.945313   3.365234   2.927734   3.417969   8.820313   8.429688   -66.0000   64.00000   4970.000   140.5625   0.197030   2.324900   -.008115   2.914063   8.562500   28.71203   88.60001   88.29999   85.00000   19.69922 
  7011.500   2.886719   3.308594   2.875000   3.382813   8.601563   8.429688   -66.8125   67.25000   4990.000   140.5063   0.196604   2.325603   -.005806   2.951172   8.460938   27.80032   88.99998   88.20000   84.00000   19.57422 
  7012.000   2.843750   3.306641   2.839844   3.363281   8.554688   8.406250   -68.6250   67.87500   5010.000   140.5625   0.198565   2.322369   -.003636   2.925781   8.445313   27.59412   88.70000   87.30000   83.60001   21.17432 
  7012.500   2.806641   3.324219   2.806641   3.333984   8.656250   8.375000   -69.8750   66.50000   4940.000   140.5625   0.196159   2.326338   -.000545   2.927734   8.476563   26.43749   88.60001   87.49998   82.30000   22.35938 
  7013.000   2.767578   3.330078   2.767578   3.298828   9.070313   8.375000   -70.5000   66.25000   4980.000   140.6187   0.189547   2.337247   0.001855   2.921875   8.437500   26.99143   88.89999   87.60001   82.10001   21.07422 
  7013.500   2.730469   3.308594   2.728516   3.251953   9.226563   8.375000   -70.0625   66.31250   4975.000   140.6187   0.181614   2.350337   0.006090   2.937500   8.414063   27.68025   88.39999   87.50000   83.70000   21.30859 
  7014.000   2.691406   3.255859   2.685547   3.207031   9.101563   8.343750   -69.8125   68.37500   5015.000   140.5625   0.172711   2.365027   0.005989   2.921875   8.429688   28.86102   87.89999   87.39999   85.80000   21.41748 
  7014.500   2.656250   3.183594   2.648438   3.148438   9.054688   8.335938   -70.4375   65.06250   4960.000   140.4500   0.170624   2.368470   0.008073   2.873047   8.414063   29.26769   87.29999   87.30002   85.30000   20.72754 
  7015.000   2.613281   3.109375   2.599609   3.093750   9.007813   8.335938   -71.5000   60.71875   4985.000   140.5625   0.172098   2.366038   0.006953   2.716797   8.414063   28.54253   87.99998   86.30000   85.09998   22.34375 
  7015.500   2.564453   3.042969   2.542969   3.050781   9.031250   8.335938   -72.3125   59.40625   4985.000   140.6750   0.173278   2.364091   0.002325   2.648438   8.406250   27.34314   87.80000   87.80000   84.30002   20.40625 
  7016.000   2.525391   2.984375   2.496094   2.998047   9.046875   8.335938   -73.5625   59.28125   4985.000   140.6187   0.172597   2.365215   -.000284   2.609375   8.406250   27.35321   88.40001   87.60001   84.50002   21.44531 
  7016.500   2.498047   2.931641   2.462891   2.925781   9.070313   8.335938   -73.6875   61.43750   4990.000   140.6187   0.171803   2.366526   0.000589   2.658203   8.406250   27.38147   89.70000   86.80000   85.00000   23.27734 
  7017.000   2.476563   2.882813   2.433594   2.865234   9.085938   8.335938   -75.3750   55.18750   5045.000   140.5063   0.183453   2.347302   -.003553   2.566406   8.406250   26.48520   87.70000   85.20000   82.90001   21.64844 
  7017.500   2.464844   2.839844   2.414063   2.830078   9.312500   8.359375   -77.8125   53.25000   5000.000   140.5063   0.192556   2.332283   -.006878   2.455078   8.414063   26.63369   85.90001   83.60001   82.49998   22.00000 
  7018.000   2.470703   2.808594   2.406250   2.812500   10.03125   8.390625   -81.1875   48.25000   4985.000   140.5625   0.195318   2.327725   -.005741   2.410156   8.398438   25.47929   83.30000   82.70000   81.10001   20.27344 
  7018.500   2.503906   2.798828   2.433594   2.802734   10.88281   8.375000   -83.3750   45.87500   4975.000   140.6187   0.184587   2.345432   -.006135   2.412109   8.437500   25.21799   82.60001   82.19998   80.40001   24.39453 
  7019.000   2.587891   2.818359   2.519531   2.826172   11.53906   8.375000   -84.7500   45.15625   5025.000   140.6187   0.177044   2.357877   -.004780   2.472656   8.445313   22.92508   84.79999   85.10001   82.60001   21.74414 
  7019.500   2.728516   2.882813   2.669922   2.904297   11.85937   8.398438   -86.1250   44.50000   5040.000   140.6187   0.172574   2.365253   -.004214   2.527344   8.539063   22.54660   86.70000   85.59999   83.79999   23.34814 
  7020.000   2.890625   3.007813   2.835938   3.048828   11.79687   8.414063   -86.1250   49.68750   5000.000   140.5625   0.182658   2.348615   -.004446   2.591797   8.546875   22.58960   83.99998   84.09999   79.09999   25.40234 
  7020.500   3.101563   3.224609   3.056641   3.300781   11.51562   8.429688   -86.3750   45.71875   4995.000   140.5625   0.185354   2.344166   -.001235   2.572266   8.562500   22.40054   78.20000   78.20000   72.30002   32.01367 
  7021.000   3.396484   3.570313   3.371094   3.707031   11.65625   8.445313   -85.6875   48.12500   4990.000   140.6187   0.185492   2.343939   0.000846   2.447266   8.843750   21.10044   70.39999   68.99998   66.50002   26.22656 
  7021.500   3.750000   4.097656   3.740234   4.261719   12.91406   8.468750   -85.3750   48.25000   5020.000   140.5625   0.180899   2.351516   0.003293   2.490234   9.320313   16.89186   64.39999   61.90000   59.10001   21.99609 
  7022.000   4.160156   4.855469   4.164062   4.992187   16.09375   8.679688   -83.2500   50.59375   4980.000   140.5625   0.151714   2.399673   0.037982   2.601563   9.343750   13.34571   62.90000   59.60001   56.09999   23.04395 
  7022.500   4.699219   5.843750   4.742187   5.785156   22.67188   8.609375   -79.8125   47.56250   5000.000   140.8437   0.122727   2.447501   0.059464   2.945313   8.921875   11.44920   61.39999   58.69998   55.30000   24.40625 
  7023.000   5.289062   6.925781   5.378906   6.496094   31.79688   8.445313   -79.1875   43.84375   4960.000   140.8437   0.101211   2.483002   0.057741   2.814453   8.570313   11.80953   65.70000   63.30000   60.79999   27.50342 
  7023.500   5.707031   7.781250   5.796875   6.953125   39.12500   8.429688   -78.9375   43.65625   4980.000   140.7875   0.076406   2.523930   0.062592   2.634766   8.562500   12.82289   70.50000   68.30000   66.39999   51.37500 
  7024.000   5.984375   8.109375   6.046875   7.191406   36.65625   8.429688   -79.3125   43.81250   4980.000   140.7875   0.067225   2.539080   0.057478   2.457031   8.523438   14.01752   72.79999   71.39999   71.00000   99.93750 
  7024.500   6.046875   7.917969   6.085937   7.253906   28.79688   8.398438   -79.5000   43.81250   4985.000   140.8437   0.101693   2.482207   0.011855   2.517578   8.492188   15.92373   73.50000   72.60001   73.20000   79.84375 
  7025.000   5.921875   7.460937   5.945312   7.058594   23.45313   8.343750   -79.4375   45.53125   4985.000   140.7875   0.113044   2.463477   0.002344   2.601563   8.476563   16.95168   72.40001   71.70000   74.10001   58.12500 
  7025.500   5.625000   6.945312   5.636719   6.761719   19.46875   8.335938   -79.5000   46.78125   4990.000   140.7313   0.120248   2.451591   0.002558   2.613281   8.562500   17.19041   74.09999   73.00000   77.40001   52.55469 
  7026.000   5.238281   6.437500   5.242187   6.332031   15.84375   8.335938   -79.1250   50.06250   4965.000   140.6750   0.118010   2.455283   -.000226   2.671875   8.562500   17.81990   77.00000   75.80000   80.10001   41.11719 
  7026.500   4.796875   5.917969   4.800781   5.718750   13.62500   8.382813   -79.3125   50.75000   4960.000   140.7313   0.128774   2.437522   -.000958   2.601563   8.562500   19.36734   81.20000   79.50000   82.50000   37.60938 
  7027.000   4.273437   5.371094   4.238281   5.136719   12.10937   8.382813   -79.5625   49.96875   4970.000   140.7313   0.144989   2.410769   -.003065   2.593750   8.562500   22.37517   85.20001   81.80000   82.70000   43.51563 
  7027.500   3.822266   4.816406   3.753906   4.582031   10.90625   8.375000   -79.8750   52.00000   4990.000   140.6750   0.162720   2.381512   -.007950   2.638672   8.562500   24.97364   86.40001   84.10001   82.09999   37.68750 
