~VERSION INFORMATION
VERS.                               2.00: CWLS LOG ASCII STANDARD VERSION 2.00
WRAP.                               NO  : ONE LINE PER DEPTH STEP               
~WELL INFORMATION
#MNEM.UNIT                     DATA TYPE  INFORMATION
#----------------------------------------------------------------------
STRT.F                             16.00: START DEPTH
STOP.F                          11705.00: STOP DEPTH
STEP.F                              0.50: STEP VALUE
NULL.                            -999.00: NULL VALUE
COMP.                                   : COMPANY                               
WELL.                      S MGS UNIT 16: WELL                                  
FLD .                            Unknown: FIELD                                 
LOC .                                   : LOCATION                              
CNTY.                                   : COUNTY                                
STAT.                                   : STATE                                 
CTRY.                                   : COUNTRY                               
SRVC.                                   : SERVICE COMPANY                       
DATE.                                   : LOG DATE                              
API .                   50733204590000  : UNIQUE WELL IDENTIFIER                
~PARAMETER INFORMATION                                                          
#MNEM.UNIT        VALUE   DESCRIPTION                                           
#---------      --------  -----------                                           
~OTHER INFORMATION                                                              
FLS0    .          CIRC                                                         
LGD0    .          7/2/1969                                                     
MT0     .          FRESH/GEL                                                    
FLS0    .          CIRC                                                         
LGD0    .          8/13/1969                                                    
MT0     .          CYPAN                                                        
CSG0    .          13.375" @ 2555                                               
CSG0    .          9.625" @ 10296                                               
~CURVE INFORMATION                                                              
#MNEM.UNIT                 DESCRIPTION                                          
#---------                 -----------                                          
DEPTH   .F               :  1 DEPTH
DRHO    .G/C3          00:  2 DENSITY CORRECTN                                
DT_ORIG .MS/F          00:  3 ORIGINAL SONIC CURVE                            
ILD     .OHMM          00:  4 INDUCTION LOG DEEP                              
ILM     .OHMM          00:  5 INDUCTION LOG MEDIUM                            
SFL     .OHMM          00:  6 SPHER. OR SHAL. FOC. LOG                        
RHOB    .G/C3          00:  7 BULK DENSITY                                    
CALI    .IN            00:  8 CALIPER                                         
SP      .MV            00:  9 SELF POTENTIAL                                  
RT      .OHMM          00: 10 TRUE RESIST CALC FROM AR                        
AF30    .OHMM          00: 11 ARRAY IND 4 FT RESISTIVI                        
AF90    .OHMM          00: 12 ARRAY IND 4 FT RESISTIVI                        
CNS     .%             00: 13 COMPENSATED NEUT (-S)                           
GR      .GAPI          00: 14 GAMMA RAY                                       
AF20    .OHMM          00: 15 ARRAY IND 4 FT RESISTIVI                        
DT      .MS/F          00: 16 INTERV TRANSIT TIME                             
~A  DEPTH    DRHO       DT_ORIG    ILD        ILM        SFL        RHOB       CALI       SP         RT         AF30       AF90       CNS        GR         AF20       DT                                                                                     
# ...
  9239.000   0.035000   94.25500   11.77900   6.725000   7.954000   2.410000   13.64400   30.33300   -999.000   -999.000   -999.000   18.95400   51.46500   -999.000   94.25500 
  9239.500   0.024000   95.95258   15.68218   6.469535   7.985987   2.404003   13.62950   30.62599   -999.000   -999.000   -999.000   19.47533   52.26954   -999.000   95.95258 
  9240.000   0.013000   97.65100   19.58500   6.214000   8.018000   2.398000   13.61500   30.91900   -999.000   -999.000   -999.000   19.99700   53.07400   -999.000   97.65100 
  9240.500   0.028493   97.81206   21.16027   6.297550   7.934055   2.295945   13.62950   31.20661   -999.000   -999.000   -999.000   21.43927   52.06730   -999.000   97.81206 
  9241.000   0.044000   97.97300   22.73400   6.381000   7.850000   2.194000   13.64400   31.49400   -999.000   -999.000   -999.000   22.88100   51.06200   -999.000   97.97300 
  9241.500   0.062488   107.8729   16.86886   5.273355   7.565105   1.988971   13.74856   32.04789   -999.000   -999.000   -999.000   25.44126   47.92272   -999.000   107.8729 
  9242.000   0.081000   117.7750   11.00800   4.166000   7.280000   1.784000   13.85300   32.60100   -999.000   -999.000   -999.000   28.00500   44.78400   -999.000   117.7750 
  9242.500   0.096509   124.9810   8.762766   3.733268   6.961295   1.741518   15.20994   32.58649   -999.000   -999.000   -999.000   43.07365   43.21408   -999.000   124.9810 
  9243.000   0.112000   132.1820   6.516000   3.301000   6.643000   1.699000   16.56600   32.57200   -999.000   -999.000   -999.000   58.13300   41.64600   -999.000   132.1820 
  9243.500   0.167014   130.8745   6.002773   3.235512   6.464884   1.751974   17.05803   32.36507   -999.000   -999.000   -999.000   66.77918   39.68957   -999.000   130.8745 
  9244.000   0.222000   129.5670   5.490000   3.170000   6.287000   1.805000   17.55000   32.15800   -999.000   -999.000   -999.000   75.42000   37.73400   -999.000   129.5670 
  9244.500   0.229502   120.8963   5.778488   5.897615   6.051592   1.896533   18.17633   32.03489   -999.000   -999.000   -999.000   68.89952   38.62145   -999.000   120.8963 
  9245.000   0.237000   112.2240   6.067000   8.622000   5.816000   1.988000   18.80300   31.91200   -999.000   -999.000   -999.000   62.37700   39.50800   -999.000   112.2240 
  9245.500   0.135986   95.69069   6.024987   22.43796   5.486949   2.109990   19.53311   31.74694   -999.000   -999.000   -999.000   50.68905   50.58204   -999.000   95.69069 
  9246.000   0.035000   79.18200   5.983000   36.25900   5.158000   2.232000   20.26400   31.58200   -999.000   -999.000   -999.000   38.99000   61.66200   -999.000   79.18200 
  9246.500   0.046000   72.32312   5.421850   20.98645   5.209030   2.390421   17.29620   31.34639   -999.000   -999.000   -999.000   35.55572   69.49840   -999.000   72.32312 
  9247.000   0.057000   65.47000   4.860000   5.712000   5.260000   2.549000   14.33000   31.11100   -999.000   -999.000   -999.000   32.12400   77.33600   -999.000   65.47000 
  9247.500   0.054000   64.55810   5.085398   5.300599   5.476402   2.565009   14.28550   31.22296   -999.000   -999.000   -999.000   30.91129   81.37093   -999.000   64.55810 
  9248.000   0.051000   63.64800   5.311000   4.889000   5.693000   2.581000   14.24100   31.33500   -999.000   -999.000   -999.000   29.69900   85.41300   -999.000   63.64800 
  9248.500   0.049499   68.32141   5.713005   5.175992   5.666993   2.587001   14.55397   31.32799   -999.000   -999.000   -999.000   29.44716   86.70583   -999.000   68.32141 
  9249.000   0.048000   73.00200   6.115000   5.463000   5.641000   2.593000   14.86700   31.32100   -999.000   -999.000   -999.000   29.19500   87.99800   -999.000   73.00200 
  9249.500   0.056507   74.69862   5.814260   5.551033   5.598976   2.585502   14.56917   31.34951   -999.000   -999.000   -999.000   28.97483   83.32391   -999.000   74.69862 
  9250.000   0.065000   76.39500   5.514000   5.639000   5.557000   2.578000   14.27100   31.37800   -999.000   -999.000   -999.000   28.75500   78.64200   -999.000   76.39500 
  9250.500   0.086001   76.26645   5.091966   5.752072   5.512500   2.571997   14.27100   31.42549   -999.000   -999.000   -999.000   28.55961   80.26691   -999.000   76.26645 
  9251.000   0.107000   76.13800   4.670000   5.865000   5.468000   2.566000   14.27100   31.47300   -999.000   -999.000   -999.000   28.36400   81.89300   -999.000   76.13800 
  9251.500   0.079490   75.60902   4.558937   5.716512   5.352480   2.571003   14.27100   31.26010   -999.000   -999.000   -999.000   28.64027   80.43153   -999.000   75.60902 
  9252.000   0.052000   75.08000   4.448000   5.568000   5.237000   2.576000   14.27100   31.04700   -999.000   -999.000   -999.000   28.91700   78.97200   -999.000   75.08000 
  9252.500   0.038496   75.03902   4.278974   5.195688   5.259507   2.591001   14.27100   31.19444   -999.000   -999.000   -999.000   29.26252   76.64159   -999.000   75.03902 
  9253.000   0.025000   74.99800   4.110000   4.823000   5.282000   2.606000   14.27100   31.34200   -999.000   -999.000   -999.000   29.60800   74.31000   -999.000   74.99800 
  9253.500   0.026000   75.00350   4.111000   4.634090   5.286004   2.603501   14.67335   31.47360   -999.000   -999.000   -999.000   30.02914   75.34746   -999.000   75.00350 
  9254.000   0.027000   75.00900   4.112000   4.445000   5.290000   2.601000   15.07600   31.60500   -999.000   -999.000   -999.000   30.45000   76.38400   -999.000   75.00900 
  9254.500   0.027500   75.00550   4.144470   4.473007   5.283496   2.596498   14.97154   31.43853   -999.000   -999.000   -999.000   30.94894   78.18687   -999.000   75.00550 
  9255.000   0.028000   75.00200   4.177000   4.501000   5.277000   2.592000   14.86700   31.27200   -999.000   -999.000   -999.000   31.44700   79.98900   -999.000   75.00200 
  9255.500   0.021499   74.96248   4.184505   4.790421   5.217470   2.585003   14.85200   30.92669   -999.000   -999.000   -999.000   31.99772   79.78154   -999.000   74.96248 
  9256.000   0.015000   74.92300   4.192000   5.080000   5.158000   2.578000   14.83700   30.58100   -999.000   -999.000   -999.000   32.54900   79.57400   -999.000   74.92300 
  9256.500   0.016000   74.58910   4.207990   5.246975   5.148497   2.578000   14.64295   30.49099   -999.000   -999.000   -999.000   31.80582   79.80542   -999.000   74.58910 
  9257.000   0.017000   74.25500   4.224000   5.414000   5.139000   2.578000   14.44900   30.40100   -999.000   -999.000   -999.000   31.06200   80.03700   -999.000   74.25500 
  9257.500   0.022998   74.13552   4.169986   5.192655   5.192509   2.577500   14.59843   30.13884   -999.000   -999.000   -999.000   30.03097   79.25100   -999.000   74.13552 
  9258.000   0.029000   74.01600   4.116000   4.971000   5.246000   2.577000   14.74800   29.87700   -999.000   -999.000   -999.000   29.00100   78.46500   -999.000   74.01600 
  9258.500   0.032000   73.99899   4.089986   5.050466   5.273013   2.572502   14.44927   29.59183   -999.000   -999.000   -999.000   27.72046   77.18867   -999.000   73.99899 
  9259.000   0.035000   73.98200   4.064000   5.130000   5.300000   2.568000   14.15100   29.30700   -999.000   -999.000   -999.000   26.43900   75.91300   -999.000   73.98200 
  9259.500   0.037500   73.51869   4.073496   5.425828   5.293998   2.562004   14.12149   29.40050   -999.000   -999.000   -999.000   25.16875   73.23856   -999.000   73.51869 
  9260.000   0.040000   73.05600   4.083000   5.722000   5.288000   2.556000   14.09200   29.49400   -999.000   -999.000   -999.000   23.90000   70.56100   -999.000   73.05600 
  9260.500   0.037498   73.06550   4.093493   6.384367   5.234477   2.555001   14.12147   29.36747   -999.000   -999.000   -999.000   23.05421   65.24648   -999.000   73.06550 
  9261.000   0.035000   73.07500   4.104000   7.047000   5.181000   2.554000   14.15100   29.24100   -999.000   -999.000   -999.000   22.20900   59.92600   -999.000   73.07500 
  9261.500   0.037501   72.88690   4.603516   9.187677   5.160001   2.555500   14.12153   28.48891   -999.000   -999.000   -999.000   21.12842   59.03225   -999.000   72.88690 
