~VERSION INFORMATION
VERS.                               2.00: CWLS LOG ASCII STANDARD VERSION 2.00
WRAP.                               NO  : ONE LINE PER DEPTH STEP               
~WELL INFORMATION
#MNEM.UNIT                     DATA TYPE  INFORMATION
#----------------------------------------------------------------------
STRT.F                             16.00: START DEPTH
STOP.F                          11705.00: STOP DEPTH
STEP.F                              0.50: STEP VALUE
NULL.                            -999.00: NULL VALUE
COMP.                                   : COMPANY                               
WELL.                      S MGS UNIT 16: WELL                                  
FLD .                            Unknown: FIELD                                 
LOC .                                   : LOCATION                              
CNTY.                                   : COUNTY                                
STAT.                                   : STATE                                 
CTRY.                                   : COUNTRY                               
SRVC.                                   : SERVICE COMPANY                       
DATE.                                   : LOG DATE                              
API .                   50733204590000  : UNIQUE WELL IDENTIFIER                
~PARAMETER INFORMATION                                                          
#MNEM.UNIT        VALUE   DESCRIPTION                                           
#---------      --------  -----------                                           
~OTHER INFORMATION                                                              
FLS0    .          CIRC                                                         
LGD0    .          7/2/1969                                                     
MT0     .          FRESH/GEL                                                    
FLS0    .          CIRC                                                         
LGD0    .          8/13/1969                                                    
MT0     .          CYPAN                                                        
CSG0    .          13.375" @ 2555                                               
CSG0    .          9.625" @ 10296                                               
~CURVE INFORMATION                                                              
#MNEM.UNIT                 DESCRIPTION                                          
#---------                 -----------                                          
DEPTH   .F               :  1 DEPTH
DRHO    .G/C3          00:  2 DENSITY CORRECTN                                
DT_ORIG .MS/F          00:  3 ORIGINAL SONIC CURVE                            
ILD     .OHMM          00:  4 INDUCTION LOG DEEP                              
ILM     .OHMM          00:  5 INDUCTION LOG MEDIUM                            
SFL     .OHMM          00:  6 SPHER. OR SHAL. FOC. LOG                        
RHOB    .G/C3          00:  7 BULK DENSITY                                    
CALI    .IN            00:  8 CALIPER                                         
SP      .MV            00:  9 SELF POTENTIAL                                  
RT      .OHMM          00: 10 TRUE RESIST CALC FROM AR                        
AF30    .OHMM          00: 11 ARRAY IND 4 FT RESISTIVI                        
AF90    .OHMM          00: 12 ARRAY IND 4 FT RESISTIVI                        
CNS     .%             00: 13 COMPENSATED NEUT (-S)                           
GR      .GAPI          00: 14 GAMMA RAY                                       
AF20    .OHMM          00: 15 ARRAY IND 4 FT RESISTIVI                        
DT      .MS/F          00: 16 INTERV TRANSIT TIME                             
~A  DEPTH    DRHO       DT_ORIG    ILD        ILM        SFL        RHOB       CALI       SP         RT         AF30       AF90       CNS        GR         AF20       DT                                                                                     
# ...
  5375.000   0.024000   89.28600   6.512000   5.085000   6.228000   2.364000   12.27300   41.11800   -999.000   -999.000   -999.000   32.98300   73.80300   -999.000   89.28600 
  5375.500   0.029502   89.32451   6.515501   4.970457   6.022993   2.376999   12.58593   41.66969   -999.000   -999.000   -999.000   33.27562   72.44873   -999.000   89.32451 
  5376.000   0.035000   89.36300   6.519000   4.856000   5.818000   2.390000   12.89900   42.22100   -999.000   -999.000   -999.000   33.56800   71.09500   -999.000   89.36300 
  5376.500   0.025003   89.26604   6.494012   5.072579   5.998993   2.399999   12.57093   42.91169   -999.000   -999.000   -999.000   33.93262   70.71721   -999.000   89.26604 
  5377.000   0.015000   89.16900   6.469000   5.289000   6.180000   2.410000   12.24300   43.60200   -999.000   -999.000   -999.000   34.29700   70.33900   -999.000   89.16900 
  5377.500   -999.000   89.64637   6.488493   5.344479   6.344976   2.400000   12.28749   44.10732   -999.000   -999.000   -999.000   34.65059   69.53789   -999.000   89.64637 
  5378.000   -999.000   90.12400   6.508000   5.400000   6.510000   2.390000   12.33200   44.61300   -999.000   -999.000   -999.000   35.00400   68.73600   -999.000   90.12400 
  5378.500   -999.000   91.41496   6.532990   5.261055   6.209536   2.364504   12.31750   45.34063   -999.000   -999.000   -999.000   33.86062   65.03121   -999.000   91.41496 
  5379.000   -999.000   92.70600   6.558000   5.122000   5.909000   2.339000   12.30300   46.06800   -999.000   -999.000   -999.000   32.71700   61.32700   -999.000   92.70600 
  5379.500   -999.000   93.39242   6.542500   5.144498   5.824006   2.326501   12.00449   46.61692   -999.000   -999.000   -999.000   31.75526   56.08384   -999.000   93.39242 
  5380.000   -999.000   94.07900   6.527000   5.167000   5.739000   2.314000   11.70600   47.16600   -999.000   -999.000   -999.000   30.79300   50.83700   -999.000   94.07900 
  5380.500   -999.000   94.22748   6.755002   5.213011   5.780985   2.301502   12.30234   47.74519   -999.000   -999.000   -999.000   29.84118   48.68333   -999.000   94.22748 
  5381.000   0.038000   94.37600   6.983000   5.259000   5.823000   2.289000   12.89900   48.32400   -999.000   -999.000   -999.000   28.88900   46.52900   -999.000   94.37600 
  5381.500   0.033501   93.51956   7.367189   5.462500   5.869996   2.292501   12.75004   48.74068   -999.000   -999.000   -999.000   28.01429   45.19118   -999.000   93.51956 
  5382.000   0.029000   92.66400   7.751000   5.666000   5.917000   2.296000   12.60100   49.15700   -999.000   -999.000   -999.000   27.14000   43.85300   -999.000   92.66400 
  5382.500   0.022002   91.26802   8.060094   5.842993   6.178950   2.310005   12.45204   49.38552   -999.000   -999.000   -999.000   26.51243   42.87679   -999.000   91.26802 
  5383.000   0.015000   89.87200   8.369000   6.020000   6.441000   2.324000   12.30300   49.61400   -999.000   -999.000   -999.000   25.88500   41.90000   -999.000   89.87200 
  5383.500   0.015000   89.29084   8.532454   6.081978   6.552505   2.334999   12.45204   50.06332   -999.000   -999.000   -999.000   25.05790   40.48796   -999.000   89.29084 
  5384.000   0.015000   88.71000   8.696000   6.144000   6.664000   2.346000   12.60100   50.51300   -999.000   -999.000   -999.000   24.23100   39.07600   -999.000   88.71000 
  5384.500   0.024501   89.08340   8.642499   5.931444   6.544551   2.347500   12.80939   50.67200   -999.000   -999.000   -999.000   23.99508   37.58709   -999.000   89.08340 
  5385.000   0.034000   89.45700   8.589000   5.719000   6.425000   2.349000   13.01800   50.83100   -999.000   -999.000   -999.000   23.75900   36.09900   -999.000   89.45700 
  5385.500   -999.000   90.05742   8.325537   5.502000   6.271021   2.341999   13.00300   50.89050   -999.000   -999.000   -999.000   24.02751   37.05347   -999.000   90.05742 
  5386.000   -999.000   90.65800   8.062000   5.285000   6.117000   2.335000   12.98800   50.95000   -999.000   -999.000   -999.000   24.29600   38.00800   -999.000   90.65800 
  5386.500   -999.000   91.61096   7.867522   5.231971   5.951009   2.322506   12.66009   50.69749   -999.000   -999.000   -999.000   24.92948   40.40118   -999.000   91.61096 
  5387.000   -999.000   92.56300   7.673000   5.179000   5.785000   2.310000   12.33200   50.44500   -999.000   -999.000   -999.000   25.56300   42.79500   -999.000   92.56300 
  5387.500   -999.000   93.72967   7.541027   5.292510   5.785500   2.298006   12.64556   50.25245   -999.000   -999.000   -999.000   26.45442   42.44308   -999.000   93.72967 
  5388.000   0.015000   94.89700   7.409000   5.406000   5.786000   2.286000   12.95900   50.06000   -999.000   -999.000   -999.000   27.34500   42.09100   -999.000   94.89700 
  5388.500   0.019502   95.38291   7.339527   5.378987   5.709511   2.290498   12.91401   49.91151   -999.000   -999.000   -999.000   26.88693   43.38223   -999.000   95.38291 
  5389.000   0.024000   95.86900   7.270000   5.352000   5.633000   2.295000   12.86900   49.76300   -999.000   -999.000   -999.000   26.42900   44.67400   -999.000   95.86900 
  5389.500   0.020001   94.90247   7.317501   5.272002   5.762495   2.305502   12.60059   49.33255   -999.000   -999.000   -999.000   25.37419   44.30392   -999.000   94.90247 
  5390.000   0.016000   93.93600   7.365000   5.192000   5.892000   2.316000   12.33200   48.90200   -999.000   -999.000   -999.000   24.32000   43.93400   -999.000   93.93600 
  5390.500   -999.000   93.70451   7.547048   5.310984   5.924489   2.312502   12.46654   48.71191   -999.000   -999.000   -999.000   24.21351   42.63170   -999.000   93.70451 
  5391.000   -999.000   93.47300   7.729000   5.430000   5.957000   2.309000   12.60100   48.52200   -999.000   -999.000   -999.000   24.10700   41.33000   -999.000   93.47300 
  5391.500   -999.000   93.30652   7.937618   5.638916   5.936493   2.310000   12.21358   48.24502   -999.000   -999.000   -999.000   24.47198   41.38202   -999.000   93.30652 
  5392.000   -999.000   93.14000   8.146000   5.848000   5.916000   2.311000   11.82600   47.96800   -999.000   -999.000   -999.000   24.83700   41.43400   -999.000   93.14000 
  5392.500   -999.000   92.29475   8.665726   6.256499   6.084039   2.316001   12.28799   47.52827   -999.000   -999.000   -999.000   24.59060   40.79934   -999.000   92.29475 
  5393.000   -999.000   91.44900   9.185000   6.665000   6.252000   2.321000   12.75000   47.08900   -999.000   -999.000   -999.000   24.34400   40.16500   -999.000   91.44900 
  5393.500   -999.000   89.45433   9.958973   7.617124   6.611019   2.356011   12.69050   46.72443   -999.000   -999.000   -999.000   21.99333   39.65952   -999.000   89.45433 
  5394.000   -999.000   87.45900   10.73200   8.569000   6.970000   2.391000   12.63100   46.36000   -999.000   -999.000   -999.000   19.64200   39.15400   -999.000   87.45900 
  5394.500   -999.000   81.84821   10.93439   8.690447   9.442295   2.438500   12.49654   46.05089   -999.000   -999.000   -999.000   17.86218   38.36731   -999.000   81.84821 
  5395.000   -.014000   76.23500   11.13700   8.812000   11.91600   2.486000   12.36200   45.74200   -999.000   -999.000   -999.000   16.08200   37.58100   -999.000   76.23500 
  5395.500   -.020499   75.67508   11.15650   8.056371   11.54146   2.454515   12.27248   45.63599   -999.000   -999.000   -999.000   15.65924   38.49834   -999.000   75.67508 
  5396.000   -.027000   75.11500   11.17600   7.301000   11.16700   2.423000   12.18300   45.53000   -999.000   -999.000   -999.000   15.23600   39.41500   -999.000   75.11500 
  5396.500   -999.000   79.96329   10.83756   7.004512   8.836966   2.377989   12.25751   45.80148   -999.000   -999.000   -999.000   17.79161   40.42560   -999.000   79.96329 
  5397.000   -999.000   84.81100   10.49900   6.708000   6.505000   2.333000   12.33200   46.07300   -999.000   -999.000   -999.000   20.34900   41.43700   -999.000   84.81100 
  5397.500   -999.000   87.21786   9.564558   6.262562   6.511997   2.330501   12.34700   45.89099   -999.000   -999.000   -999.000   22.63337   43.45964   -999.000   87.21786 
