~VERSION INFORMATION
VERS.                               2.00: CWLS LOG ASCII STANDARD VERSION 2.00
WRAP.                               NO  : ONE LINE PER DEPTH STEP               
~WELL INFORMATION
#MNEM.UNIT                     DATA TYPE  INFORMATION
#----------------------------------------------------------------------
STRT.F                            920.00: START DEPTH
STOP.F                           9532.00: STOP DEPTH
STEP.F                              0.50: STEP VALUE
NULL.                            -999.00: NULL VALUE
COMP.                                   : COMPANY                               
WELL.                       SRS TERN A-1: WELL                                  
FLD .            Granite Pt/Beluga River: FIELD                                 
LOC .      10N  10W   19 0585FNL 0636FWL: LOCATION                              
CNTY.                 GREATER_COOK_INLET: COUNTY                                
STAT.                             Alaska: STATE                                 
CTRY.                                 US: COUNTRY                               
SRVC.                                   : SERVICE COMPANY                       
DATE.                                   : LOG DATE                              
API .                   50733203530000  : UNIQUE WELL IDENTIFIER                
~PARAMETER INFORMATION                                                          
#MNEM.UNIT        VALUE   DESCRIPTION                                           
#---------      --------  -----------                                           
ELEV    .F          171.5: KB ELEVATION                                         
TDD     .F         9519.0: TOTAL DEPTH DRILLED                                  
~OTHER INFORMATION                                                              
FLS0    .          CIRCULATED                                                   
LGD0    .          7/13/82                                                      
MT0     .          DIS GEL H2O                                                  
FLS0    .          CIRCULATED                                                   
LGD0    .          7/24/82                                                      
FLS0    .          FLOWLINE                                                     
LGD0    .          8/2/82                                                       
MT0     .          LOW SOLIDS NONDISPERSED                                      
~CURVE INFORMATION                                                              
#MNEM.UNIT                 DESCRIPTION                                          
#---------                 -----------                                          
DEPTH   .F               :  1 DEPTH
GR      .GAPI          00:  2 GAMMA RAY                                       
SP      .MV            00:  3 SELF POTENTIAL                                  
CALI    .IN            00:  4 CALIPER                                         
SFL     .OHMM          00:  5 SPHER. OR SHAL. FOC. LOG                        
ILD     .OHMM          00:  6 INDUCTION LOG DEEP                              
ILM     .OHMM          00:  7 INDUCTION LOG MEDIUM                            
CNS     .%             00:  8 COMPENSATED NEUT (-S)                           
DRHO    .G/C3          00:  9 DENSITY CORRECTN                                
RHOB    .G/C3          00: 10 BULK DENSITY                                    
DT      .US/F          00: 11 INTERV TRANSIT TIME                             
MNOR    .OHMM          00: 12 NORMAL MICROLOG                                 
MINV    .OHMM          00: 13 INV MICROLOG                                    
PROX    .OHMM          00: 14 PROXIMITY LOG                                   
POTA    .PPM           00: 15 POTASSIUM                                       
URAN    .PPM           00: 16 URANIUM                                         
THOR    .PPM           00: 17 THORIUM                                         
SGR     .GAPI          00: 18 GAMMA RAY                                       
CGR     .GAPI          00: 19 GAMMA RAY                                       
~A  DEPTH    GR         SP         CALI       SFL        ILD        ILM        CNS        DRHO       RHOB       DT         MNOR       MINV       PROX       POTA       URAN       THOR       SGR        CGR                                                   
# ...
  8739.500   77.77050   42.11360   9.488300   8.599000   8.729600   8.626100   26.25000   0.085800   2.473800   83.00740   -999.000   -999.000   -999.000   -999.000   -999.000   -999.000   -999.000   -999.000 
  8740.000   75.35300   42.34090   9.535400   8.597400   8.830800   8.640500   27.41000   0.084300   2.447100   81.72950   -999.000   -999.000   -999.000   -999.000   -999.000   -999.000   -999.000   -999.000 
  8740.500   72.93550   42.56810   9.697800   9.387800   8.863000   8.654900   28.57000   0.082900   2.432900   80.94160   -999.000   -999.000   -999.000   -999.000   -999.000   -999.000   -999.000   -999.000 
  8741.000   71.40280   42.68750   9.860100   13.15300   8.818000   8.669400   27.29000   0.085100   2.448900   80.15360   -999.000   -999.000   -999.000   -999.000   -999.000   -999.000   -999.000   -999.000 
  8741.500   71.74800   42.74540   10.02250   15.07760   8.773200   8.680900   25.26000   0.102900   2.464800   80.20510   -999.000   -999.000   -999.000   -999.000   -999.000   -999.000   -999.000   -999.000 
  8742.000   72.94830   42.80330   10.16430   15.41380   8.728700   8.681500   24.10000   0.129700   2.478700   80.98950   -999.000   -999.000   -999.000   -999.000   -999.000   -999.000   -999.000   -999.000 
  8742.500   77.03000   42.82680   9.987000   14.07910   8.684400   8.682100   24.05000   0.139600   2.459800   82.13340   -999.000   -999.000   -999.000   -999.000   -999.000   -999.000   -999.000   -999.000 
  8743.000   80.76010   42.77620   9.715600   12.00210   8.640300   8.682600   25.81000   0.143900   2.454400   84.40440   -999.000   -999.000   -999.000   -999.000   -999.000   -999.000   -999.000   -999.000 
  8743.500   84.92630   42.64900   9.464700   10.40750   8.596400   8.685600   27.58000   0.146700   2.434600   86.30500   -999.000   -999.000   -999.000   -999.000   -999.000   -999.000   -999.000   -999.000 
  8744.000   84.23720   42.49770   9.332200   9.333900   8.531800   8.759200   29.35000   0.141200   2.427400   87.07180   -999.000   -999.000   -999.000   -999.000   -999.000   -999.000   -999.000   -999.000 
  8744.500   80.41010   42.39790   9.296000   10.38940   8.458300   8.833500   31.12000   0.128600   2.424500   84.19880   -999.000   -999.000   -999.000   -999.000   -999.000   -999.000   -999.000   -999.000 
  8745.000   75.58550   42.41240   9.278200   11.56430   8.385400   8.908400   31.85000   0.118300   2.439400   83.05910   -999.000   -999.000   -999.000   -999.000   -999.000   -999.000   -999.000   -999.000 
  8745.500   72.97210   42.54850   9.264600   12.87200   8.600900   8.983900   31.16000   0.101900   2.452600   82.48270   -999.000   -999.000   -999.000   -999.000   -999.000   -999.000   -999.000   -999.000 
  8746.000   72.15990   42.75910   9.271000   11.71410   8.967200   9.060100   30.62000   0.096600   2.464800   83.82990   -999.000   -999.000   -999.000   -999.000   -999.000   -999.000   -999.000   -999.000 
  8746.500   71.64230   42.99500   9.352700   10.56820   9.110900   9.136900   30.97000   0.095800   2.475400   84.20750   -999.000   -999.000   -999.000   -999.000   -999.000   -999.000   -999.000   -999.000 
  8747.000   71.52910   43.05370   9.384900   9.893200   9.188000   9.164500   31.31000   0.093800   2.449200   82.56620   -999.000   -999.000   -999.000   -999.000   -999.000   -999.000   -999.000   -999.000 
  8747.500   72.11430   43.11250   9.402800   11.05540   9.265800   9.188000   30.78000   0.090700   2.437800   81.95460   -999.000   -999.000   -999.000   -999.000   -999.000   -999.000   -999.000   -999.000 
  8748.000   73.54740   42.95720   9.441700   11.35680   9.236000   9.211500   29.92000   0.088600   2.433100   81.93200   -999.000   -999.000   -999.000   -999.000   -999.000   -999.000   -999.000   -999.000 
  8748.500   74.89310   42.79640   9.511600   11.41180   9.156400   9.223600   29.05000   0.085800   2.428300   82.48340   -999.000   -999.000   -999.000   -999.000   -999.000   -999.000   -999.000   -999.000 
  8749.000   75.59620   42.65530   9.586600   11.38610   9.077500   9.224200   28.17000   0.073800   2.423500   82.79240   -999.000   -999.000   -999.000   -999.000   -999.000   -999.000   -999.000   -999.000 
  8749.500   76.36790   42.46280   9.656800   11.26270   9.064700   9.224800   28.42000   0.062600   2.433500   83.20390   -999.000   -999.000   -999.000   -999.000   -999.000   -999.000   -999.000   -999.000 
  8750.000   77.94540   42.17120   9.685200   10.94350   9.084100   9.225300   28.79000   0.067600   2.450800   83.64170   -999.000   -999.000   -999.000   -999.000   -999.000   -999.000   -999.000   -999.000 
  8750.500   78.99740   41.83390   9.669300   10.47810   9.290200   9.297900   29.16000   0.072500   2.492000   84.07940   -999.000   -999.000   -999.000   -999.000   -999.000   -999.000   -999.000   -999.000 
  8751.000   77.93710   41.41490   9.656800   10.52890   9.564100   9.402200   29.53000   0.077500   2.492200   84.33530   -999.000   -999.000   -999.000   -999.000   -999.000   -999.000   -999.000   -999.000 
  8751.500   76.87690   40.99580   9.653900   10.76090   9.839500   9.507700   29.02000   0.082500   2.498000   82.87350   -999.000   -999.000   -999.000   -999.000   -999.000   -999.000   -999.000   -999.000 
  8752.000   76.39240   40.57680   9.685100   10.99820   9.751900   9.614300   28.08000   0.087500   2.505200   82.02820   -999.000   -999.000   -999.000   -999.000   -999.000   -999.000   -999.000   -999.000 
  8752.500   77.11880   40.15780   9.778600   11.27220   9.665100   9.686800   27.19000   0.092500   2.513400   81.26790   -999.000   -999.000   -999.000   -999.000   -999.000   -999.000   -999.000   -999.000 
  8753.000   77.92420   39.77680   9.855400   11.76900   9.579000   9.468200   27.09000   0.083200   2.512100   81.10650   -999.000   -999.000   -999.000   -999.000   -999.000   -999.000   -999.000   -999.000 
  8753.500   78.84100   39.40500   9.940400   11.23110   9.407800   9.254600   27.59000   0.072200   2.508400   82.22680   -999.000   -999.000   -999.000   -999.000   -999.000   -999.000   -999.000   -999.000 
  8754.000   77.81130   39.03320   9.996200   9.884600   9.176600   9.045800   28.08000   0.075000   2.502700   83.30590   -999.000   -999.000   -999.000   -999.000   -999.000   -999.000   -999.000   -999.000 
  8754.500   76.89790   38.66140   10.19320   9.217000   8.951100   8.841800   28.57000   0.077800   2.499600   83.74490   -999.000   -999.000   -999.000   -999.000   -999.000   -999.000   -999.000   -999.000 
  8755.000   76.12500   38.39850   -999.000   8.878900   8.731100   8.642300   29.07000   0.071900   2.485900   84.06970   -999.000   -999.000   -999.000   -999.000   -999.000   -999.000   -999.000   -999.000 
  8755.500   75.64040   38.16440   -999.000   8.553300   8.517500   8.409900   28.53000   0.056000   2.462400   84.06430   -999.000   -999.000   -999.000   -999.000   -999.000   -999.000   -999.000   -999.000 
  8756.000   76.01340   37.93030   -999.000   9.170400   8.348600   8.147500   27.70000   0.048300   2.433200   83.59950   -999.000   -999.000   -999.000   -999.000   -999.000   -999.000   -999.000   -999.000 
  8756.500   77.51740   37.66410   -999.000   9.866600   8.183100   7.893300   26.87000   0.048000   2.422900   83.13460   -999.000   -999.000   -999.000   -999.000   -999.000   -999.000   -999.000   -999.000 
  8757.000   82.23640   37.50260   -999.000   10.67750   7.991700   7.647000   27.48000   0.064500   2.423800   82.82410   -999.000   -999.000   -999.000   -999.000   -999.000   -999.000   -999.000   -999.000 
  8757.500   84.82320   37.41960   -999.000   10.69720   7.710200   7.408400   28.58000   0.077900   2.437000   83.82190   -999.000   -999.000   -999.000   -999.000   -999.000   -999.000   -999.000   -999.000 
  8758.000   85.49660   37.28970   -999.000   9.453900   7.438700   7.177200   29.67000   0.083100   2.468300   85.67750   -999.000   -999.000   -999.000   -999.000   -999.000   -999.000   -999.000   -999.000 
  8758.500   83.86050   37.14340   -999.000   8.355100   7.176700   6.953300   -999.000   0.087600   2.476400   87.34570   -999.000   -999.000   -999.000   -999.000   -999.000   -999.000   -999.000   -999.000 
