~VERSION INFORMATION
VERS.                               2.00: CWLS LOG ASCII STANDARD VERSION 2.00
WRAP.                               NO  : ONE LINE PER DEPTH STEP               
~WELL INFORMATION
#MNEM.UNIT                     DATA TYPE  INFORMATION
#----------------------------------------------------------------------
STRT.F                           1691.00: START DEPTH
STOP.F                          10167.00: STOP DEPTH
STEP.F                              0.50: STEP VALUE
NULL.                            -999.00: NULL VALUE
COMP.                                   : COMPANY                               
WELL.                        MGS C-22-23: WELL                                  
FLD .                            Unknown: FIELD                                 
LOC .                                   : LOCATION                              
CNTY.                                   : COUNTY                                
STAT.                                   : STATE                                 
CTRY.                                   : COUNTRY                               
SRVC.                                   : SERVICE COMPANY                       
DATE.                                   : LOG DATE                              
API .                   50733203970000  : UNIQUE WELL IDENTIFIER                
~PARAMETER INFORMATION                                                          
#MNEM.UNIT        VALUE   DESCRIPTION                                           
#---------      --------  -----------                                           
~OTHER INFORMATION                                                              
CSG0    .          9.625" @ 6034                                                
FLS0    .          CIRC                                                         
LGD0    .          6/6/1988                                                     
MT0     .          #2                                                           
~CURVE INFORMATION                                                              
#MNEM.UNIT                 DESCRIPTION                                          
#---------                 -----------                                          
DEPTH   .F               :  1 DEPTH
DRHO    .G/C3          00:  2 DENSITY CORRECTN                                
RHOB    .G/C3          00:  3 BULK DENSITY                                    
CALI    .IN            00:  4 CALIPER                                         
DTL     .MS/F          00:  5 INTERV TRANSIT TIME LONG                        
DT_ORIG .MS/F          00:  6 ORIGINAL SONIC CURVE                            
GR      .GAPI          00:  7 GAMMA RAY                                       
IDPH    .OHMM          00:  8 INDUCTION DB PHASOR                             
ILD     .OHMM          00:  9 INDUCTION LOG DEEP                              
ILM     .OHMM          00: 10 INDUCTION LOG MEDIUM                            
IMPH    .OHMM          00: 11 INDUCTION MEDIUM PHASOR                         
SFL     .OHMM          00: 12 SPHER. OR SHAL. FOC. LOG                        
SP      .MV            00: 13 SELF POTENTIAL                                  
PEF     .B/E           00: 14 FOTO ELECTRO. XSCT                              
DT      .MS/F          00: 15 INTERV TRANSIT TIME                             
~A  DEPTH    DRHO       RHOB       CALI       DTL        DT_ORIG    GR         IDPH       ILD        ILM        IMPH       SFL        SP         PEF        DT                                                                                                
# ...
  2279.000   -999.000   -999.000   -999.000   115.0000   110.2500   44.62500   11.96900   11.68000   11.00000   11.24200   9.797000   -53.9380   -999.000   110.2500 
  2279.500   -999.000   -999.000   -999.000   114.1250   110.0000   44.18750   11.88301   11.59400   10.84402   11.12501   9.785003   -53.8285   -999.000   110.0000 
  2280.000   -999.000   -999.000   -999.000   113.2500   109.7500   43.75000   11.79700   11.50800   10.68800   11.00800   9.773000   -53.7190   -999.000   109.7500 
  2280.500   -999.000   -999.000   -999.000   113.0000   109.7500   44.64044   11.79300   11.50800   10.66800   10.90649   9.249934   -53.6095   -999.000   109.7500 
  2281.000   -999.000   -999.000   -999.000   112.7500   109.7500   45.53100   11.78900   11.50800   10.64800   10.80500   8.727000   -53.5000   -999.000   109.7500 
  2281.500   -999.000   -999.000   -999.000   112.8750   110.2500   45.46851   11.83600   11.55500   10.79650   10.88300   8.742499   -53.4220   -999.000   110.2500 
  2282.000   -999.000   -999.000   -999.000   113.0000   110.7500   45.40600   11.88300   11.60200   10.94500   10.96100   8.758000   -53.3440   -999.000   110.7500 
  2282.500   -999.000   -999.000   -999.000   113.5000   111.2500   41.79732   11.94950   11.65650   11.04299   11.17597   9.495984   -53.5785   -999.000   111.2500 
  2283.000   -999.000   -999.000   -999.000   114.0000   111.7500   38.18800   12.01600   11.71100   11.14100   11.39100   10.23400   -53.8130   -999.000   111.7500 
  2283.500   -999.000   -999.000   -999.000   113.8750   112.1250   39.40673   12.14099   11.82802   11.20700   11.50400   10.19901   -53.9535   -999.000   112.1250 
  2284.000   -999.000   -999.000   -999.000   113.7500   112.5000   40.62500   12.26600   11.94500   11.27300   11.61700   10.16400   -54.0940   -999.000   112.5000 
  2284.500   -999.000   -999.000   -999.000   113.7500   112.0000   39.65627   12.34401   12.02351   11.32000   11.62100   10.17950   -54.0470   -999.000   112.0000 
  2285.000   -999.000   -999.000   -999.000   113.7500   111.5000   38.68800   12.42200   12.10200   11.36700   11.62500   10.19500   -54.0000   -999.000   111.5000 
  2285.500   -999.000   -999.000   -999.000   114.1250   111.6250   40.79710   12.40250   12.08250   11.35150   11.59749   10.16800   -53.9690   -999.000   111.6250 
  2286.000   -999.000   -999.000   -999.000   114.5000   111.7500   42.90600   12.38300   12.06300   11.33600   11.57000   10.14100   -53.9380   -999.000   111.7500 
  2286.500   -999.000   -999.000   -999.000   114.1250   111.3750   43.65601   12.31649   11.99650   11.24601   11.50400   10.03950   -53.8755   -999.000   111.3750 
  2287.000   -999.000   -999.000   -999.000   113.7500   111.0000   44.40600   12.25000   11.93000   11.15600   11.43800   9.938000   -53.8130   -999.000   111.0000 
  2287.500   -999.000   -999.000   -999.000   113.7500   110.8750   43.29717   12.18750   11.86749   11.05051   11.32049   9.882988   -53.6880   -999.000   110.8750 
  2288.000   -999.000   -999.000   -999.000   113.7500   110.7500   42.18800   12.12500   11.80500   10.94500   11.20300   9.828000   -53.5630   -999.000   110.7500 
  2288.500   -999.000   -999.000   -999.000   113.6250   110.7500   42.95355   12.09750   11.78550   10.87901   11.10550   9.562533   -53.3595   -999.000   110.7500 
  2289.000   -999.000   -999.000   -999.000   113.5000   110.7500   43.71900   12.07000   11.76600   10.81300   11.00800   9.297000   -53.1560   -999.000   110.7500 
  2289.500   -999.000   -999.000   -999.000   113.5000   111.0000   43.85949   12.06650   11.76600   10.82850   10.99600   9.234497   -53.0155   -999.000   111.0000 
  2290.000   -999.000   -999.000   -999.000   113.5000   111.2500   44.00000   12.06300   11.76600   10.84400   10.98400   9.172000   -52.8750   -999.000   111.2500 
  2290.500   -999.000   -999.000   -999.000   113.1250   111.3750   45.14061   12.08600   11.78150   10.87500   11.04651   9.359497   -53.0780   -999.000   111.3750 
  2291.000   -999.000   -999.000   -999.000   112.7500   111.5000   46.28100   12.10900   11.79700   10.90600   11.10900   9.547000   -53.2810   -999.000   111.5000 
  2291.500   -999.000   -999.000   -999.000   113.1250   111.5000   45.87505   12.17151   11.85550   10.92200   11.15600   9.738497   -53.5780   -999.000   111.5000 
  2292.000   -999.000   -999.000   -999.000   113.5000   111.5000   45.46900   12.23400   11.91400   10.93800   11.20300   9.930000   -53.8750   -999.000   111.5000 
  2292.500   -999.000   -999.000   -999.000   114.3750   112.1250   45.84399   12.31249   11.99201   10.97301   11.21500   9.726526   -53.9845   -999.000   112.1250 
  2293.000   -999.000   -999.000   -999.000   115.2500   112.7500   46.21900   12.39100   12.07000   11.00800   11.22700   9.523000   -54.0940   -999.000   112.7500 
  2293.500   -999.000   -999.000   -999.000   115.3750   113.0000   46.90649   12.44549   12.12100   11.04700   11.25400   9.593508   -54.0160   -999.000   113.0000 
  2294.000   -999.000   -999.000   -999.000   115.5000   113.2500   47.59400   12.50000   12.17200   11.08600   11.28100   9.664000   -53.9380   -999.000   113.2500 
  2294.500   -999.000   -999.000   -999.000   115.3750   113.0000   47.56249   12.51950   12.18350   11.09400   11.31250   9.797029   -53.6255   -999.000   113.0000 
  2295.000   -999.000   -999.000   -999.000   115.2500   112.7500   47.53100   12.53900   12.19500   11.10200   11.34400   9.930000   -53.3130   -999.000   112.7500 
  2295.500   -999.000   -999.000   -999.000   114.8750   112.1250   46.09326   12.54700   12.20700   11.10550   11.34800   9.910500   -53.1720   -999.000   112.1250 
  2296.000   -999.000   -999.000   -999.000   114.5000   111.5000   44.65600   12.55500   12.21900   11.10900   11.35200   9.891000   -53.0310   -999.000   111.5000 
  2296.500   -999.000   -999.000   -999.000   114.5000   111.5000   44.60950   12.54700   12.21100   11.10550   11.34000   9.805014   -52.9060   -999.000   111.5000 
  2297.000   -999.000   -999.000   -999.000   114.5000   111.5000   44.56300   12.53900   12.20300   11.10200   11.32800   9.719000   -52.7810   -999.000   111.5000 
  2297.500   -999.000   -999.000   -999.000   113.5000   110.8750   46.62598   12.51950   12.17950   11.10550   11.32800   9.628986   -52.3750   -999.000   110.8750 
  2298.000   -999.000   -999.000   -999.000   112.5000   110.2500   48.68800   12.50000   12.15600   11.10900   11.32800   9.539000   -51.9690   -999.000   110.2500 
  2298.500   -999.000   -999.000   -999.000   111.5000   109.1250   47.71906   12.52350   12.17550   11.12500   11.35150   9.590000   -52.2035   -999.000   109.1250 
  2299.000   -999.000   -999.000   -999.000   110.5000   108.0000   46.75000   12.54700   12.19500   11.14100   11.37500   9.641000   -52.4380   -999.000   108.0000 
  2299.500   -999.000   -999.000   -999.000   109.5000   107.0000   48.96943   12.61350   12.25751   11.23849   11.44899   9.586002   -52.7345   -999.000   107.0000 
  2300.000   -999.000   -999.000   -999.000   108.5000   106.0000   51.18800   12.68000   12.32000   11.33600   11.52300   9.531000   -53.0310   -999.000   106.0000 
  2300.500   -999.000   -999.000   -999.000   108.0000   105.6250   49.96903   12.75802   12.39452   11.48847   11.67548   9.863013   -52.8905   -999.000   105.6250 
  2301.000   -999.000   -999.000   -999.000   107.5000   105.2500   48.75000   12.83600   12.46900   11.64100   11.82800   10.19500   -52.7500   -999.000   105.2500 
  2301.500   -999.000   -999.000   -999.000   107.5000   105.0000   45.73472   12.91399   12.54300   11.72299   11.97251   10.37098   -52.8125   -999.000   105.0000 
  2302.000   -999.000   -999.000   -999.000   107.5000   104.7500   42.71900   12.99200   12.61700   11.80500   12.11700   10.54700   -52.8750   -999.000   104.7500 
  2302.500   -999.000   -999.000   -999.000   106.6250   104.3750   43.76623   13.05051   12.67551   11.84400   12.16401   10.29700   -52.7815   -999.000   104.3750 
  2303.000   -999.000   -999.000   -999.000   105.7500   104.0000   44.81300   13.10900   12.73400   11.88300   12.21100   10.04700   -52.6880   -999.000   104.0000 
