~VERSION INFORMATION
VERS.                               2.00: CWLS LOG ASCII STANDARD VERSION 2.00
WRAP.                               NO  : ONE LINE PER DEPTH STEP               
~WELL INFORMATION
#MNEM.UNIT                     DATA TYPE  INFORMATION
#----------------------------------------------------------------------
STRT.F                           1691.00: START DEPTH
STOP.F                          10167.00: STOP DEPTH
STEP.F                              0.50: STEP VALUE
NULL.                            -999.00: NULL VALUE
COMP.                                   : COMPANY                               
WELL.                        MGS C-22-23: WELL                                  
FLD .                            Unknown: FIELD                                 
LOC .                                   : LOCATION                              
CNTY.                                   : COUNTY                                
STAT.                                   : STATE                                 
CTRY.                                   : COUNTRY                               
SRVC.                                   : SERVICE COMPANY                       
DATE.                                   : LOG DATE                              
API .                   50733203970000  : UNIQUE WELL IDENTIFIER                
~PARAMETER INFORMATION                                                          
#MNEM.UNIT        VALUE   DESCRIPTION                                           
#---------      --------  -----------                                           
~OTHER INFORMATION                                                              
CSG0    .          9.625" @ 6034                                                
FLS0    .          CIRC                                                         
LGD0    .          6/6/1988                                                     
MT0     .          #2                                                           
~CURVE INFORMATION                                                              
#MNEM.UNIT                 DESCRIPTION                                          
#---------                 -----------                                          
DEPTH   .F               :  1 DEPTH
DRHO    .G/C3          00:  2 DENSITY CORRECTN                                
RHOB    .G/C3          00:  3 BULK DENSITY                                    
CALI    .IN            00:  4 CALIPER                                         
DTL     .MS/F          00:  5 INTERV TRANSIT TIME LONG                        
DT_ORIG .MS/F          00:  6 ORIGINAL SONIC CURVE                            
GR      .GAPI          00:  7 GAMMA RAY                                       
IDPH    .OHMM          00:  8 INDUCTION DB PHASOR                             
ILD     .OHMM          00:  9 INDUCTION LOG DEEP                              
ILM     .OHMM          00: 10 INDUCTION LOG MEDIUM                            
IMPH    .OHMM          00: 11 INDUCTION MEDIUM PHASOR                         
SFL     .OHMM          00: 12 SPHER. OR SHAL. FOC. LOG                        
SP      .MV            00: 13 SELF POTENTIAL                                  
PEF     .B/E           00: 14 FOTO ELECTRO. XSCT                              
DT      .MS/F          00: 15 INTERV TRANSIT TIME                             
~A  DEPTH    DRHO       RHOB       CALI       DTL        DT_ORIG    GR         IDPH       ILD        ILM        IMPH       SFL        SP         PEF        DT                                                                                                
# ...
  2842.500   -999.000   -999.000   -999.000   113.0000   94.68750   44.26597   13.07445   12.53550   11.96924   13.17634   13.65227   -40.0155   -999.000   94.68750 
  2843.000   -999.000   -999.000   -999.000   109.5000   105.7500   44.06300   12.60200   12.10200   11.09400   11.38300   9.211000   -41.3750   -999.000   105.7500 
  2843.500   -999.000   -999.000   -999.000   109.7500   107.1250   43.15667   11.89855   11.44941   10.68348   10.70696   8.956991   -43.3438   -999.000   107.1250 
  2844.000   -999.000   -999.000   -999.000   110.0000   108.5000   42.25000   11.19500   10.79700   10.27300   10.03100   8.703000   -45.3130   -999.000   108.5000 
  2844.500   -999.000   -999.000   -999.000   109.6250   107.6250   43.12500   10.80448   10.44147   9.925541   9.914001   8.758007   -45.6719   -999.000   107.6250 
  2845.000   -999.000   -999.000   -999.000   109.2500   106.7500   44.00000   10.41400   10.08600   9.578000   9.797000   8.813000   -46.0310   -999.000   106.7500 
  2845.500   -999.000   -999.000   -999.000   108.3750   106.0000   48.20351   10.37100   10.07800   9.499986   9.734497   9.277567   -45.5155   -999.000   106.0000 
  2846.000   -999.000   -999.000   -999.000   107.5000   105.2500   52.40600   10.32800   10.07000   9.422000   9.672000   9.742000   -45.0000   -999.000   105.2500 
  2846.500   -999.000   -999.000   -999.000   108.1250   106.1250   58.14049   10.38301   10.12900   9.433498   9.640505   9.058464   -44.0778   -999.000   106.1250 
  2847.000   -999.000   -999.000   -999.000   108.7500   107.0000   63.87500   10.43800   10.18800   9.445000   9.609000   8.375000   -43.1560   -999.000   107.0000 
  2847.500   -999.000   -999.000   -999.000   109.0000   108.0000   66.18750   10.48451   10.22701   9.492002   9.663994   8.582002   -42.6250   -999.000   108.0000 
  2848.000   -999.000   -999.000   -999.000   109.2500   109.0000   68.50000   10.53100   10.26600   9.539000   9.719000   8.789000   -42.0940   -999.000   109.0000 
  2848.500   -999.000   -999.000   -999.000   109.5000   111.9375   71.18750   10.53900   10.29701   9.621002   9.796994   8.452971   -41.9535   -999.000   111.9375 
  2849.000   -999.000   -999.000   -999.000   109.7500   114.8750   73.87500   10.54700   10.32800   9.703000   9.875000   8.117000   -41.8130   -999.000   114.8750 
  2849.500   -999.000   -999.000   -999.000   110.2500   113.8750   74.06250   10.32444   10.15252   9.515503   9.730502   8.319999   -41.9380   -999.000   113.8750 
  2850.000   -999.000   -999.000   -999.000   110.7500   112.8750   74.25000   10.10200   9.977000   9.328000   9.586000   8.523000   -42.0630   -999.000   112.8750 
  2850.500   -999.000   -999.000   -999.000   113.5000   113.8125   69.59354   9.488560   9.367600   8.718431   9.051043   9.277233   -42.8755   -999.000   113.8125 
  2851.000   -999.000   -999.000   -999.000   116.2500   114.7500   64.93800   8.875000   8.758000   8.109000   8.516000   10.03100   -43.6880   -999.000   114.7500 
  2851.500   -999.000   -999.000   -999.000   127.1250   116.0000   60.34345   8.507935   8.417973   7.474424   7.824524   7.984513   -43.0941   -999.000   116.0000 
  2852.000   -999.000   -999.000   -999.000   138.0000   117.2500   55.75000   8.141000   8.078000   6.840000   7.133000   5.938000   -42.5000   -999.000   117.2500 
  2852.500   -999.000   -999.000   -999.000   129.5000   118.5000   56.09405   7.853449   7.784951   6.634964   6.730421   5.675996   -41.5625   -999.000   118.5000 
  2853.000   -999.000   -999.000   -999.000   121.0000   119.7500   56.43800   7.566000   7.492000   6.430000   6.328000   5.414000   -40.6250   -999.000   119.7500 
  2853.500   -999.000   -999.000   -999.000   117.7500   116.5000   57.87549   7.532996   7.455000   6.474997   6.347504   5.302476   -40.1250   -999.000   116.5000 
  2854.000   -999.000   -999.000   -999.000   114.5000   113.2500   59.31300   7.500000   7.418000   6.520000   6.367000   5.191000   -39.6250   -999.000   113.2500 
  2854.500   -999.000   -999.000   -999.000   112.2500   111.5000   61.42224   7.644506   7.558477   6.919880   6.741943   6.202815   -39.4064   -999.000   111.5000 
  2855.000   -999.000   -999.000   -999.000   110.0000   109.7500   63.53100   7.789000   7.699000   7.320000   7.117000   7.215000   -39.1880   -999.000   109.7500 
  2855.500   -999.000   -999.000   -999.000   108.8750   108.3750   63.06261   8.090026   8.001958   7.507446   7.574071   8.150605   -38.8440   -999.000   108.3750 
  2856.000   -999.000   -999.000   -999.000   107.7500   107.0000   62.59400   8.391000   8.305000   7.695000   8.031000   9.086000   -38.5000   -999.000   107.0000 
  2856.500   -999.000   -999.000   -999.000   106.7500   106.3750   63.29693   8.742498   8.675985   7.898541   8.195013   8.537083   -38.2500   -999.000   106.3750 
  2857.000   -999.000   -999.000   -999.000   105.7500   105.7500   64.00000   9.094000   9.047000   8.102000   8.359000   7.988000   -38.0000   -999.000   105.7500 
  2857.500   -999.000   -999.000   -999.000   107.7500   107.3750   64.15652   9.199512   9.120995   8.160507   8.351500   7.867030   -38.2656   -999.000   107.3750 
  2858.000   -999.000   -999.000   -999.000   109.7500   109.0000   64.31300   9.305000   9.195000   8.219000   8.344000   7.746000   -38.5310   -999.000   109.0000 
  2858.500   -999.000   -999.000   -999.000   110.3750   109.7500   63.25033   9.316502   9.179503   8.289003   8.378994   7.534974   -38.7345   -999.000   109.7500 
  2859.000   -999.000   -999.000   -999.000   111.0000   110.5000   62.18800   9.328000   9.164000   8.359000   8.414000   7.324000   -38.9380   -999.000   110.5000 
  2859.500   -999.000   -999.000   -999.000   111.8750   110.8750   62.37549   9.422007   9.253994   8.433503   8.511520   7.499999   -39.0940   -999.000   110.8750 
  2860.000   -999.000   -999.000   -999.000   112.7500   111.2500   62.56300   9.516000   9.344000   8.508000   8.609000   7.676000   -39.2500   -999.000   111.2500 
  2860.500   -999.000   -999.000   -999.000   112.3750   110.8750   62.93799   9.718984   9.562479   8.758057   8.808486   7.648495   -40.0468   -999.000   110.8750 
  2861.000   -999.000   -999.000   -999.000   112.0000   110.5000   63.31300   9.922000   9.781000   9.008000   9.008000   7.621000   -40.8440   -999.000   110.5000 
  2861.500   -999.000   -999.000   -999.000   113.2500   111.1250   61.15695   10.06651   9.914026   9.332012   9.336000   8.243895   -42.0625   -999.000   111.1250 
  2862.000   -999.000   -999.000   -999.000   114.5000   111.7500   59.00000   10.21100   10.04700   9.656000   9.664000   8.867000   -43.2810   -999.000   111.7500 
  2862.500   -999.000   -999.000   -999.000   137.2500   132.8750   61.28105   10.29300   10.09749   9.679501   9.898504   9.152456   -44.5781   -999.000   132.8750 
  2863.000   -999.000   -999.000   -999.000   160.0000   154.0000   63.56300   10.37500   10.14800   9.703000   10.13300   9.438000   -45.8750   -999.000   154.0000 
  2863.500   -999.000   -999.000   -999.000   155.7500   154.2500   59.57904   10.45301   10.21449   9.679506   10.06651   9.285480   -46.3125   -999.000   154.2500 
  2864.000   -999.000   -999.000   -999.000   151.5000   154.5000   55.59400   10.53100   10.28100   9.656000   10.00000   9.133000   -46.7500   -999.000   154.5000 
  2864.500   -999.000   -999.000   -999.000   134.3750   134.7500   53.81249   10.55851   10.29700   9.671998   9.898516   8.758057   -47.4066   -999.000   134.7500 
  2865.000   -999.000   -999.000   -999.000   117.2500   115.0000   52.03100   10.58600   10.31300   9.688000   9.797000   8.383000   -48.0630   -999.000   115.0000 
  2865.500   -999.000   -999.000   -999.000   149.6250   114.6250   53.43752   10.60950   10.32050   9.797002   9.874991   8.562516   -48.1095   -999.000   114.6250 
  2866.000   -999.000   -999.000   -999.000   182.0000   114.2500   54.84400   10.63300   10.32800   9.906000   9.953000   8.742000   -48.1560   -999.000   114.2500 
  2866.500   -999.000   -999.000   -999.000   184.0000   134.0000   53.81246   10.73848   10.44148   10.08951   10.17948   8.898514   -48.7029   -999.000   134.0000 
