~VERSION INFORMATION
VERS.                               2.00: CWLS LOG ASCII STANDARD VERSION 2.00
WRAP.                               NO  : ONE LINE PER DEPTH STEP               
~WELL INFORMATION
#MNEM.UNIT                     DATA TYPE  INFORMATION
#----------------------------------------------------------------------
STRT.F                             16.00: START DEPTH
STOP.F                          11705.00: STOP DEPTH
STEP.F                              0.50: STEP VALUE
NULL.                            -999.00: NULL VALUE
COMP.                                   : COMPANY                               
WELL.                      S MGS UNIT 16: WELL                                  
FLD .                            Unknown: FIELD                                 
LOC .                                   : LOCATION                              
CNTY.                                   : COUNTY                                
STAT.                                   : STATE                                 
CTRY.                                   : COUNTRY                               
SRVC.                                   : SERVICE COMPANY                       
DATE.                                   : LOG DATE                              
API .                   50733204590000  : UNIQUE WELL IDENTIFIER                
~PARAMETER INFORMATION                                                          
#MNEM.UNIT        VALUE   DESCRIPTION                                           
#---------      --------  -----------                                           
~OTHER INFORMATION                                                              
FLS0    .          CIRC                                                         
LGD0    .          7/2/1969                                                     
MT0     .          FRESH/GEL                                                    
FLS0    .          CIRC                                                         
LGD0    .          8/13/1969                                                    
MT0     .          CYPAN                                                        
CSG0    .          13.375" @ 2555                                               
CSG0    .          9.625" @ 10296                                               
~CURVE INFORMATION                                                              
#MNEM.UNIT                 DESCRIPTION                                          
#---------                 -----------                                          
DEPTH   .F               :  1 DEPTH
DRHO    .G/C3          00:  2 DENSITY CORRECTN                                
DT_ORIG .MS/F          00:  3 ORIGINAL SONIC CURVE                            
ILD     .OHMM          00:  4 INDUCTION LOG DEEP                              
ILM     .OHMM          00:  5 INDUCTION LOG MEDIUM                            
SFL     .OHMM          00:  6 SPHER. OR SHAL. FOC. LOG                        
RHOB    .G/C3          00:  7 BULK DENSITY                                    
CALI    .IN            00:  8 CALIPER                                         
SP      .MV            00:  9 SELF POTENTIAL                                  
RT      .OHMM          00: 10 TRUE RESIST CALC FROM AR                        
AF30    .OHMM          00: 11 ARRAY IND 4 FT RESISTIVI                        
AF90    .OHMM          00: 12 ARRAY IND 4 FT RESISTIVI                        
CNS     .%             00: 13 COMPENSATED NEUT (-S)                           
GR      .GAPI          00: 14 GAMMA RAY                                       
AF20    .OHMM          00: 15 ARRAY IND 4 FT RESISTIVI                        
DT      .MS/F          00: 16 INTERV TRANSIT TIME                             
~A  DEPTH    DRHO       DT_ORIG    ILD        ILM        SFL        RHOB       CALI       SP         RT         AF30       AF90       CNS        GR         AF20       DT                                                                                     
# ...
  7514.000   0.032000   74.86500   7.695000   10.62600   8.349000   2.614000   14.50900   14.85200   -999.000   -999.000   -999.000   24.66900   87.07800   -999.000   74.86500 
  7514.500   0.027000   75.13594   7.989008   10.28403   8.381995   2.612501   14.16579   14.99057   -999.000   -999.000   -999.000   24.60699   86.25299   -999.000   75.13594 
  7515.000   0.022000   75.40700   8.283000   9.942000   8.415000   2.611000   13.82300   15.12900   -999.000   -999.000   -999.000   24.54500   85.42800   -999.000   75.40700 
  7515.500   0.026498   76.21378   8.513100   10.48163   8.300013   2.605003   14.00210   14.92947   -999.000   -999.000   -999.000   25.06078   87.24115   -999.000   76.21378 
  7516.000   0.031000   77.02100   8.743000   11.02100   8.185000   2.599000   14.18100   14.73000   -999.000   -999.000   -999.000   25.57700   89.05600   -999.000   77.02100 
  7516.500   0.033000   76.71062   8.910599   10.26590   8.219501   2.601000   14.36010   14.52497   -999.000   -999.000   -999.000   26.62748   88.49610   -999.000   76.71062 
  7517.000   0.035000   76.40000   9.078000   9.511000   8.254000   2.603000   14.53900   14.32000   -999.000   -999.000   -999.000   27.67700   87.93700   -999.000   76.40000 
  7517.500   0.027496   75.87107   8.942945   8.697182   8.461432   2.615494   14.22589   14.27901   -999.000   -999.000   -999.000   27.79047   86.28802   -999.000   75.87107 
  7518.000   0.020000   75.34200   8.808000   7.883000   8.669000   2.628000   13.91300   14.23800   -999.000   -999.000   -999.000   27.90400   84.63800   -999.000   75.34200 
  7518.500   -999.000   77.76107   8.648512   7.709465   8.471619   2.612494   14.47958   14.16350   -999.000   -999.000   -999.000   28.85676   85.79787   -999.000   77.76107 
  7519.000   -999.000   80.18000   8.489000   7.536000   8.274000   2.597000   15.04600   14.08900   -999.000   -999.000   -999.000   29.81000   86.95700   -999.000   80.18000 
  7519.500   -999.000   86.89434   8.299101   7.574983   8.180983   2.348053   14.65843   14.60110   -999.000   -999.000   -999.000   33.38307   87.08298   -999.000   86.89434 
  7520.000   -.064000   93.61300   8.109000   7.614000   8.088000   2.099000   14.27100   15.11300   -999.000   -999.000   -999.000   36.96000   87.20900   -999.000   93.61300 
  7520.500   -.013519   100.4907   7.992524   8.861163   8.326921   1.970965   14.62837   15.11300   -999.000   -999.000   -999.000   45.88269   78.77501   -999.000   100.4907 
  7521.000   0.037000   107.3610   7.876000   10.10900   8.566000   1.843000   14.98600   15.11300   -999.000   -999.000   -999.000   54.81400   70.34300   -999.000   107.3610 
  7521.500   0.075022   104.2656   7.663480   9.425451   8.490017   2.055434   14.70319   14.94451   -999.000   -999.000   -999.000   56.48191   63.38576   -999.000   104.2656 
  7522.000   0.113000   101.1720   7.451000   8.742000   8.414000   2.268000   14.42000   14.77600   -999.000   -999.000   -999.000   58.15000   56.43400   -999.000   101.1720 
  7522.500   0.076984   90.87564   7.197936   8.469047   8.032761   2.394440   14.39001   15.03211   -999.000   -999.000   -999.000   50.85271   70.50874   -999.000   90.87564 
  7523.000   0.041000   80.58700   6.945000   8.196000   7.652000   2.521000   14.36000   15.28800   -999.000   -999.000   -999.000   43.55100   84.58300   -999.000   80.58700 
  7523.500   0.057496   77.02068   6.826041   8.278039   7.700029   2.561029   14.28554   15.40245   -999.000   -999.000   -999.000   36.81996   95.01170   -999.000   77.02068 
  7524.000   0.074000   73.45500   6.707000   8.360000   7.748000   2.601000   14.21100   15.51700   -999.000   -999.000   -999.000   30.09500   105.4250   -999.000   73.45500 
  7524.500   0.045986   72.87026   6.852987   8.258528   7.997604   2.620012   14.34498   15.58301   -999.000   -999.000   -999.000   27.61416   105.0565   -999.000   72.87026 
  7525.000   0.018000   72.28500   6.999000   8.157000   8.247000   2.639000   14.47900   15.64900   -999.000   -999.000   -999.000   25.13000   104.6880   -999.000   72.28500 
  7525.500   0.014499   71.87932   7.322461   8.027557   8.321515   2.643502   14.41950   15.88661   -999.000   -999.000   -999.000   26.22675   102.0239   -999.000   71.87932 
  7526.000   0.011000   71.47400   7.646000   7.898000   8.396000   2.648000   14.36000   16.12400   -999.000   -999.000   -999.000   27.32500   99.36200   -999.000   71.47400 
  7526.500   -999.000   71.33652   7.552491   7.803439   8.384007   2.651000   14.09156   16.41072   -999.000   -999.000   -999.000   27.75583   96.86290   -999.000   71.33652 
  7527.000   -999.000   71.19900   7.459000   7.709000   8.372000   2.654000   13.82300   16.69700   -999.000   -999.000   -999.000   28.18700   94.36600   -999.000   71.19900 
  7527.500   -999.000   71.10546   7.331487   7.628001   8.367998   2.658999   13.85299   16.54849   -999.000   -999.000   -999.000   28.02345   94.35249   -999.000   71.10546 
  7528.000   -999.000   71.01200   7.204000   7.547000   8.364000   2.664000   13.88300   16.40000   -999.000   -999.000   -999.000   27.86000   94.33900   -999.000   71.01200 
  7528.500   -999.000   72.06483   7.208498   7.588009   8.261468   2.664999   13.80851   16.40050   -999.000   -999.000   -999.000   28.02439   94.36949   -999.000   72.06483 
  7529.000   -999.000   73.11700   7.213000   7.629000   8.159000   2.666000   13.73400   16.40100   -999.000   -999.000   -999.000   28.18900   94.40000   -999.000   73.11700 
  7529.500   -999.000   73.78014   7.188012   7.767952   8.176006   2.644502   13.74900   16.16456   -999.000   -999.000   -999.000   28.31748   92.47480   -999.000   73.78014 
  7530.000   -.016000   74.44300   7.163000   7.907000   8.193000   2.623000   13.76400   15.92800   -999.000   -999.000   -999.000   28.44600   90.54800   -999.000   74.44300 
  7530.500   -999.000   74.50549   7.122014   7.749904   8.360609   2.602001   13.71900   15.46161   -999.000   -999.000   -999.000   28.06370   88.42285   -999.000   74.50549 
  7531.000   -999.000   74.56800   7.081000   7.593000   8.528000   2.581000   13.67400   14.99500   -999.000   -999.000   -999.000   27.68100   86.29700   -999.000   74.56800 
  7531.500   -999.000   74.45096   7.121476   7.357521   8.589520   2.584001   13.92755   14.79261   -999.000   -999.000   -999.000   26.87334   88.03091   -999.000   74.45096 
  7532.000   0.012000   74.33400   7.162000   7.122000   8.651000   2.587000   14.18100   14.59000   -999.000   -999.000   -999.000   26.06500   89.76300   -999.000   74.33400 
  7532.500   0.012500   74.68404   7.193993   7.392918   8.433027   2.590999   13.85279   14.55201   -999.000   -999.000   -999.000   25.64751   90.55643   -999.000   74.68404 
  7533.000   0.013000   75.03400   7.226000   7.664000   8.215000   2.595000   13.52500   14.51400   -999.000   -999.000   -999.000   25.23000   91.34900   -999.000   75.03400 
  7533.500   -999.000   75.52651   7.248009   7.662499   8.108475   2.584502   13.52500   14.38205   -999.000   -999.000   -999.000   25.57784   92.59525   -999.000   75.52651 
  7534.000   -999.000   76.01900   7.270000   7.661000   8.002000   2.574000   13.52500   14.25000   -999.000   -999.000   -999.000   25.92600   93.84200   -999.000   76.01900 
  7534.500   -999.000   77.31812   7.394513   7.747519   8.203030   2.549989   13.52500   13.96039   -999.000   -999.000   -999.000   27.48636   93.61702   -999.000   77.31812 
  7535.000   -999.000   78.61600   7.519000   7.834000   8.404000   2.526000   13.52500   13.67100   -999.000   -999.000   -999.000   29.04500   93.39200   -999.000   78.61600 
  7535.500   -999.000   81.12121   7.408527   7.888985   8.304963   2.491497   13.88313   13.92910   -999.000   -999.000   -999.000   31.64835   93.87671   -999.000   81.12121 
  7536.000   -999.000   83.62700   7.298000   7.944000   8.206000   2.457000   14.24100   14.18700   -999.000   -999.000   -999.000   34.25300   94.36100   -999.000   83.62700 
  7536.500   -999.000   86.82359   7.183535   7.550978   8.309448   2.400027   14.06194   13.70678   -999.000   -999.000   -999.000   37.41928   97.43295   -999.000   86.82359 
