~VERSION INFORMATION
VERS.                               2.00: CWLS LOG ASCII STANDARD VERSION 2.00
WRAP.                               NO  : ONE LINE PER DEPTH STEP               
~WELL INFORMATION
#MNEM.UNIT                     DATA TYPE  INFORMATION
#----------------------------------------------------------------------
STRT.F                           1691.00: START DEPTH
STOP.F                          10167.00: STOP DEPTH
STEP.F                              0.50: STEP VALUE
NULL.                            -999.00: NULL VALUE
COMP.                                   : COMPANY                               
WELL.                        MGS C-22-23: WELL                                  
FLD .                            Unknown: FIELD                                 
LOC .                                   : LOCATION                              
CNTY.                                   : COUNTY                                
STAT.                                   : STATE                                 
CTRY.                                   : COUNTRY                               
SRVC.                                   : SERVICE COMPANY                       
DATE.                                   : LOG DATE                              
API .                   50733203970000  : UNIQUE WELL IDENTIFIER                
~PARAMETER INFORMATION                                                          
#MNEM.UNIT        VALUE   DESCRIPTION                                           
#---------      --------  -----------                                           
~OTHER INFORMATION                                                              
CSG0    .          9.625" @ 6034                                                
FLS0    .          CIRC                                                         
LGD0    .          6/6/1988                                                     
MT0     .          #2                                                           
~CURVE INFORMATION                                                              
#MNEM.UNIT                 DESCRIPTION                                          
#---------                 -----------                                          
DEPTH   .F               :  1 DEPTH
DRHO    .G/C3          00:  2 DENSITY CORRECTN                                
RHOB    .G/C3          00:  3 BULK DENSITY                                    
CALI    .IN            00:  4 CALIPER                                         
DTL     .MS/F          00:  5 INTERV TRANSIT TIME LONG                        
DT_ORIG .MS/F          00:  6 ORIGINAL SONIC CURVE                            
GR      .GAPI          00:  7 GAMMA RAY                                       
IDPH    .OHMM          00:  8 INDUCTION DB PHASOR                             
ILD     .OHMM          00:  9 INDUCTION LOG DEEP                              
ILM     .OHMM          00: 10 INDUCTION LOG MEDIUM                            
IMPH    .OHMM          00: 11 INDUCTION MEDIUM PHASOR                         
SFL     .OHMM          00: 12 SPHER. OR SHAL. FOC. LOG                        
SP      .MV            00: 13 SELF POTENTIAL                                  
PEF     .B/E           00: 14 FOTO ELECTRO. XSCT                              
DT      .MS/F          00: 15 INTERV TRANSIT TIME                             
~A  DEPTH    DRHO       RHOB       CALI       DTL        DT_ORIG    GR         IDPH       ILD        ILM        IMPH       SFL        SP         PEF        DT                                                                                                
# ...
  8428.500   0.078488   2.412976   10.27345   77.18750   77.12500   71.31250   8.488514   8.180003   7.928114   7.947527   8.130844   -60.0000   12.62500   77.12500 
  8429.000   0.061000   2.380000   10.34400   78.75000   78.37500   69.25000   8.508000   8.227000   8.141000   8.063000   7.871000   -59.7500   12.50000   78.37500 
  8429.500   0.042486   2.331973   10.30500   81.68750   81.20634   62.71868   8.472990   8.207502   8.253940   8.316301   8.330115   -59.6405   12.84378   81.20634 
  8430.000   0.024000   2.284000   10.26600   84.62500   84.04100   56.19500   8.438000   8.188000   8.367000   8.570000   8.789000   -59.5310   13.18800   84.04100 
  8430.500   0.027000   2.268005   10.43396   80.18750   79.83079   61.00329   8.383001   8.140969   8.122876   8.507446   8.914063   -60.0474   13.16049   79.83079 
  8431.000   0.030000   2.252000   10.60200   75.75000   75.62500   65.81300   8.328000   8.094000   7.879000   8.445000   9.039000   -60.5630   13.13300   75.62500 
  8431.500   0.038997   2.280010   10.50402   76.37500   76.68750   62.14283   8.076135   7.857601   7.632772   8.031012   8.277689   -60.2658   13.78927   76.68750 
  8432.000   0.048000   2.308000   10.40600   77.00000   77.75000   58.46900   7.824000   7.621000   7.387000   7.617000   7.516000   -59.9690   14.44500   77.75000 
  8432.500   0.062002   2.368029   10.43751   78.06250   78.12500   59.23437   7.394452   7.208888   7.084161   7.232733   7.281461   -60.3442   12.72588   78.12500 
  8433.000   0.076000   2.428000   10.46900   79.12500   78.50000   60.00000   6.965000   6.797000   6.781000   6.848000   7.047000   -60.7190   11.00800   78.50000 
  8433.500   0.080003   2.429000   10.39103   79.81250   79.00000   59.80101   6.613667   6.493786   6.361155   6.476625   6.894544   -60.7815   11.09802   79.00000 
  8434.000   0.084000   2.430000   10.31300   80.50000   79.50000   59.60200   6.262000   6.191000   5.941000   6.105000   6.742000   -60.8440   11.18800   79.50000 
  8434.500   0.075499   2.386477   10.02328   80.90015   80.16217   58.52248   5.870844   5.814545   5.556550   5.687295   6.109603   -61.0942   14.61637   80.16217 
  8435.000   0.067000   2.343000   9.734000   81.30000   80.82400   57.44300   5.480000   5.438000   5.172000   5.270000   5.477000   -61.3440   18.04700   80.82400 
  8435.500   0.055505   2.330503   9.707012   82.33793   81.84880   59.03360   5.136448   5.072686   4.685816   4.847850   5.160307   -61.6409   13.98414   81.84880 
  8436.000   0.044000   2.318000   9.680000   83.37500   82.87500   60.62500   4.793000   4.707000   4.199000   4.426000   4.844000   -61.9380   9.922000   82.87500 
  8436.500   0.038497   2.341489   9.531466   82.43750   82.37500   61.95211   4.644386   4.552524   4.066420   4.159471   4.539166   -62.0315   9.039223   82.37500 
  8437.000   0.033000   2.365000   9.383000   81.50000   81.87500   63.28100   4.496000   4.398000   3.934000   3.893000   4.234000   -62.1250   8.156000   81.87500 
  8437.500   0.022999   2.336993   9.376503   79.87500   80.12500   60.71875   4.482505   4.396500   4.019442   3.909510   3.901996   -62.4375   7.836452   80.12500 
  8438.000   0.013000   2.309000   9.370000   78.25000   78.37500   58.15600   4.469000   4.395000   4.105000   3.926000   3.570000   -62.7500   7.517000   78.37500 
  8438.500   0.015999   2.306001   9.495893   79.56250   79.00000   54.15625   4.511980   4.447507   4.292480   4.174110   4.239666   -62.7655   8.626044   79.00000 
  8439.000   0.019000   2.303000   9.622000   80.87500   79.62500   50.15600   4.555000   4.500000   4.480000   4.422000   4.910000   -62.7810   9.736000   79.62500 
  8439.500   0.021501   2.333489   9.576475   82.31250   81.18750   53.71875   4.674018   4.638542   4.538992   4.622917   5.093512   -62.9060   8.647567   81.18750 
  8440.000   0.024000   2.364000   9.531000   83.75000   82.75000   57.28100   4.793000   4.777000   4.598000   4.824000   5.277000   -63.0310   7.559000   82.75000 
  8440.500   0.012497   2.347506   9.748490   83.31250   82.81250   57.85960   4.853488   4.839478   4.586007   4.779001   5.134569   -63.4376   7.038090   82.81250 
  8441.000   0.001000   2.331000   9.966000   82.87500   82.87500   58.43800   4.914000   4.902000   4.574000   4.734000   4.992000   -63.8440   6.518000   82.87500 
  8441.500   0.001500   2.340993   10.01653   82.12500   82.00000   60.15657   4.911999   4.886498   4.532999   4.625010   4.791101   -63.9845   5.854871   82.00000 
  8442.000   0.002000   2.351000   10.06700   81.37500   81.12500   61.87500   4.910000   4.871000   4.492000   4.516000   4.590000   -64.1250   5.191000   81.12500 
  8442.500   0.003501   2.356003   9.615675   81.56250   81.12500   58.01506   4.905999   4.872999   4.499999   4.502007   4.558476   -64.5314   5.769922   81.12500 
  8443.000   0.005000   2.361000   9.164000   81.75000   81.12500   54.15600   4.902000   4.875000   4.508000   4.488000   4.527000   -64.9380   6.348000   81.12500 
  8443.500   0.008501   2.356502   9.392090   82.37500   81.81250   53.92191   4.886510   4.866997   4.626998   4.578060   4.648443   -64.8441   5.902826   81.81250 
  8444.000   0.012000   2.352000   9.620000   83.00000   82.50000   53.68800   4.871000   4.859000   4.746000   4.668000   4.770000   -64.7500   5.458000   82.50000 
  8444.500   0.013000   2.369007   9.563995   81.62500   81.81250   51.06250   4.800506   4.786959   4.736497   4.738556   4.963086   -64.5625   5.367510   81.81250 
  8445.000   0.014000   2.386000   9.508000   80.25000   81.12500   48.43800   4.730000   4.715000   4.727000   4.809000   5.156000   -64.3750   5.277000   81.12500 
  8445.500   0.012501   2.390003   9.585955   80.06250   80.75000   49.18848   4.636445   4.617505   4.527530   4.672061   4.685508   -64.2815   5.443070   80.75000 
  8446.000   0.011000   2.394000   9.664000   79.87500   80.37500   49.93800   4.543000   4.520000   4.328000   4.535000   4.215000   -64.1880   5.609000   80.37500 
  8446.500   0.011000   2.406002   9.797044   79.43750   80.25000   48.82948   4.429490   4.395020   4.156076   4.302602   4.024503   -64.3755   5.261617   80.25000 
  8447.000   0.011000   2.418000   9.930000   79.00000   80.12500   47.71900   4.316000   4.270000   3.984000   4.070000   3.834000   -64.5630   4.914000   80.12500 
  8447.500   0.007501   2.425498   10.35956   78.88753   79.47520   49.21494   4.228491   4.169946   3.927472   3.949956   3.782995   -64.6255   4.433259   79.47520 
  8448.000   0.004000   2.433000   10.78900   78.77500   78.82500   50.71100   4.141000   4.070000   3.871000   3.830000   3.732000   -64.6880   3.953000   78.82500 
  8448.500   0.004000   2.424499   10.75400   78.70003   78.31270   50.86344   4.144499   4.078007   3.914972   3.867017   3.942117   -64.9380   3.988003   78.31270 
  8449.000   0.004000   2.416000   10.71900   78.62500   77.80000   51.01600   4.148000   4.086000   3.959000   3.904000   4.152000   -65.1880   4.023000   77.80000 
  8449.500   0.008998   2.409501   10.73050   78.68750   77.33759   50.43048   4.238018   4.189528   4.065472   4.038047   4.337383   -65.7510   4.017497   77.33759 
  8450.000   0.014000   2.403000   10.74200   78.75000   76.87500   49.84400   4.328000   4.293000   4.172000   4.172000   4.523000   -66.3130   4.012000   76.87500 
  8450.500   0.025502   2.418002   10.54309   78.87500   78.00000   51.01527   4.431440   4.398472   4.275558   4.306533   4.511501   -66.4380   4.418061   78.00000 
  8451.000   0.037000   2.433000   10.34400   79.00000   79.12500   52.18800   4.535000   4.504000   4.379000   4.441000   4.500000   -66.5630   4.824000   79.12500 
  8451.500   0.030997   2.433000   10.10157   78.93750   78.87500   50.18750   4.599450   4.560478   4.388505   4.482007   4.376916   -66.6880   4.439603   78.87500 
  8452.000   0.025000   2.433000   9.859000   78.87500   78.62500   48.18800   4.664000   4.617000   4.398000   4.523000   4.254000   -66.8130   4.055000   78.62500 
  8452.500   0.013505   2.417506   10.53493   78.75000   78.25000   47.95348   4.677500   4.624993   4.398000   4.491997   4.102380   -66.7815   4.178046   78.25000 
