~VERSION INFORMATION
VERS.                               2.00: CWLS LOG ASCII STANDARD VERSION 2.00
WRAP.                               NO  : ONE LINE PER DEPTH STEP               
~WELL INFORMATION
#MNEM.UNIT                     DATA TYPE  INFORMATION
#----------------------------------------------------------------------
STRT.F                             16.00: START DEPTH
STOP.F                          11705.00: STOP DEPTH
STEP.F                              0.50: STEP VALUE
NULL.                            -999.00: NULL VALUE
COMP.                                   : COMPANY                               
WELL.                      S MGS UNIT 16: WELL                                  
FLD .                            Unknown: FIELD                                 
LOC .                                   : LOCATION                              
CNTY.                                   : COUNTY                                
STAT.                                   : STATE                                 
CTRY.                                   : COUNTRY                               
SRVC.                                   : SERVICE COMPANY                       
DATE.                                   : LOG DATE                              
API .                   50733204590000  : UNIQUE WELL IDENTIFIER                
~PARAMETER INFORMATION                                                          
#MNEM.UNIT        VALUE   DESCRIPTION                                           
#---------      --------  -----------                                           
~OTHER INFORMATION                                                              
FLS0    .          CIRC                                                         
LGD0    .          7/2/1969                                                     
MT0     .          FRESH/GEL                                                    
FLS0    .          CIRC                                                         
LGD0    .          8/13/1969                                                    
MT0     .          CYPAN                                                        
CSG0    .          13.375" @ 2555                                               
CSG0    .          9.625" @ 10296                                               
~CURVE INFORMATION                                                              
#MNEM.UNIT                 DESCRIPTION                                          
#---------                 -----------                                          
DEPTH   .F               :  1 DEPTH
DRHO    .G/C3          00:  2 DENSITY CORRECTN                                
DT_ORIG .MS/F          00:  3 ORIGINAL SONIC CURVE                            
ILD     .OHMM          00:  4 INDUCTION LOG DEEP                              
ILM     .OHMM          00:  5 INDUCTION LOG MEDIUM                            
SFL     .OHMM          00:  6 SPHER. OR SHAL. FOC. LOG                        
RHOB    .G/C3          00:  7 BULK DENSITY                                    
CALI    .IN            00:  8 CALIPER                                         
SP      .MV            00:  9 SELF POTENTIAL                                  
RT      .OHMM          00: 10 TRUE RESIST CALC FROM AR                        
AF30    .OHMM          00: 11 ARRAY IND 4 FT RESISTIVI                        
AF90    .OHMM          00: 12 ARRAY IND 4 FT RESISTIVI                        
CNS     .%             00: 13 COMPENSATED NEUT (-S)                           
GR      .GAPI          00: 14 GAMMA RAY                                       
AF20    .OHMM          00: 15 ARRAY IND 4 FT RESISTIVI                        
DT      .MS/F          00: 16 INTERV TRANSIT TIME                             
~A  DEPTH    DRHO       DT_ORIG    ILD        ILM        SFL        RHOB       CALI       SP         RT         AF30       AF90       CNS        GR         AF20       DT                                                                                     
# ...
  4501.000   0.062000   116.2650   8.364000   5.479000   6.431000   2.027000   13.46500   62.14000   -999.000   -999.000   -999.000   71.77300   52.91200   -999.000   116.2650 
  4501.500   0.067000   108.8665   7.410890   5.037977   6.174541   2.078010   13.24154   62.37808   -999.000   -999.000   -999.000   67.80616   53.88291   -999.000   108.8665 
  4502.000   0.072000   101.4660   6.458000   4.597000   5.918000   2.129000   13.01800   62.61600   -999.000   -999.000   -999.000   63.83800   54.85300   -999.000   101.4660 
  4502.500   0.098502   98.54623   6.139079   4.472510   5.972513   2.110495   13.09249   62.74901   -999.000   -999.000   -999.000   61.99247   55.04651   -999.000   98.54623 
  4503.000   0.125000   95.62700   5.820000   4.348000   6.027000   2.092000   13.16700   62.88200   -999.000   -999.000   -999.000   60.14600   55.24000   -999.000   95.62700 
  4503.500   0.078485   97.18730   5.947021   4.662547   5.875045   2.156529   13.16700   62.92400   -999.000   -999.000   -999.000   58.29544   55.34850   -999.000   97.18730 
  4504.000   0.032000   98.74800   6.074000   4.977000   5.723000   2.221000   13.16700   62.96600   -999.000   -999.000   -999.000   56.44300   55.45700   -999.000   98.74800 
  4504.500   0.001498   98.05180   6.128001   5.145024   5.854061   2.286527   13.42052   62.84447   -999.000   -999.000   -999.000   55.18459   56.32368   -999.000   98.05180 
  4505.000   -.029000   97.35600   6.182000   5.313000   5.985000   2.352000   13.67400   62.72300   -999.000   -999.000   -999.000   53.92700   57.19000   -999.000   97.35600 
  4505.500   -.006994   96.27013   6.446465   5.434951   6.176058   2.342997   13.37610   62.20944   -999.000   -999.000   -999.000   54.12048   57.32449   -999.000   96.27013 
  4506.000   0.015000   95.18400   6.711000   5.557000   6.367000   2.334000   13.07800   61.69600   -999.000   -999.000   -999.000   54.31400   57.45900   -999.000   95.18400 
  4506.500   -.012995   93.67818   7.069470   5.817484   6.612505   2.354502   13.27149   61.47903   -999.000   -999.000   -999.000   54.62489   57.21658   -999.000   93.67818 
  4507.000   -.041000   92.17300   7.428000   6.078000   6.858000   2.375000   13.46500   61.26200   -999.000   -999.000   -999.000   54.93600   56.97400   -999.000   92.17300 
  4507.500   -.041500   91.22394   7.486485   6.113513   6.920471   2.389496   13.49499   61.09796   -999.000   -999.000   -999.000   53.58756   58.33421   -999.000   91.22394 
  4508.000   -.042000   90.27400   7.545000   6.149000   6.983000   2.404000   13.52500   60.93400   -999.000   -999.000   -999.000   52.24000   59.69400   -999.000   90.27400 
  4508.500   -999.000   94.50108   7.328021   5.871096   6.531593   2.415502   13.40597   61.14746   -999.000   -999.000   -999.000   51.54120   58.30068   -999.000   94.50108 
  4509.000   -999.000   98.73100   7.111000   5.593000   6.080000   2.427000   13.28700   61.36100   -999.000   -999.000   -999.000   50.84200   56.90800   -999.000   98.73100 
  4509.500   -999.000   102.0896   6.738446   5.437948   5.890553   2.439499   13.13751   61.17751   -999.000   -999.000   -999.000   51.27997   56.05712   -999.000   102.0896 
  4510.000   -.023000   105.4470   6.366000   5.283000   5.701000   2.452000   12.98800   60.99400   -999.000   -999.000   -999.000   51.71800   55.20600   -999.000   105.4470 
  4510.500   -.020000   106.3743   6.135485   5.126529   5.607995   2.444497   13.16704   60.95199   -999.000   -999.000   -999.000   51.85898   57.64253   -999.000   106.3743 
  4511.000   -.017000   107.3010   5.905000   4.970000   5.515000   2.437000   13.34600   60.91000   -999.000   -999.000   -999.000   52.00000   60.07900   -999.000   107.3010 
  4511.500   0.004501   109.4394   5.834984   4.786558   5.373464   2.420000   13.31649   60.88051   -999.000   -999.000   -999.000   51.13394   59.64506   -999.000   109.4394 
  4512.000   0.026000   111.5780   5.765000   4.603000   5.232000   2.403000   13.28700   60.85100   -999.000   -999.000   -999.000   50.26800   59.21100   -999.000   111.5780 
  4512.500   0.036001   113.8704   5.630954   4.404042   5.130995   2.387000   13.61493   60.50457   -999.000   -999.000   -999.000   49.83857   58.61194   -999.000   113.8704 
  4513.000   0.046000   116.1610   5.497000   4.205000   5.030000   2.371000   13.94300   60.15800   -999.000   -999.000   -999.000   49.40900   58.01300   -999.000   116.1610 
  4513.500   0.036002   117.3168   5.375058   4.050477   5.117496   2.381498   13.40603   60.10202   -999.000   -999.000   -999.000   50.88620   56.64659   -999.000   117.3168 
  4514.000   0.026000   118.4720   5.253000   3.896000   5.205000   2.392000   12.86900   60.04600   -999.000   -999.000   -999.000   52.36300   55.28000   -999.000   118.4720 
  4514.500   0.046501   119.0870   5.131013   3.891999   5.031047   2.376503   12.98852   59.70156   -999.000   -999.000   -999.000   56.15324   53.71188   -999.000   119.0870 
  4515.000   0.067000   119.7020   5.009000   3.888000   4.857000   2.361000   13.10800   59.35700   -999.000   -999.000   -999.000   59.94500   52.14400   -999.000   119.7020 
  4515.500   0.104005   120.6092   4.867441   3.873004   4.759981   2.326994   13.22695   58.92352   -999.000   -999.000   -999.000   61.51425   52.33097   -999.000   120.6092 
  4516.000   0.141000   121.5160   4.726000   3.858000   4.663000   2.293000   13.34600   58.49000   -999.000   -999.000   -999.000   63.08300   52.51800   -999.000   121.5160 
  4516.500   0.122500   121.6990   4.650990   3.753515   4.611496   2.283503   13.31650   58.45950   -999.000   -999.000   -999.000   60.85498   54.12534   -999.000   121.6990 
  4517.000   0.104000   121.8820   4.576000   3.649000   4.560000   2.274000   13.28700   58.42900   -999.000   -999.000   -999.000   58.62700   55.73200   -999.000   121.8820 
  4517.500   0.116002   122.6045   4.607005   3.657999   4.544993   2.252506   13.30150   58.21447   -999.000   -999.000   -999.000   58.26161   58.09319   -999.000   122.6045 
  4518.000   0.128000   123.3270   4.638000   3.667000   4.530000   2.231000   13.31600   58.00000   -999.000   -999.000   -999.000   57.89600   60.45300   -999.000   123.3270 
  4518.500   0.128000   124.1745   4.677014   3.766476   4.551501   2.208004   13.31600   57.49495   -999.000   -999.000   -999.000   59.37598   60.66702   -999.000   124.1745 
  4519.000   0.128000   125.0220   4.716000   3.866000   4.573000   2.185000   13.31600   56.99000   -999.000   -999.000   -999.000   60.85600   60.88100   -999.000   125.0220 
  4519.500   0.104004   126.7159   4.799992   4.009441   4.748031   2.178501   13.31600   56.92302   -999.000   -999.000   -999.000   62.83285   60.18584   -999.000   126.7159 
  4520.000   0.080000   128.4090   4.884000   4.153000   4.923000   2.172000   13.31600   56.85600   -999.000   -999.000   -999.000   64.81000   59.49100   -999.000   128.4090 
  4520.500   0.072502   129.1626   4.936003   4.144504   5.150397   2.225014   13.31600   56.92649   -999.000   -999.000   -999.000   62.07737   57.49023   -999.000   129.1626 
  4521.000   0.065000   129.9160   4.988000   4.136000   5.378000   2.278000   13.31600   56.99700   -999.000   -999.000   -999.000   59.34400   55.49100   -999.000   129.9160 
  4521.500   0.060501   128.2896   5.248449   4.169985   5.434511   2.281001   13.31600   57.23604   -999.000   -999.000   -999.000   57.97927   57.64910   -999.000   128.2896 
  4522.000   0.056000   126.6630   5.509000   4.204000   5.491000   2.284000   13.31600   57.47500   -999.000   -999.000   -999.000   56.61400   59.80600   -999.000   126.6630 
  4522.500   0.037997   126.8950   5.802032   4.527018   5.377958   2.180496   13.79331   57.33245   -999.000   -999.000   -999.000   59.26316   59.55712   -999.000   126.8950 
  4523.000   0.020000   127.1270   6.095000   4.850000   5.265000   2.077000   14.27100   57.19000   -999.000   -999.000   -999.000   61.91200   59.30800   -999.000   127.1270 
  4523.500   0.018500   127.9459   6.392399   5.374371   5.742448   1.968977   14.09205   56.79707   -999.000   -999.000   -999.000   67.31504   59.44446   -999.000   127.9459 
