~VERSION INFORMATION
VERS.                               2.00: CWLS LOG ASCII STANDARD VERSION 2.00
WRAP.                               NO  : ONE LINE PER DEPTH STEP               
~WELL INFORMATION
#MNEM.UNIT                     DATA TYPE  INFORMATION
#----------------------------------------------------------------------
STRT.F                            920.00: START DEPTH
STOP.F                           9532.00: STOP DEPTH
STEP.F                              0.50: STEP VALUE
NULL.                            -999.00: NULL VALUE
COMP.                                   : COMPANY                               
WELL.                       SRS TERN A-1: WELL                                  
FLD .            Granite Pt/Beluga River: FIELD                                 
LOC .      10N  10W   19 0585FNL 0636FWL: LOCATION                              
CNTY.                 GREATER_COOK_INLET: COUNTY                                
STAT.                             Alaska: STATE                                 
CTRY.                                 US: COUNTRY                               
SRVC.                                   : SERVICE COMPANY                       
DATE.                                   : LOG DATE                              
API .                   50733203530000  : UNIQUE WELL IDENTIFIER                
~PARAMETER INFORMATION                                                          
#MNEM.UNIT        VALUE   DESCRIPTION                                           
#---------      --------  -----------                                           
ELEV    .F          171.5: KB ELEVATION                                         
TDD     .F         9519.0: TOTAL DEPTH DRILLED                                  
~OTHER INFORMATION                                                              
FLS0    .          CIRCULATED                                                   
LGD0    .          7/13/82                                                      
MT0     .          DIS GEL H2O                                                  
FLS0    .          CIRCULATED                                                   
LGD0    .          7/24/82                                                      
FLS0    .          FLOWLINE                                                     
LGD0    .          8/2/82                                                       
MT0     .          LOW SOLIDS NONDISPERSED                                      
~CURVE INFORMATION                                                              
#MNEM.UNIT                 DESCRIPTION                                          
#---------                 -----------                                          
DEPTH   .F               :  1 DEPTH
GR      .GAPI          00:  2 GAMMA RAY                                       
SP      .MV            00:  3 SELF POTENTIAL                                  
CALI    .IN            00:  4 CALIPER                                         
SFL     .OHMM          00:  5 SPHER. OR SHAL. FOC. LOG                        
ILD     .OHMM          00:  6 INDUCTION LOG DEEP                              
ILM     .OHMM          00:  7 INDUCTION LOG MEDIUM                            
CNS     .%             00:  8 COMPENSATED NEUT (-S)                           
DRHO    .G/C3          00:  9 DENSITY CORRECTN                                
RHOB    .G/C3          00: 10 BULK DENSITY                                    
DT      .US/F          00: 11 INTERV TRANSIT TIME                             
MNOR    .OHMM          00: 12 NORMAL MICROLOG                                 
MINV    .OHMM          00: 13 INV MICROLOG                                    
PROX    .OHMM          00: 14 PROXIMITY LOG                                   
POTA    .PPM           00: 15 POTASSIUM                                       
URAN    .PPM           00: 16 URANIUM                                         
THOR    .PPM           00: 17 THORIUM                                         
SGR     .GAPI          00: 18 GAMMA RAY                                       
CGR     .GAPI          00: 19 GAMMA RAY                                       
~A  DEPTH    GR         SP         CALI       SFL        ILD        ILM        CNS        DRHO       RHOB       DT         MNOR       MINV       PROX       POTA       URAN       THOR       SGR        CGR                                                   
# ...
  8018.000   76.39630   117.5851   9.756200   9.953800   12.65550   11.19180   23.41000   0.141800   2.481000   90.06900   -999.000   -999.000   -999.000   -999.000   -999.000   -999.000   -999.000   -999.000 
  8018.500   77.21820   117.4348   9.718200   8.896400   12.47890   10.53810   25.84000   0.150300   2.472900   91.67910   -999.000   -999.000   -999.000   -999.000   -999.000   -999.000   -999.000   -999.000 
  8019.000   76.09520   117.2845   9.680400   9.225300   12.56100   10.90860   28.27000   0.158800   2.429500   90.54170   -999.000   -999.000   -999.000   -999.000   -999.000   -999.000   -999.000   -999.000 
  8019.500   74.97210   117.1343   9.552700   10.59780   13.19370   11.85110   30.71000   0.112700   2.399000   89.40430   -999.000   -999.000   -999.000   -999.000   -999.000   -999.000   -999.000   -999.000 
  8020.000   73.84900   116.9737   9.569600   12.17450   13.85830   12.87510   30.72000   0.084000   2.385400   88.26690   -999.000   -999.000   -999.000   -999.000   -999.000   -999.000   -999.000   -999.000 
  8020.500   72.72600   116.4693   9.985700   13.48080   14.55630   13.98760   28.80000   0.074000   2.401600   87.12950   -999.000   -999.000   -999.000   -999.000   -999.000   -999.000   -999.000   -999.000 
  8021.000   71.60290   115.9918   10.24210   14.58500   15.28950   14.90100   26.89000   0.063100   2.416800   85.99210   -999.000   -999.000   -999.000   -999.000   -999.000   -999.000   -999.000   -999.000 
  8021.500   70.47980   115.5289   10.37020   15.77970   16.05970   15.79920   24.97000   0.051700   2.429300   85.16260   -999.000   -999.000   -999.000   -999.000   -999.000   -999.000   -999.000   -999.000 
  8022.000   71.45390   115.2116   10.43630   17.07230   16.94200   16.75160   24.39000   0.040400   2.418200   86.50730   -999.000   -999.000   -999.000   -999.000   -999.000   -999.000   -999.000   -999.000 
  8022.500   72.70200   114.9140   10.50240   17.13940   17.67020   17.16650   24.05000   0.029100   2.406200   86.87250   -999.000   -999.000   -999.000   -999.000   -999.000   -999.000   -999.000   -999.000 
  8023.000   73.97610   114.6455   10.56850   17.05570   17.20380   17.35300   23.66000   0.017700   2.392900   86.96120   -999.000   -999.000   -999.000   -999.000   -999.000   -999.000   -999.000   -999.000 
  8023.500   73.19510   114.4356   10.63460   16.92880   16.77600   17.12030   23.21000   0.024200   2.406100   86.70180   -999.000   -999.000   -999.000   -999.000   -999.000   -999.000   -999.000   -999.000 
  8024.000   70.56480   114.3405   10.70070   16.79290   16.68340   16.89060   22.76000   0.037000   2.442900   86.11010   -999.000   -999.000   -999.000   -999.000   -999.000   -999.000   -999.000   -999.000 
  8024.500   66.98030   114.2896   10.90090   16.69500   16.76030   16.66400   22.31000   0.049900   2.466800   85.82340   -999.000   -999.000   -999.000   -999.000   -999.000   -999.000   -999.000   -999.000 
  8025.000   66.48270   114.2527   10.76130   16.63480   16.79220   16.53450   21.84000   0.048200   2.459400   86.98260   -999.000   -999.000   -999.000   -999.000   -999.000   -999.000   -999.000   -999.000 
  8025.500   65.93550   114.0844   10.79390   16.11670   16.60790   16.43590   22.09000   0.033700   2.444000   87.56480   -999.000   -999.000   -999.000   -999.000   -999.000   -999.000   -999.000   -999.000 
  8026.000   65.89090   113.6618   10.83220   15.61470   16.11480   16.33790   22.43000   0.019300   2.422600   88.02160   -999.000   -999.000   -999.000   -999.000   -999.000   -999.000   -999.000   -999.000 
  8026.500   66.63610   113.1095   10.91450   15.12830   15.31270   16.06940   22.49000   0.011900   2.413800   88.18860   -999.000   -999.000   -999.000   -999.000   -999.000   -999.000   -999.000   -999.000 
  8027.000   68.75450   112.6602   11.05590   14.38960   14.56530   15.46620   22.33000   0.013600   2.415300   88.22820   -999.000   -999.000   -999.000   -999.000   -999.000   -999.000   -999.000   -999.000 
  8027.500   69.95440   112.4923   11.00630   13.58490   14.65000   14.88560   22.18000   0.019600   2.412800   88.20880   -999.000   -999.000   -999.000   -999.000   -999.000   -999.000   -999.000   -999.000 
  8028.000   71.12560   112.3284   10.82580   12.82520   14.77570   14.72150   23.08000   0.026200   2.408200   87.88810   -999.000   -999.000   -999.000   -999.000   -999.000   -999.000   -999.000   -999.000 
  8028.500   70.36780   112.4361   10.36670   12.64570   15.01630   14.77630   24.97000   0.031800   2.391900   86.97190   -999.000   -999.000   -999.000   -999.000   -999.000   -999.000   -999.000   -999.000 
  8029.000   69.54930   112.5045   10.35060   16.96390   15.35980   14.83120   26.87000   0.054200   2.381400   83.53080   -999.000   -999.000   -999.000   -999.000   -999.000   -999.000   -999.000   -999.000 
  8029.500   69.08940   112.5379   10.27130   24.74090   15.70270   14.13170   28.77000   0.084700   2.402900   74.52990   -999.000   -999.000   -999.000   -999.000   -999.000   -999.000   -999.000   -999.000 
  8030.000   69.01780   112.4771   10.22390   36.08340   15.36400   13.37340   25.80000   0.118700   2.405000   70.72440   -999.000   -999.000   -999.000   -999.000   -999.000   -999.000   -999.000   -999.000 
  8030.500   71.52500   112.3897   10.31770   52.62570   14.14410   12.65580   22.79000   0.152700   2.522500   66.91890   -999.000   -999.000   -999.000   -999.000   -999.000   -999.000   -999.000   -999.000 
  8031.000   74.97610   112.3191   10.41150   47.27430   12.82940   11.97670   19.77000   0.186700   2.631200   65.43040   -999.000   -999.000   -999.000   -999.000   -999.000   -999.000   -999.000   -999.000 
  8031.500   79.11660   112.2486   10.27510   34.54770   11.63680   11.33400   18.01000   0.220700   2.712500   73.29440   -999.000   -999.000   -999.000   -999.000   -999.000   -999.000   -999.000   -999.000 
  8032.000   84.26070   112.1861   9.915400   19.30450   10.55520   10.72590   19.61000   0.207500   2.664300   82.05130   -999.000   -999.000   -999.000   -999.000   -999.000   -999.000   -999.000   -999.000 
  8032.500   86.65240   112.1619   9.555800   9.440400   9.383800   10.15030   21.21000   0.160800   2.623600   88.23850   -999.000   -999.000   -999.000   -999.000   -999.000   -999.000   -999.000   -999.000 
  8033.000   88.14590   112.1376   9.308900   8.291200   8.291200   9.605600   24.10000   0.114000   2.502800   94.16070   -999.000   -999.000   -999.000   -999.000   -999.000   -999.000   -999.000   -999.000 
  8033.500   88.65870   112.1134   9.177200   8.174800   8.174800   9.112200   33.93000   0.067300   2.470500   96.33690   -999.000   -999.000   -999.000   -999.000   -999.000   -999.000   -999.000   -999.000 
  8034.000   84.88930   112.0405   9.070700   8.275400   8.275400   9.044300   35.99000   0.076500   2.457000   99.98500   -999.000   -999.000   -999.000   -999.000   -999.000   -999.000   -999.000   -999.000 
  8034.500   81.69650   111.9220   8.942700   8.650800   8.650800   8.976900   38.05000   0.087100   2.450600   103.6215   -999.000   -999.000   -999.000   -999.000   -999.000   -999.000   -999.000   -999.000 
  8035.000   79.38150   111.9219   8.987400   11.68530   11.81360   10.03190   40.11000   0.097600   2.435800   109.9408   -999.000   -999.000   -999.000   -999.000   -999.000   -999.000   -999.000   -999.000 
  8035.500   75.07270   112.1536   9.079100   15.82900   13.47810   11.21750   42.17000   0.086600   2.324000   114.8828   -999.000   -999.000   -999.000   -999.000   -999.000   -999.000   -999.000   -999.000 
  8036.000   65.47250   112.6921   9.163000   21.92040   14.44490   12.20670   44.23000   0.072800   2.196100   118.8604   -999.000   -999.000   -999.000   -999.000   -999.000   -999.000   -999.000   -999.000 
  8036.500   52.44820   113.6971   9.246900   34.31690   15.48100   13.25040   46.29000   0.076800   2.109800   120.0372   -999.000   -999.000   -999.000   -999.000   -999.000   -999.000   -999.000   -999.000 
  8037.000   43.93240   114.9791   10.00010   43.56200   16.59150   14.38340   48.35000   0.084300   2.000000   117.5791   -999.000   -999.000   -999.000   -999.000   -999.000   -999.000   -999.000   -999.000 
