~VERSION INFORMATION
VERS.                               2.00: CWLS LOG ASCII STANDARD VERSION 2.00
WRAP.                               NO  : ONE LINE PER DEPTH STEP               
~WELL INFORMATION
#MNEM.UNIT                     DATA TYPE  INFORMATION
#----------------------------------------------------------------------
STRT.F                             16.00: START DEPTH
STOP.F                          11705.00: STOP DEPTH
STEP.F                              0.50: STEP VALUE
NULL.                            -999.00: NULL VALUE
COMP.                                   : COMPANY                               
WELL.                      S MGS UNIT 16: WELL                                  
FLD .                            Unknown: FIELD                                 
LOC .                                   : LOCATION                              
CNTY.                                   : COUNTY                                
STAT.                                   : STATE                                 
CTRY.                                   : COUNTRY                               
SRVC.                                   : SERVICE COMPANY                       
DATE.                                   : LOG DATE                              
API .                   50733204590000  : UNIQUE WELL IDENTIFIER                
~PARAMETER INFORMATION                                                          
#MNEM.UNIT        VALUE   DESCRIPTION                                           
#---------      --------  -----------                                           
~OTHER INFORMATION                                                              
FLS0    .          CIRC                                                         
LGD0    .          7/2/1969                                                     
MT0     .          FRESH/GEL                                                    
FLS0    .          CIRC                                                         
LGD0    .          8/13/1969                                                    
MT0     .          CYPAN                                                        
CSG0    .          13.375" @ 2555                                               
CSG0    .          9.625" @ 10296                                               
~CURVE INFORMATION                                                              
#MNEM.UNIT                 DESCRIPTION                                          
#---------                 -----------                                          
DEPTH   .F               :  1 DEPTH
DRHO    .G/C3          00:  2 DENSITY CORRECTN                                
DT_ORIG .MS/F          00:  3 ORIGINAL SONIC CURVE                            
ILD     .OHMM          00:  4 INDUCTION LOG DEEP                              
ILM     .OHMM          00:  5 INDUCTION LOG MEDIUM                            
SFL     .OHMM          00:  6 SPHER. OR SHAL. FOC. LOG                        
RHOB    .G/C3          00:  7 BULK DENSITY                                    
CALI    .IN            00:  8 CALIPER                                         
SP      .MV            00:  9 SELF POTENTIAL                                  
RT      .OHMM          00: 10 TRUE RESIST CALC FROM AR                        
AF30    .OHMM          00: 11 ARRAY IND 4 FT RESISTIVI                        
AF90    .OHMM          00: 12 ARRAY IND 4 FT RESISTIVI                        
CNS     .%             00: 13 COMPENSATED NEUT (-S)                           
GR      .GAPI          00: 14 GAMMA RAY                                       
AF20    .OHMM          00: 15 ARRAY IND 4 FT RESISTIVI                        
DT      .MS/F          00: 16 INTERV TRANSIT TIME                             
~A  DEPTH    DRHO       DT_ORIG    ILD        ILM        SFL        RHOB       CALI       SP         RT         AF30       AF90       CNS        GR         AF20       DT                                                                                     
# ...
  8802.000   0.012000   72.25800   4.801000   7.476000   4.237000   2.088000   16.20900   34.14800   -999.000   -999.000   -999.000   18.65300   44.43500   -999.000   72.25800 
  8802.500   0.022996   72.51910   4.866517   7.269093   4.204019   2.113014   16.67121   34.45007   -999.000   -999.000   -999.000   19.18418   43.37741   -999.000   72.51910 
  8803.000   0.034000   72.78000   4.932000   7.062000   4.171000   2.138000   17.13300   34.75200   -999.000   -999.000   -999.000   19.71500   42.32000   -999.000   72.78000 
  8803.500   0.048502   71.80538   4.960501   6.651602   4.268484   2.140501   17.13300   34.40352   -999.000   -999.000   -999.000   19.55646   41.74082   -999.000   71.80538 
  8804.000   0.063000   70.83000   4.989000   6.241000   4.366000   2.143000   17.13300   34.05500   -999.000   -999.000   -999.000   19.39800   41.16200   -999.000   70.83000 
  8804.500   0.020507   70.05171   4.942508   6.080950   4.581984   2.134005   16.70034   33.86507   -999.000   -999.000   -999.000   18.60570   39.54455   -999.000   70.05171 
  8805.000   -.022000   69.27400   4.896000   5.921000   4.798000   2.125000   16.26800   33.67500   -999.000   -999.000   -999.000   17.81400   37.92700   -999.000   69.27400 
  8805.500   -.022000   69.92403   4.794541   6.005025   4.860474   2.099993   16.55142   33.74647   -999.000   -999.000   -999.000   17.52938   38.88419   -999.000   69.92403 
  8806.000   -.022000   70.57500   4.693000   6.089000   4.923000   2.075000   16.83500   33.81800   -999.000   -999.000   -999.000   17.24500   39.84300   -999.000   70.57500 
  8806.500   0.003988   70.87514   4.535492   5.931930   4.648420   2.054506   16.56651   33.67751   -999.000   -999.000   -999.000   17.56606   38.97337   -999.000   70.87514 
  8807.000   0.030000   71.17500   4.378000   5.775000   4.374000   2.034000   16.29800   33.53700   -999.000   -999.000   -999.000   17.88700   38.10400   -999.000   71.17500 
  8807.500   0.000502   71.20800   4.307522   5.679034   4.257053   2.045999   16.14891   33.74747   -999.000   -999.000   -999.000   17.92950   37.21902   -999.000   71.20800 
  8808.000   -.029000   71.24100   4.237000   5.583000   4.140000   2.058000   16.00000   33.95800   -999.000   -999.000   -999.000   17.97200   36.33400   -999.000   71.24100 
  8808.500   -999.000   69.87140   4.230000   5.704000   4.126503   2.077004   16.68647   33.92901   -999.000   -999.000   -999.000   18.79703   37.69931   -999.000   69.87140 
  8809.000   -999.000   68.50100   4.223000   5.825000   4.113000   2.096000   17.37200   33.90000   -999.000   -999.000   -999.000   19.62200   39.06600   -999.000   68.50100 
  8809.500   -999.000   63.37508   4.225499   5.945538   4.056987   2.083493   16.55233   33.74258   -999.000   -999.000   -999.000   20.56681   41.11402   -999.000   63.37508 
  8810.000   0.076000   58.24800   4.228000   6.066000   4.001000   2.071000   15.73200   33.58500   -999.000   -999.000   -999.000   21.51200   43.16100   -999.000   58.24800 
  8810.500   0.074499   63.09286   4.296977   6.500109   3.974491   2.062006   16.20945   33.47151   -999.000   -999.000   -999.000   21.79249   42.44190   -999.000   63.09286 
  8811.000   0.073000   67.93300   4.366000   6.934000   3.948000   2.053000   16.68600   33.35800   -999.000   -999.000   -999.000   22.07300   41.72200   -999.000   67.93300 
  8811.500   0.054002   70.68646   4.496116   7.211554   4.004486   2.122547   16.71549   33.08961   -999.000   -999.000   -999.000   21.46090   41.04460   -999.000   70.68646 
  8812.000   0.035000   73.43800   4.626000   7.489000   4.061000   2.192000   16.74500   32.82100   -999.000   -999.000   -999.000   20.84800   40.36800   -999.000   73.43800 
  8812.500   0.046004   73.58105   4.833066   7.428527   4.070493   2.255462   16.55140   32.29452   -999.000   -999.000   -999.000   20.14663   39.86449   -999.000   73.58105 
  8813.000   0.057000   73.72400   5.040000   7.368000   4.080000   2.319000   16.35800   31.76900   -999.000   -999.000   -999.000   19.44600   39.36000   -999.000   73.72400 
  8813.500   0.054499   77.31679   5.096030   7.003230   4.135525   2.316501   16.70107   31.74500   -999.000   -999.000   -999.000   18.72260   38.75510   -999.000   77.31679 
  8814.000   0.052000   80.91100   5.152000   6.638000   4.191000   2.314000   17.04400   31.72100   -999.000   -999.000   -999.000   17.99900   38.15000   -999.000   80.91100 
  8814.500   0.076015   82.17305   5.205505   6.413974   4.244000   2.312500   17.59523   31.72900   -999.000   -999.000   -999.000   17.48076   39.59617   -999.000   82.17305 
  8815.000   0.100000   83.43700   5.259000   6.190000   4.297000   2.311000   18.14700   31.73700   -999.000   -999.000   -999.000   16.96200   41.04300   -999.000   83.43700 
  8815.500   0.109001   81.70944   5.253501   7.254698   4.354510   2.328508   17.98303   31.62754   -999.000   -999.000   -999.000   17.80452   40.84044   -999.000   81.70944 
  8816.000   0.118000   79.98100   5.248000   8.321000   4.412000   2.346000   17.81900   31.51800   -999.000   -999.000   -999.000   18.64800   40.63800   -999.000   79.98100 
  8816.500   0.106993   77.48598   5.310978   8.465575   4.525510   2.372989   18.40099   31.65191   -999.000   -999.000   -999.000   19.52641   41.52513   -999.000   77.48598 
  8817.000   0.096000   74.99300   5.374000   8.610000   4.639000   2.400000   18.98200   31.78600   -999.000   -999.000   -999.000   20.40400   42.41300   -999.000   74.99300 
  8817.500   0.114509   72.86821   5.487041   8.142433   4.664005   2.379991   18.60924   32.16317   -999.000   -999.000   -999.000   19.43729   41.15499   -999.000   72.86821 
  8818.000   0.133000   70.74400   5.600000   7.674000   4.689000   2.360000   18.23600   32.54000   -999.000   -999.000   -999.000   18.47000   39.89800   -999.000   70.74400 
  8818.500   0.177971   68.66583   5.680022   9.044248   4.686501   2.288500   18.31052   32.50699   -999.000   -999.000   -999.000   17.95230   38.79993   -999.000   68.66583 
  8819.000   0.223000   66.58900   5.760000   10.41300   4.684000   2.217000   18.38500   32.47400   -999.000   -999.000   -999.000   17.43400   37.70000   -999.000   66.58900 
  8819.500   0.184023   67.15137   5.920427   10.25005   4.709514   2.222502   18.40000   31.92298   -999.000   -999.000   -999.000   17.53306   39.05588   -999.000   67.15137 
  8820.000   0.145000   67.71400   6.081000   10.08700   4.735000   2.228000   18.41500   31.37100   -999.000   -999.000   -999.000   17.63200   40.41100   -999.000   67.71400 
  8820.500   0.132997   64.15848   6.111026   8.642445   4.839022   2.234001   18.29609   30.91756   -999.000   -999.000   -999.000   18.10628   39.52054   -999.000   64.15848 
  8821.000   0.121000   60.60600   6.141000   7.198000   4.943000   2.240000   18.17700   30.46400   -999.000   -999.000   -999.000   18.58100   38.63000   -999.000   60.60600 
  8821.500   0.175028   59.13196   6.109982   7.113004   4.960012   2.209501   18.26649   30.45050   -999.000   -999.000   -999.000   19.84855   37.41322   -999.000   59.13196 
  8822.000   0.229000   57.65900   6.079000   7.028000   4.977000   2.179000   18.35600   30.43700   -999.000   -999.000   -999.000   21.11800   36.19700   -999.000   57.65900 
  8822.500   0.218005   60.76297   6.176490   7.159070   4.943000   2.230483   18.38551   30.18674   -999.000   -999.000   -999.000   20.29340   36.13654   -999.000   60.76297 
  8823.000   0.207000   63.86400   6.274000   7.290000   4.909000   2.282000   18.41500   29.93600   -999.000   -999.000   -999.000   19.46800   36.07600   -999.000   63.86400 
  8823.500   0.174028   66.43513   6.273500   7.027976   5.034531   2.341939   18.50451   29.75310   -999.000   -999.000   -999.000   18.95731   37.27065   -999.000   66.43513 
  8824.000   0.141000   69.00800   6.273000   6.766000   5.160000   2.402000   18.59400   29.57000   -999.000   -999.000   -999.000   18.44700   38.46500   -999.000   69.00800 
  8824.500   0.168507   70.04086   6.407426   6.319194   5.185988   2.390997   17.50645   29.51351   -999.000   -999.000   -999.000   17.87016   37.57589   -999.000   70.04086 
