~VERSION INFORMATION
VERS.                               2.00: CWLS LOG ASCII STANDARD VERSION 2.00
WRAP.                               NO  : ONE LINE PER DEPTH STEP               
~WELL INFORMATION
#MNEM.UNIT                     DATA TYPE  INFORMATION
#----------------------------------------------------------------------
STRT.F                             16.00: START DEPTH
STOP.F                          11705.00: STOP DEPTH
STEP.F                              0.50: STEP VALUE
NULL.                            -999.00: NULL VALUE
COMP.                                   : COMPANY                               
WELL.                      S MGS UNIT 16: WELL                                  
FLD .                            Unknown: FIELD                                 
LOC .                                   : LOCATION                              
CNTY.                                   : COUNTY                                
STAT.                                   : STATE                                 
CTRY.                                   : COUNTRY                               
SRVC.                                   : SERVICE COMPANY                       
DATE.                                   : LOG DATE                              
API .                   50733204590000  : UNIQUE WELL IDENTIFIER                
~PARAMETER INFORMATION                                                          
#MNEM.UNIT        VALUE   DESCRIPTION                                           
#---------      --------  -----------                                           
~OTHER INFORMATION                                                              
FLS0    .          CIRC                                                         
LGD0    .          7/2/1969                                                     
MT0     .          FRESH/GEL                                                    
FLS0    .          CIRC                                                         
LGD0    .          8/13/1969                                                    
MT0     .          CYPAN                                                        
CSG0    .          13.375" @ 2555                                               
CSG0    .          9.625" @ 10296                                               
~CURVE INFORMATION                                                              
#MNEM.UNIT                 DESCRIPTION                                          
#---------                 -----------                                          
DEPTH   .F               :  1 DEPTH
DRHO    .G/C3          00:  2 DENSITY CORRECTN                                
DT_ORIG .MS/F          00:  3 ORIGINAL SONIC CURVE                            
ILD     .OHMM          00:  4 INDUCTION LOG DEEP                              
ILM     .OHMM          00:  5 INDUCTION LOG MEDIUM                            
SFL     .OHMM          00:  6 SPHER. OR SHAL. FOC. LOG                        
RHOB    .G/C3          00:  7 BULK DENSITY                                    
CALI    .IN            00:  8 CALIPER                                         
SP      .MV            00:  9 SELF POTENTIAL                                  
RT      .OHMM          00: 10 TRUE RESIST CALC FROM AR                        
AF30    .OHMM          00: 11 ARRAY IND 4 FT RESISTIVI                        
AF90    .OHMM          00: 12 ARRAY IND 4 FT RESISTIVI                        
CNS     .%             00: 13 COMPENSATED NEUT (-S)                           
GR      .GAPI          00: 14 GAMMA RAY                                       
AF20    .OHMM          00: 15 ARRAY IND 4 FT RESISTIVI                        
DT      .MS/F          00: 16 INTERV TRANSIT TIME                             
~A  DEPTH    DRHO       DT_ORIG    ILD        ILM        SFL        RHOB       CALI       SP         RT         AF30       AF90       CNS        GR         AF20       DT                                                                                     
# ...
  9653.000   0.041000   70.59400   8.856000   7.764000   10.82900   2.492000   13.25700   20.78000   -999.000   -999.000   -999.000   33.76400   95.79200   -999.000   70.59400 
  9653.500   0.050494   71.01329   8.799475   7.858455   10.89106   2.447972   13.27201   20.84095   -999.000   -999.000   -999.000   32.94584   91.90771   -999.000   71.01329 
  9654.000   0.060000   71.43300   8.743000   7.953000   10.95300   2.404000   13.28700   20.90200   -999.000   -999.000   -999.000   32.12700   88.02200   -999.000   71.43300 
  9654.500   0.009491   71.30450   8.845469   8.463343   10.94600   2.381511   13.64427   21.15289   -999.000   -999.000   -999.000   31.75257   90.32663   -999.000   71.30450 
  9655.000   -.041000   71.17600   8.948000   8.974000   10.93900   2.359000   14.00200   21.40400   -999.000   -999.000   -999.000   31.37800   92.63400   -999.000   71.17600 
  9655.500   -.027004   71.54948   8.861963   8.273186   10.82745   2.358000   14.16604   21.13676   -999.000   -999.000   -999.000   30.69387   93.43980   -999.000   71.54948 
  9656.000   -.013000   71.92300   8.776000   7.573000   10.71600   2.357000   14.33000   20.87000   -999.000   -999.000   -999.000   30.00900   94.24500   -999.000   71.92300 
  9656.500   0.057984   72.79480   8.628394   7.069834   10.51550   2.365993   14.33000   20.97549   -999.000   -999.000   -999.000   29.86949   92.51907   -999.000   72.79480 
  9657.000   0.129000   73.66800   8.481000   6.566000   10.31500   2.375000   14.33000   21.08100   -999.000   -999.000   -999.000   29.73000   90.79500   -999.000   73.66800 
  9657.500   0.140002   74.73611   8.301974   6.539476   10.01343   2.381503   14.27044   20.87893   -999.000   -999.000   -999.000   28.45644   90.76250   -999.000   74.73611 
  9658.000   0.151000   75.80400   8.123000   6.513000   9.712000   2.388000   14.21100   20.67700   -999.000   -999.000   -999.000   27.18100   90.73000   -999.000   75.80400 
  9658.500   0.165014   77.97980   7.807957   6.035581   9.329929   2.431474   14.39001   20.64003   -999.000   -999.000   -999.000   30.55027   88.22299   -999.000   77.97980 
  9659.000   0.179000   80.15400   7.493000   5.558000   8.948000   2.475000   14.56900   20.60300   -999.000   -999.000   -999.000   33.91600   85.71600   -999.000   80.15400 
  9659.500   0.147524   81.58564   6.905374   5.079067   8.663528   2.481003   13.97293   20.54647   -999.000   -999.000   -999.000   36.14816   79.00539   -999.000   81.58564 
  9660.000   0.116000   83.01800   6.317000   4.600000   8.379000   2.487000   13.37600   20.49000   -999.000   -999.000   -999.000   38.37700   72.29000   -999.000   83.01800 
  9660.500   0.137007   83.16257   5.537808   4.279211   7.286569   2.439479   14.00222   20.31297   -999.000   -999.000   -999.000   39.49879   71.00949   -999.000   83.16257 
  9661.000   0.158000   83.30700   4.759000   3.958000   6.194000   2.392000   14.62800   20.13600   -999.000   -999.000   -999.000   40.62100   69.72800   -999.000   83.30700 
  9661.500   0.129486   83.38251   4.449386   3.818118   5.724328   2.382507   14.97085   20.44916   -999.000   -999.000   -999.000   41.32583   70.46574   -999.000   83.38251 
  9662.000   0.101000   83.45800   4.140000   3.678000   5.254000   2.373000   15.31400   20.76200   -999.000   -999.000   -999.000   42.03100   71.20400   -999.000   83.45800 
  9662.500   0.079497   80.77222   4.156010   3.803401   5.263493   2.424994   14.47875   20.98003   -999.000   -999.000   -999.000   40.57137   65.90321   -999.000   80.77222 
  9663.000   0.058000   78.09000   4.172000   3.929000   5.273000   2.477000   13.64400   21.19800   -999.000   -999.000   -999.000   39.11200   60.61000   -999.000   78.09000 
  9663.500   0.038012   75.30409   4.443973   4.303509   5.447478   2.510030   13.74853   20.81429   -999.000   -999.000   -999.000   36.20250   60.42356   -999.000   75.30409 
  9664.000   0.018000   72.51600   4.716000   4.678000   5.622000   2.543000   13.85300   20.43100   -999.000   -999.000   -999.000   33.29000   60.23700   -999.000   72.51600 
  9664.500   -999.000   72.23961   5.455125   6.214826   5.992887   2.547999   13.71891   20.82103   -999.000   -999.000   -999.000   33.27801   60.66357   -999.000   72.23961 
  9665.000   -999.000   71.96300   6.194000   7.752000   6.364000   2.553000   13.58500   21.21100   -999.000   -999.000   -999.000   33.26600   61.09100   -999.000   71.96300 
  9665.500   -999.000   72.51437   6.339577   8.288551   6.787590   2.548496   13.62947   21.19399   -999.000   -999.000   -999.000   32.88665   63.81049   -999.000   72.51437 
  9666.000   -999.000   73.06600   6.485000   8.826000   7.211000   2.544000   13.67400   21.17700   -999.000   -999.000   -999.000   32.50700   66.52700   -999.000   73.06600 
  9666.500   -999.000   73.09000   6.831954   7.834100   7.350029   2.536505   13.70402   21.14299   -999.000   -999.000   -999.000   35.66045   66.08881   -999.000   73.09000 
  9667.000   -999.000   73.11400   7.179000   6.841000   7.489000   2.529000   13.73400   21.10900   -999.000   -999.000   -999.000   38.81200   65.65100   -999.000   73.11400 
  9667.500   -999.000   72.81236   7.553120   6.670544   7.744913   2.516998   13.73400   21.29447   -999.000   -999.000   -999.000   39.96553   64.67410   -999.000   72.81236 
  9668.000   0.057000   72.51100   7.927000   6.500000   8.001000   2.505000   13.73400   21.48000   -999.000   -999.000   -999.000   41.11800   63.69600   -999.000   72.51100 
  9668.500   0.039995   73.30955   8.087505   6.636397   7.966978   2.440526   13.74901   21.44649   -999.000   -999.000   -999.000   43.05898   64.69768   -999.000   73.30955 
  9669.000   0.023000   74.10800   8.248000   6.773000   7.933000   2.376000   13.76400   21.41300   -999.000   -999.000   -999.000   44.99900   65.70000   -999.000   74.10800 
  9669.500   -.008527   74.27954   8.210979   6.909613   8.050958   2.333525   13.98768   21.24192   -999.000   -999.000   -999.000   45.81288   64.48264   -999.000   74.27954 
  9670.000   -.040000   74.45100   8.174000   7.046000   8.169000   2.291000   14.21100   21.07100   -999.000   -999.000   -999.000   46.62700   63.26600   -999.000   74.45100 
  9670.500   0.030040   74.98787   8.113468   7.320790   8.273996   2.305994   14.04702   21.29454   -999.000   -999.000   -999.000   47.00961   62.22864   -999.000   74.98787 
  9671.000   0.100000   75.52500   8.053000   7.596000   8.379000   2.321000   13.88300   21.51800   -999.000   -999.000   -999.000   47.39200   61.19300   -999.000   75.52500 
  9671.500   0.065004   79.66232   8.495706   8.186329   8.370008   2.345015   13.98754   21.41346   -999.000   -999.000   -999.000   47.31253   63.17693   -999.000   79.66232 
  9672.000   0.030000   83.80400   8.939000   8.777000   8.361000   2.369000   14.09200   21.30900   -999.000   -999.000   -999.000   47.23300   65.15800   -999.000   83.80400 
  9672.500   0.036998   86.94366   9.201194   9.413649   8.605794   2.310509   14.10649   21.33451   -999.000   -999.000   -999.000   47.39353   74.27621   -999.000   86.94366 
  9673.000   0.044000   90.08000   9.463000   10.05100   8.851000   2.252000   14.12100   21.36000   -999.000   -999.000   -999.000   47.55400   83.39000   -999.000   90.08000 
  9673.500   0.036007   90.62428   9.684633   10.99819   8.921469   2.312057   13.61478   21.08623   -999.000   -999.000   -999.000   44.56427   86.89716   -999.000   90.62428 
  9674.000   0.028000   91.16900   9.906000   11.94500   8.992000   2.372000   13.10800   20.81200   -999.000   -999.000   -999.000   41.57400   90.40400   -999.000   91.16900 
  9674.500   0.037507   84.82676   9.501716   10.79280   8.886980   2.450472   13.27206   20.60943   -999.000   -999.000   -999.000   37.66784   91.19839   -999.000   84.82676 
  9675.000   0.047000   78.47700   9.097000   9.641000   8.782000   2.529000   13.43600   20.40700   -999.000   -999.000   -999.000   33.76300   91.99200   -999.000   78.47700 
  9675.500   0.028499   74.01473   9.552156   8.900446   8.828995   2.532503   13.28660   20.29612   -999.000   -999.000   -999.000   31.55875   94.09901   -999.000   74.01473 
