~VERSION INFORMATION
VERS.                               2.00: CWLS LOG ASCII STANDARD VERSION 2.00
WRAP.                               NO  : ONE LINE PER DEPTH STEP               
~WELL INFORMATION
#MNEM.UNIT                     DATA TYPE  INFORMATION
#----------------------------------------------------------------------
STRT.F                             16.00: START DEPTH
STOP.F                          11705.00: STOP DEPTH
STEP.F                              0.50: STEP VALUE
NULL.                            -999.00: NULL VALUE
COMP.                                   : COMPANY                               
WELL.                      S MGS UNIT 16: WELL                                  
FLD .                            Unknown: FIELD                                 
LOC .                                   : LOCATION                              
CNTY.                                   : COUNTY                                
STAT.                                   : STATE                                 
CTRY.                                   : COUNTRY                               
SRVC.                                   : SERVICE COMPANY                       
DATE.                                   : LOG DATE                              
API .                   50733204590000  : UNIQUE WELL IDENTIFIER                
~PARAMETER INFORMATION                                                          
#MNEM.UNIT        VALUE   DESCRIPTION                                           
#---------      --------  -----------                                           
~OTHER INFORMATION                                                              
FLS0    .          CIRC                                                         
LGD0    .          7/2/1969                                                     
MT0     .          FRESH/GEL                                                    
FLS0    .          CIRC                                                         
LGD0    .          8/13/1969                                                    
MT0     .          CYPAN                                                        
CSG0    .          13.375" @ 2555                                               
CSG0    .          9.625" @ 10296                                               
~CURVE INFORMATION                                                              
#MNEM.UNIT                 DESCRIPTION                                          
#---------                 -----------                                          
DEPTH   .F               :  1 DEPTH
DRHO    .G/C3          00:  2 DENSITY CORRECTN                                
DT_ORIG .MS/F          00:  3 ORIGINAL SONIC CURVE                            
ILD     .OHMM          00:  4 INDUCTION LOG DEEP                              
ILM     .OHMM          00:  5 INDUCTION LOG MEDIUM                            
SFL     .OHMM          00:  6 SPHER. OR SHAL. FOC. LOG                        
RHOB    .G/C3          00:  7 BULK DENSITY                                    
CALI    .IN            00:  8 CALIPER                                         
SP      .MV            00:  9 SELF POTENTIAL                                  
RT      .OHMM          00: 10 TRUE RESIST CALC FROM AR                        
AF30    .OHMM          00: 11 ARRAY IND 4 FT RESISTIVI                        
AF90    .OHMM          00: 12 ARRAY IND 4 FT RESISTIVI                        
CNS     .%             00: 13 COMPENSATED NEUT (-S)                           
GR      .GAPI          00: 14 GAMMA RAY                                       
AF20    .OHMM          00: 15 ARRAY IND 4 FT RESISTIVI                        
DT      .MS/F          00: 16 INTERV TRANSIT TIME                             
~A  DEPTH    DRHO       DT_ORIG    ILD        ILM        SFL        RHOB       CALI       SP         RT         AF30       AF90       CNS        GR         AF20       DT                                                                                     
# ...
  7951.000   0.019000   81.75900   6.709000   6.189000   6.118000   2.380000   12.98800   21.17800   -999.000   -999.000   -999.000   22.91200   50.98600   -999.000   81.75900 
  7951.500   -999.000   82.98445   7.069055   7.348801   6.077019   2.393002   13.09252   20.56416   -999.000   -999.000   -999.000   26.19440   49.54031   -999.000   82.98445 
  7952.000   -999.000   84.21100   7.429000   8.508000   6.036000   2.406000   13.19700   19.95000   -999.000   -999.000   -999.000   29.47400   48.09300   -999.000   84.21100 
  7952.500   -999.000   84.02444   7.612001   9.092300   6.599270   2.341025   13.06311   19.66201   -999.000   -999.000   -999.000   33.15422   52.34055   -999.000   84.02444 
  7953.000   -.042000   83.83800   7.795000   9.676000   7.162000   2.276000   12.92900   19.37400   -999.000   -999.000   -999.000   36.83500   56.58600   -999.000   83.83800 
  7953.500   -.014503   85.04225   7.971039   9.451592   8.054017   2.207479   12.79445   18.98174   -999.000   -999.000   -999.000   37.73276   62.09999   -999.000   85.04225 
  7954.000   0.013000   86.24800   8.147000   9.227000   8.947000   2.139000   12.66000   18.58900   -999.000   -999.000   -999.000   38.63100   67.60700   -999.000   86.24800 
  7954.500   -.008002   86.72247   8.275055   9.032928   9.145531   2.125501   13.24158   18.45002   -999.000   -999.000   -999.000   38.12339   74.22525   -999.000   86.72247 
  7955.000   -.029000   87.19700   8.403000   8.839000   9.344000   2.112000   13.82300   18.31100   -999.000   -999.000   -999.000   37.61600   80.84500   -999.000   87.19700 
  7955.500   -.019501   85.35903   8.755311   9.676908   9.303490   2.105000   13.70397   17.73428   -999.000   -999.000   -999.000   36.82664   80.40485   -999.000   85.35903 
  7956.000   -.010000   83.52300   9.108000   10.51400   9.263000   2.098000   13.58500   17.15800   -999.000   -999.000   -999.000   36.03700   79.96500   -999.000   83.52300 
  7956.500   0.002500   83.16519   9.505040   12.49205   9.367031   2.092498   14.00251   16.93196   -999.000   -999.000   -999.000   34.92657   78.51688   -999.000   83.16519 
  7957.000   0.015000   82.80700   9.902000   14.46900   9.471000   2.087000   14.42000   16.70600   -999.000   -999.000   -999.000   33.81700   77.06700   -999.000   82.80700 
  7957.500   -999.000   83.71396   10.29650   17.12196   9.819227   1.975491   14.12153   16.68000   -999.000   -999.000   -999.000   34.42622   74.96748   -999.000   83.71396 
  7958.000   -999.000   84.62100   10.69100   19.77400   10.16700   1.864000   13.82300   16.65400   -999.000   -999.000   -999.000   35.03500   72.86600   -999.000   84.62100 
  7958.500   -999.000   88.55090   10.92210   14.43977   10.39553   1.785464   14.12147   16.67550   -999.000   -999.000   -999.000   36.35300   70.56104   -999.000   88.55090 
  7959.000   0.041000   92.47700   11.15300   9.107000   10.62400   1.707000   14.42000   16.69700   -999.000   -999.000   -999.000   37.67100   68.25300   -999.000   92.47700 
  7959.500   0.048503   103.4870   12.05960   8.582125   11.00185   1.705500   14.53904   16.58249   -999.000   -999.000   -999.000   43.58113   65.21634   -999.000   103.4870 
  7960.000   0.056000   114.4870   12.96600   8.058000   11.38000   1.704000   14.65800   16.46800   -999.000   -999.000   -999.000   49.48500   62.18300   -999.000   114.4870 
  7960.500   0.101530   123.7801   16.30724   8.750304   12.40708   1.738474   14.67300   16.58800   -999.000   -999.000   -999.000   58.34072   59.78185   -999.000   123.7801 
  7961.000   0.147000   133.0740   19.64900   9.442000   13.43500   1.773000   14.68800   16.70800   -999.000   -999.000   -999.000   67.20100   57.38300   -999.000   133.0740 
  7961.500   0.137007   134.0704   21.16151   9.204992   12.98849   1.823515   14.39014   16.85395   -999.000   -999.000   -999.000   69.80100   61.78649   -999.000   134.0704 
  7962.000   0.127000   135.0670   22.67500   8.968000   12.54200   1.874000   14.09200   17.00000   -999.000   -999.000   -999.000   72.39800   66.18900   -999.000   135.0670 
  7962.500   -999.000   137.3641   20.43155   6.795734   12.03178   1.729533   15.03117   16.95352   -999.000   -999.000   -999.000   75.66701   62.55035   -999.000   137.3641 
  7963.000   -999.000   139.6630   18.18900   4.624000   11.52200   1.585000   15.97000   16.90700   -999.000   -999.000   -999.000   78.93600   58.91400   -999.000   139.6630 
  7963.500   -999.000   147.4444   16.22166   3.672409   11.69596   1.451413   16.90909   16.85300   -999.000   -999.000   -999.000   83.08750   55.20840   -999.000   147.4444 
  7964.000   -.033000   155.2320   14.25600   2.720000   11.87000   1.318000   17.84900   16.79900   -999.000   -999.000   -999.000   87.24500   51.50400   -999.000   155.2320 
  7964.500   -.037499   164.3118   15.12640   2.671471   12.17158   1.296504   18.51927   16.76750   -999.000   -999.000   -999.000   89.55364   47.25412   -999.000   164.3118 
  7965.000   -.042000   173.4070   15.99600   2.623000   12.47300   1.275000   19.19000   16.73600   -999.000   -999.000   -999.000   91.85900   43.00000   -999.000   173.4070 
  7965.500   -.038001   175.8175   15.58816   2.605505   11.61305   1.281997   19.95055   16.78699   -999.000   -999.000   -999.000   96.23400   34.69633   -999.000   175.8175 
  7966.000   -.034000   178.2300   15.18000   2.588000   10.75300   1.289000   20.71100   16.83800   -999.000   -999.000   -999.000   100.6070   26.39200   -999.000   178.2300 
  7966.500   -.032000   174.7030   11.80510   2.367962   10.49066   1.287501   20.86001   16.68199   -999.000   -999.000   -999.000   98.70733   27.07321   -999.000   174.7030 
  7967.000   -.030000   171.1780   8.434000   2.148000   10.22800   1.286000   21.00900   16.52600   -999.000   -999.000   -999.000   96.80700   27.75400   -999.000   171.1780 
  7967.500   -.033998   163.4760   7.218411   2.177993   10.33156   1.279503   21.17304   15.92118   -999.000   -999.000   -999.000   97.76370   37.05102   -999.000   163.4760 
  7968.000   -.038000   155.7690   6.002000   2.208000   10.43500   1.273000   21.33700   15.31700   -999.000   -999.000   -999.000   98.72100   46.34300   -999.000   155.7690 
  7968.500   -.038000   148.8710   6.636301   2.515909   10.44550   1.276499   21.02416   14.81430   -999.000   -999.000   -999.000   96.14397   44.56741   -999.000   148.8710 
  7969.000   -.038000   141.9720   7.271000   2.824000   10.45600   1.280000   20.71100   14.31200   -999.000   -999.000   -999.000   93.56900   42.79300   -999.000   141.9720 
  7969.500   -.024498   138.5804   8.295856   3.578421   10.76008   1.305997   20.69600   14.04646   -999.000   -999.000   -999.000   90.30003   37.86576   -999.000   138.5804 
  7970.000   -.011000   135.1900   9.321000   4.332000   11.06400   1.332000   20.68100   13.78100   -999.000   -999.000   -999.000   87.03400   32.93300   -999.000   135.1900 
  7970.500   -999.000   128.7466   10.42142   9.193666   11.59858   1.426001   20.54698   13.50474   -999.000   -999.000   -999.000   82.24136   40.86150   -999.000   128.7466 
  7971.000   -999.000   122.3080   11.52000   14.05700   12.13400   1.520000   20.41300   13.22800   -999.000   -999.000   -999.000   77.44900   48.79000   -999.000   122.3080 
  7971.500   -999.000   215.9949   14.52629   19.61314   12.27305   1.718564   16.74641   12.88689   -999.000   -999.000   -999.000   66.75476   54.00362   -999.000   119.0454 
  7972.000   -999.000   309.6680   17.53400   25.17100   12.41200   1.917000   13.07800   12.54600   -999.000   -999.000   -999.000   56.06200   59.22100   -999.000   115.7827 
  7972.500   -999.000   499.2605   22.22132   22.80458   12.49898   2.002486   12.72002   12.80730   -999.000   -999.000   -999.000   53.25459   67.01457   -999.000   112.5201 
  7973.000   -999.000   688.8650   26.91600   20.44200   12.58600   2.088000   12.36200   13.06900   -999.000   -999.000   -999.000   50.44700   74.80600   -999.000   109.2575 
  7973.500   -999.000   440.2444   27.24572   18.95551   13.10555   2.072001   12.31750   13.81971   -999.000   -999.000   -999.000   51.46757   80.76872   -999.000   105.9949 
