~VERSION INFORMATION
VERS.                               2.00: CWLS LOG ASCII STANDARD VERSION 2.00
WRAP.                               NO  : ONE LINE PER DEPTH STEP               
~WELL INFORMATION
#MNEM.UNIT                     DATA TYPE  INFORMATION
#----------------------------------------------------------------------
STRT.F                             16.00: START DEPTH
STOP.F                          11705.00: STOP DEPTH
STEP.F                              0.50: STEP VALUE
NULL.                            -999.00: NULL VALUE
COMP.                                   : COMPANY                               
WELL.                      S MGS UNIT 16: WELL                                  
FLD .                            Unknown: FIELD                                 
LOC .                                   : LOCATION                              
CNTY.                                   : COUNTY                                
STAT.                                   : STATE                                 
CTRY.                                   : COUNTRY                               
SRVC.                                   : SERVICE COMPANY                       
DATE.                                   : LOG DATE                              
API .                   50733204590000  : UNIQUE WELL IDENTIFIER                
~PARAMETER INFORMATION                                                          
#MNEM.UNIT        VALUE   DESCRIPTION                                           
#---------      --------  -----------                                           
~OTHER INFORMATION                                                              
FLS0    .          CIRC                                                         
LGD0    .          7/2/1969                                                     
MT0     .          FRESH/GEL                                                    
FLS0    .          CIRC                                                         
LGD0    .          8/13/1969                                                    
MT0     .          CYPAN                                                        
CSG0    .          13.375" @ 2555                                               
CSG0    .          9.625" @ 10296                                               
~CURVE INFORMATION                                                              
#MNEM.UNIT                 DESCRIPTION                                          
#---------                 -----------                                          
DEPTH   .F               :  1 DEPTH
DRHO    .G/C3          00:  2 DENSITY CORRECTN                                
DT_ORIG .MS/F          00:  3 ORIGINAL SONIC CURVE                            
ILD     .OHMM          00:  4 INDUCTION LOG DEEP                              
ILM     .OHMM          00:  5 INDUCTION LOG MEDIUM                            
SFL     .OHMM          00:  6 SPHER. OR SHAL. FOC. LOG                        
RHOB    .G/C3          00:  7 BULK DENSITY                                    
CALI    .IN            00:  8 CALIPER                                         
SP      .MV            00:  9 SELF POTENTIAL                                  
RT      .OHMM          00: 10 TRUE RESIST CALC FROM AR                        
AF30    .OHMM          00: 11 ARRAY IND 4 FT RESISTIVI                        
AF90    .OHMM          00: 12 ARRAY IND 4 FT RESISTIVI                        
CNS     .%             00: 13 COMPENSATED NEUT (-S)                           
GR      .GAPI          00: 14 GAMMA RAY                                       
AF20    .OHMM          00: 15 ARRAY IND 4 FT RESISTIVI                        
DT      .MS/F          00: 16 INTERV TRANSIT TIME                             
~A  DEPTH    DRHO       DT_ORIG    ILD        ILM        SFL        RHOB       CALI       SP         RT         AF30       AF90       CNS        GR         AF20       DT                                                                                     
# ...
  5789.000   -999.000   97.82600   6.467000   5.394000   4.994000   2.284000   13.28700   28.39900   -999.000   -999.000   -999.000   29.91100   50.66300   -999.000   97.82600 
  5789.500   -999.000   96.13136   6.434488   5.414008   5.004001   2.205028   13.51049   27.51988   -999.000   -999.000   -999.000   29.36648   52.13977   -999.000   96.13136 
  5790.000   0.046000   94.43800   6.402000   5.434000   5.014000   2.126000   13.73400   26.64000   -999.000   -999.000   -999.000   28.82200   53.61500   -999.000   94.43800 
  5790.500   0.089998   88.72295   6.304992   5.741985   5.486384   2.101508   14.37516   25.37224   -999.000   -999.000   -999.000   31.32841   61.47659   -999.000   88.72295 
  5791.000   0.134000   83.01300   6.208000   6.050000   5.959000   2.077000   15.01600   24.10400   -999.000   -999.000   -999.000   33.83300   69.33300   -999.000   83.01300 
  5791.500   0.125001   78.30568   6.197496   5.826543   6.678339   2.068498   14.22634   23.02940   -999.000   -999.000   -999.000   34.85448   69.59351   -999.000   78.30568 
  5792.000   0.116000   73.59500   6.187000   5.603000   7.397000   2.060000   13.43600   21.95500   -999.000   -999.000   -999.000   35.87600   69.85400   -999.000   73.59500 
  5792.500   0.094006   76.14494   5.942527   5.726466   6.950988   1.923036   14.16635   21.08658   -999.000   -999.000   -999.000   36.88248   72.69852   -999.000   76.14494 
  5793.000   0.072000   78.69300   5.698000   5.850000   6.505000   1.786000   14.89700   20.21800   -999.000   -999.000   -999.000   37.88900   75.54400   -999.000   78.69300 
  5793.500   0.085495   82.61474   5.404595   5.936486   6.023304   1.750514   14.94151   19.79281   -999.000   -999.000   -999.000   39.48603   78.23643   -999.000   82.61474 
  5794.000   0.099000   86.54000   5.111000   6.023000   5.542000   1.715000   14.98600   19.36800   -999.000   -999.000   -999.000   41.08200   80.92900   -999.000   86.54000 
  5794.500   0.101000   87.94461   4.963989   5.644109   5.446011   1.732003   15.00099   19.08160   -999.000   -999.000   -999.000   42.01400   82.33238   -999.000   87.94461 
  5795.000   0.103000   89.34900   4.817000   5.265000   5.350000   1.749000   15.01600   18.79500   -999.000   -999.000   -999.000   42.94600   83.73500   -999.000   89.34900 
  5795.500   0.086997   90.62666   5.029121   5.582547   5.176971   1.754998   14.70304   18.46011   -999.000   -999.000   -999.000   46.28038   82.79012   -999.000   90.62666 
  5796.000   0.071000   91.90500   5.241000   5.900000   5.004000   1.761000   14.39000   18.12500   -999.000   -999.000   -999.000   49.61400   81.84600   -999.000   91.90500 
  5796.500   0.076498   96.94373   5.698646   6.720527   5.059984   1.762000   14.67292   17.89349   -999.000   -999.000   -999.000   52.32741   80.21896   -999.000   96.94373 
  5797.000   0.082000   101.9800   6.156000   7.542000   5.116000   1.763000   14.95600   17.66200   -999.000   -999.000   -999.000   55.04000   78.59100   -999.000   101.9800 
  5797.500   0.094005   107.0886   6.585803   6.967260   5.288056   1.725013   14.40457   17.64701   -999.000   -999.000   -999.000   55.88557   78.98673   -999.000   107.0886 
  5798.000   0.106000   112.2000   7.016000   6.393000   5.460000   1.687000   13.85300   17.63200   -999.000   -999.000   -999.000   56.73100   79.38200   -999.000   112.2000 
  5798.500   0.102502   117.5440   7.131965   5.363021   5.359514   1.678002   13.86799   17.82510   -999.000   -999.000   -999.000   57.68469   78.78656   -999.000   117.5440 
  5799.000   0.099000   122.8860   7.248000   4.334000   5.259000   1.669000   13.88300   18.01800   -999.000   -999.000   -999.000   58.63800   78.19100   -999.000   122.8860 
  5799.500   0.055514   131.2362   6.993922   3.870810   5.080946   1.599014   14.16608   18.26055   -999.000   -999.000   -999.000   66.70840   74.86359   -999.000   131.2362 
  5800.000   0.012000   139.5910   6.740000   3.408000   4.903000   1.529000   14.44900   18.50300   -999.000   -999.000   -999.000   74.78600   71.54000   -999.000   139.5910 
  5800.500   -.022004   146.8626   6.594967   3.146595   5.491500   1.414461   15.35831   18.76446   -999.000   -999.000   -999.000   85.66714   59.22480   -999.000   146.8626 
  5801.000   -.056000   154.1340   6.450000   2.885000   6.080000   1.300000   16.26800   19.02600   -999.000   -999.000   -999.000   96.54900   46.90800   -999.000   154.1340 
  5801.500   -.062501   158.4544   7.142304   3.418741   6.731298   1.262488   17.75863   19.47726   -999.000   -999.000   -999.000   102.4262   37.55495   -999.000   158.4544 
  5802.000   -.069000   162.7780   7.835000   3.952000   7.383000   1.225000   19.25000   19.92900   -999.000   -999.000   -999.000   108.3020   28.20800   -999.000   162.7780 
  5802.500   -.070000   161.8293   9.291026   5.626485   7.401503   1.221498   19.25000   20.18808   -999.000   -999.000   -999.000   109.6456   23.55476   -999.000   161.8293 
  5803.000   -.071000   160.8800   10.74900   7.301000   7.420000   1.218000   19.25000   20.44700   -999.000   -999.000   -999.000   110.9890   18.89900   -999.000   160.8800 
  5803.500   -.071000   150.1478   10.47396   8.004369   7.636468   1.219999   19.29450   20.51653   -999.000   -999.000   -999.000   115.4992   18.27764   -999.000   150.1478 
  5804.000   -.071000   139.4230   10.19900   8.708000   7.853000   1.222000   19.33900   20.58600   -999.000   -999.000   -999.000   120.0130   17.65600   -999.000   139.4230 
  5804.500   -.062501   134.3461   10.23749   7.654951   8.045514   1.237503   19.35400   20.63401   -999.000   -999.000   -999.000   114.6247   18.63344   -999.000   134.3461 
  5805.000   -.054000   129.2730   10.27600   6.602000   8.238000   1.253000   19.36900   20.68200   -999.000   -999.000   -999.000   109.2380   19.61000   -999.000   129.2730 
  5805.500   -999.000   128.4844   11.87823   7.657925   8.615566   1.345023   17.89251   20.72451   -999.000   -999.000   -999.000   102.6495   23.82847   -999.000   128.4844 
  5806.000   -999.000   127.6950   13.47900   8.713000   8.993000   1.437000   16.41700   20.76700   -999.000   -999.000   -999.000   96.06100   28.04900   -999.000   127.6950 
  5806.500   -999.000   126.5797   12.88877   10.40758   8.757902   1.631466   15.97013   21.05310   -999.000   -999.000   -999.000   82.55238   40.25787   -999.000   126.5797 
  5807.000   0.036000   125.4640   12.29900   12.10100   8.523000   1.826000   15.52300   21.33900   -999.000   -999.000   -999.000   69.05700   52.45900   -999.000   125.4640 
  5807.500   0.095507   118.5153   10.83027   9.834706   8.222089   1.906503   14.82214   21.41199   -999.000   -999.000   -999.000   61.48167   65.85403   -999.000   118.5153 
  5808.000   0.155000   111.5620   9.361000   7.570000   7.921000   1.987000   14.12100   21.48500   -999.000   -999.000   -999.000   53.90800   79.25800   -999.000   111.5620 
  5808.500   0.155500   107.9623   8.947779   6.878763   7.825028   1.943992   14.33009   21.55449   -999.000   -999.000   -999.000   50.59068   78.67706   -999.000   107.9623 
  5809.000   0.156000   104.3620   8.535000   6.188000   7.729000   1.901000   14.53900   21.62400   -999.000   -999.000   -999.000   47.27600   78.09600   -999.000   104.3620 
  5809.500   0.161997   101.8924   8.170684   6.277972   7.420955   1.879496   14.30040   21.71049   -999.000   -999.000   -999.000   45.63581   76.01440   -999.000   101.8924 
  5810.000   0.168000   99.42400   7.806000   6.368000   7.113000   1.858000   14.06200   21.79700   -999.000   -999.000   -999.000   43.99500   73.93300   -999.000   99.42400 
  5810.500   0.164502   95.48838   7.046129   6.108490   6.991946   1.849504   14.40508   21.91006   -999.000   -999.000   -999.000   42.20740   76.20880   -999.000   95.48838 
  5811.000   0.161000   91.55500   6.286000   5.849000   6.871000   1.841000   14.74800   22.02300   -999.000   -999.000   -999.000   40.41900   78.48600   -999.000   91.55500 
  5811.500   0.167499   91.16819   5.666667   5.381621   6.829990   1.871495   14.21108   22.06251   -999.000   -999.000   -999.000   42.08068   78.88470   -999.000   91.16819 
