~VERSION INFORMATION
VERS.                               2.00: CWLS LOG ASCII STANDARD VERSION 2.00
WRAP.                               NO  : ONE LINE PER DEPTH STEP               
~WELL INFORMATION
#MNEM.UNIT                     DATA TYPE  INFORMATION
#----------------------------------------------------------------------
STRT.F                           1691.00: START DEPTH
STOP.F                          10167.00: STOP DEPTH
STEP.F                              0.50: STEP VALUE
NULL.                            -999.00: NULL VALUE
COMP.                                   : COMPANY                               
WELL.                        MGS C-22-23: WELL                                  
FLD .                            Unknown: FIELD                                 
LOC .                                   : LOCATION                              
CNTY.                                   : COUNTY                                
STAT.                                   : STATE                                 
CTRY.                                   : COUNTRY                               
SRVC.                                   : SERVICE COMPANY                       
DATE.                                   : LOG DATE                              
API .                   50733203970000  : UNIQUE WELL IDENTIFIER                
~PARAMETER INFORMATION                                                          
#MNEM.UNIT        VALUE   DESCRIPTION                                           
#---------      --------  -----------                                           
~OTHER INFORMATION                                                              
CSG0    .          9.625" @ 6034                                                
FLS0    .          CIRC                                                         
LGD0    .          6/6/1988                                                     
MT0     .          #2                                                           
~CURVE INFORMATION                                                              
#MNEM.UNIT                 DESCRIPTION                                          
#---------                 -----------                                          
DEPTH   .F               :  1 DEPTH
DRHO    .G/C3          00:  2 DENSITY CORRECTN                                
RHOB    .G/C3          00:  3 BULK DENSITY                                    
CALI    .IN            00:  4 CALIPER                                         
DTL     .MS/F          00:  5 INTERV TRANSIT TIME LONG                        
DT_ORIG .MS/F          00:  6 ORIGINAL SONIC CURVE                            
GR      .GAPI          00:  7 GAMMA RAY                                       
IDPH    .OHMM          00:  8 INDUCTION DB PHASOR                             
ILD     .OHMM          00:  9 INDUCTION LOG DEEP                              
ILM     .OHMM          00: 10 INDUCTION LOG MEDIUM                            
IMPH    .OHMM          00: 11 INDUCTION MEDIUM PHASOR                         
SFL     .OHMM          00: 12 SPHER. OR SHAL. FOC. LOG                        
SP      .MV            00: 13 SELF POTENTIAL                                  
PEF     .B/E           00: 14 FOTO ELECTRO. XSCT                              
DT      .MS/F          00: 15 INTERV TRANSIT TIME                             
~A  DEPTH    DRHO       RHOB       CALI       DTL        DT_ORIG    GR         IDPH       ILD        ILM        IMPH       SFL        SP         PEF        DT                                                                                                
# ...
  1715.500   -999.000   -999.000   -999.000   126.0000   123.1250   49.48410   7.347732   9.355526   7.386500   7.957603   10.14854   -69.0630   -999.000   123.1250 
  1716.000   -999.000   -999.000   -999.000   124.5000   121.0000   46.75000   8.648000   9.508000   7.535000   2.549000   10.75800   -68.8130   -999.000   121.0000 
  1716.500   -999.000   -999.000   -999.000   122.8750   119.6250   48.09411   10.12855   9.640495   9.252042   3.790205   10.90249   -68.7505   -999.000   119.6250 
  1717.000   -999.000   -999.000   -999.000   121.2500   118.2500   49.43800   11.60900   9.773000   10.96900   5.031000   11.04700   -68.6880   -999.000   118.2500 
  1717.500   -999.000   -999.000   -999.000   120.2500   118.7500   49.67201   11.45701   11.66405   10.11350   74.26306   10.02754   -67.6880   -999.000   118.7500 
  1718.000   -999.000   -999.000   -999.000   119.2500   119.2500   49.90600   11.30500   13.55500   9.258000   143.5000   9.008000   -66.6880   -999.000   119.2500 
  1718.500   -999.000   -999.000   -999.000   112.2500   118.8750   48.04681   10.85953   15.59791   9.070496   77.26794   8.406502   -64.8441   -999.000   118.8750 
  1719.000   -999.000   -999.000   -999.000   105.2500   118.5000   46.18800   10.41400   17.64100   8.883000   11.03100   7.805000   -63.0000   -999.000   118.5000 
  1719.500   -999.000   -999.000   -999.000   101.3750   107.0000   46.40647   10.97254   15.94941   9.730442   8.800305   7.646495   -61.9531   -999.000   107.0000 
  1720.000   -999.000   -999.000   -999.000   97.50000   95.50000   46.62500   11.53100   14.25800   10.57800   6.570000   7.488000   -60.9060   -999.000   95.50000 
  1720.500   -999.000   -999.000   -999.000   86.87500   86.62500   45.17194   12.73449   13.20708   11.72642   9.144984   9.271729   -60.5779   -999.000   86.62500 
  1721.000   -999.000   -999.000   -999.000   76.25000   77.75000   43.71900   13.93800   12.15600   12.87500   11.71900   11.05500   -60.2500   -999.000   77.75000 
  1721.500   -999.000   -999.000   -999.000   90.37500   89.12500   43.92199   14.51603   12.42201   12.54305   16.87410   14.04309   -60.2815   -999.000   89.12500 
  1722.000   -999.000   -999.000   -999.000   104.5000   100.5000   44.12500   15.09400   12.68800   12.21100   22.03100   17.03100   -60.3130   -999.000   100.5000 
  1722.500   -999.000   -999.000   -999.000   112.6250   110.2500   43.76554   14.34399   12.84803   11.93348   17.15625   13.30076   -60.6720   -999.000   110.2500 
  1723.000   -999.000   -999.000   -999.000   120.7500   120.0000   43.40600   13.59400   13.00800   11.65600   12.28100   9.570000   -61.0310   -999.000   120.0000 
  1723.500   -999.000   -999.000   -999.000   122.2500   120.5000   44.89047   12.71098   12.68748   11.42552   10.65576   9.511499   -61.8435   -999.000   120.5000 
  1724.000   -999.000   -999.000   -999.000   123.7500   121.0000   46.37500   11.82800   12.36700   11.19500   9.031000   9.453000   -62.6560   -999.000   121.0000 
  1724.500   -999.000   -999.000   -999.000   123.2500   122.0000   48.23447   11.41797   11.72648   10.84754   9.547059   9.499995   -62.9685   -999.000   122.0000 
  1725.000   -999.000   -999.000   -999.000   122.7500   123.0000   50.09400   11.00800   11.08600   10.50000   10.06300   9.547000   -63.2810   -999.000   123.0000 
  1725.500   -999.000   -999.000   -999.000   122.7500   123.2500   48.21924   11.26953   11.01950   10.32397   10.69559   9.499999   -63.2655   -999.000   123.2500 
  1726.000   -999.000   -999.000   -999.000   122.7500   123.5000   46.34400   11.53100   10.95300   10.14800   11.32800   9.453000   -63.2500   -999.000   123.5000 
  1726.500   -999.000   -999.000   -999.000   124.2500   124.8750   46.40649   11.60549   10.98450   10.17550   10.87094   9.453000   -62.9530   -999.000   124.8750 
  1727.000   -999.000   -999.000   -999.000   125.7500   126.2500   46.46900   11.68000   11.01600   10.20300   10.41400   9.453000   -62.6560   -999.000   126.2500 
  1727.500   -999.000   -999.000   -999.000   125.3750   126.8750   45.84399   11.41049   11.02750   10.21850   10.11695   9.523495   -62.3125   -999.000   126.8750 
  1728.000   -999.000   -999.000   -999.000   125.0000   127.5000   45.21900   11.14100   11.03900   10.23400   9.820000   9.594000   -61.9690   -999.000   127.5000 
  1728.500   -999.000   -999.000   -999.000   124.5000   125.6250   46.18749   10.94149   11.03500   10.22650   10.05051   9.550995   -61.7970   -999.000   125.6250 
  1729.000   -999.000   -999.000   -999.000   124.0000   123.7500   47.15600   10.74200   11.03100   10.21900   10.28100   9.508000   -61.6250   -999.000   123.7500 
  1729.500   -999.000   -999.000   -999.000   123.0000   123.5000   46.65601   10.86700   11.08600   10.27350   10.51151   9.348001   -61.2500   -999.000   123.5000 
  1730.000   -999.000   -999.000   -999.000   122.0000   123.2500   46.15600   10.99200   11.14100   10.32800   10.74200   9.188000   -60.8750   -999.000   123.2500 
  1730.500   -999.000   -999.000   -999.000   122.2500   121.8750   41.95327   11.28100   11.19950   10.41799   10.71500   9.102013   -61.2345   -999.000   121.8750 
  1731.000   -999.000   -999.000   -999.000   122.5000   120.5000   37.75000   11.57000   11.25800   10.50800   10.68800   9.016000   -61.5940   -999.000   120.5000 
  1731.500   -999.000   -999.000   -999.000   122.3750   121.0000   39.92178   11.70699   11.28900   10.50000   10.64500   9.179983   -61.9690   -999.000   121.0000 
  1732.000   -999.000   -999.000   -999.000   122.2500   121.5000   42.09400   11.84400   11.32000   10.49200   10.60200   9.344000   -62.3440   -999.000   121.5000 
  1732.500   -999.000   -999.000   -999.000   123.8750   122.0000   42.92196   11.69152   11.33950   10.53100   10.66451   9.269502   -63.2345   -999.000   122.0000 
  1733.000   -999.000   -999.000   -999.000   125.5000   122.5000   43.75000   11.53900   11.35900   10.57000   10.72700   9.195000   -64.1250   -999.000   122.5000 
  1733.500   -999.000   -999.000   -999.000   125.7500   124.6250   43.15656   11.36351   11.39450   10.56650   10.80499   9.265494   -65.7500   -999.000   124.6250 
  1734.000   -999.000   -999.000   -999.000   126.0000   126.7500   42.56300   11.18800   11.43000   10.56300   10.88300   9.336000   -67.3750   -999.000   126.7500 
  1734.500   -999.000   -999.000   -999.000   125.6250   127.6250   44.29712   11.23049   11.44150   10.63699   10.90250   9.406504   -68.8441   -999.000   127.6250 
  1735.000   -999.000   -999.000   -999.000   125.2500   128.5000   46.03100   11.27300   11.45300   10.71100   10.92200   9.477000   -70.3130   -999.000   128.5000 
  1735.500   -999.000   -999.000   -999.000   125.3750   127.6250   46.07800   11.52698   11.48450   10.71100   10.96100   9.559007   -71.0630   -999.000   127.6250 
  1736.000   -999.000   -999.000   -999.000   125.5000   126.7500   46.12500   11.78100   11.51600   10.71100   11.00000   9.641000   -71.8130   -999.000   126.7500 
  1736.500   -999.000   -999.000   -999.000   125.8750   127.1250   45.26544   11.92199   11.54300   10.75800   11.05849   9.539515   -72.6566   -999.000   127.1250 
  1737.000   -999.000   -999.000   -999.000   126.2500   127.5000   44.40600   12.06300   11.57000   10.80500   11.11700   9.438000   -73.5000   -999.000   127.5000 
  1737.500   -999.000   -999.000   -999.000   126.3750   128.0000   43.74990   11.91452   11.57400   10.80500   11.12500   9.469000   -74.3750   -999.000   128.0000 
  1738.000   -999.000   -999.000   -999.000   126.5000   128.5000   43.09400   11.76600   11.57800   10.80500   11.13300   9.500000   -75.2500   -999.000   128.5000 
  1738.500   -999.000   -999.000   -999.000   126.7500   126.0000   42.53149   11.58597   11.57400   10.77350   11.07450   9.625000   -75.9064   -999.000   126.0000 
  1739.000   -999.000   -999.000   -999.000   127.0000   123.5000   41.96900   11.40600   11.57000   10.74200   11.01600   9.750000   -76.5630   -999.000   123.5000 
  1739.500   -999.000   -999.000   -999.000   125.3750   121.8750   40.67191   11.41800   11.55450   10.70300   10.95700   9.585970   -77.2816   -999.000   121.8750 
