~VERSION INFORMATION
VERS.                               2.00: CWLS LOG ASCII STANDARD VERSION 2.00
WRAP.                               NO  : ONE LINE PER DEPTH STEP               
~WELL INFORMATION
#MNEM.UNIT                     DATA TYPE  INFORMATION
#----------------------------------------------------------------------
STRT.F                           1691.00: START DEPTH
STOP.F                          10167.00: STOP DEPTH
STEP.F                              0.50: STEP VALUE
NULL.                            -999.00: NULL VALUE
COMP.                                   : COMPANY                               
WELL.                        MGS C-22-23: WELL                                  
FLD .                            Unknown: FIELD                                 
LOC .                                   : LOCATION                              
CNTY.                                   : COUNTY                                
STAT.                                   : STATE                                 
CTRY.                                   : COUNTRY                               
SRVC.                                   : SERVICE COMPANY                       
DATE.                                   : LOG DATE                              
API .                   50733203970000  : UNIQUE WELL IDENTIFIER                
~PARAMETER INFORMATION                                                          
#MNEM.UNIT        VALUE   DESCRIPTION                                           
#---------      --------  -----------                                           
~OTHER INFORMATION                                                              
CSG0    .          9.625" @ 6034                                                
FLS0    .          CIRC                                                         
LGD0    .          6/6/1988                                                     
MT0     .          #2                                                           
~CURVE INFORMATION                                                              
#MNEM.UNIT                 DESCRIPTION                                          
#---------                 -----------                                          
DEPTH   .F               :  1 DEPTH
DRHO    .G/C3          00:  2 DENSITY CORRECTN                                
RHOB    .G/C3          00:  3 BULK DENSITY                                    
CALI    .IN            00:  4 CALIPER                                         
DTL     .MS/F          00:  5 INTERV TRANSIT TIME LONG                        
DT_ORIG .MS/F          00:  6 ORIGINAL SONIC CURVE                            
GR      .GAPI          00:  7 GAMMA RAY                                       
IDPH    .OHMM          00:  8 INDUCTION DB PHASOR                             
ILD     .OHMM          00:  9 INDUCTION LOG DEEP                              
ILM     .OHMM          00: 10 INDUCTION LOG MEDIUM                            
IMPH    .OHMM          00: 11 INDUCTION MEDIUM PHASOR                         
SFL     .OHMM          00: 12 SPHER. OR SHAL. FOC. LOG                        
SP      .MV            00: 13 SELF POTENTIAL                                  
PEF     .B/E           00: 14 FOTO ELECTRO. XSCT                              
DT      .MS/F          00: 15 INTERV TRANSIT TIME                             
~A  DEPTH    DRHO       RHOB       CALI       DTL        DT_ORIG    GR         IDPH       ILD        ILM        IMPH       SFL        SP         PEF        DT                                                                                                
# ...
  6174.500   -.060499   2.359498   9.679958   91.48746   91.76254   56.60886   7.851486   7.769440   6.603556   6.888493   6.238497   -21.8440   21.03951   91.76254 
  6175.000   -.063000   2.343000   9.516000   91.35000   91.65000   51.56300   7.965000   7.883000   6.512000   6.699000   6.258000   -21.9690   16.73400   91.65000 
  6175.500   -.042500   2.353998   9.434973   91.55000   91.36198   48.96365   8.068466   7.995963   6.556990   6.595474   6.281493   -21.5858   15.31320   91.36198 
  6176.000   -.022000   2.365000   9.354000   91.75000   91.07400   46.36300   8.172000   8.109000   6.602000   6.492000   6.305000   -21.2030   13.89300   91.07400 
  6176.500   -.023000   2.355998   9.293974   91.62500   89.97496   47.57228   8.179996   8.101501   6.660520   6.593474   6.324492   -20.2739   13.98554   89.97496 
  6177.000   -.024000   2.347000   9.234000   91.50000   88.87500   48.78100   8.188000   8.094000   6.719000   6.695000   6.344000   -19.3440   14.07800   88.87500 
  6177.500   -.025000   2.348000   9.202990   91.22504   89.23764   49.23819   8.160513   8.043030   6.732501   6.806439   6.474463   -19.1800   13.60135   89.23764 
  6178.000   -.026000   2.349000   9.172000   90.95000   89.60000   49.69500   8.133000   7.992000   6.746000   6.918000   6.605000   -19.0160   13.12500   89.60000 
  6178.500   -.020503   2.363493   9.156493   91.02502   89.94997   49.77251   8.140503   7.988000   6.752000   6.916000   6.531015   -18.4375   12.89456   89.94997 
  6179.000   -.015000   2.378000   9.141000   91.10000   90.30000   49.85000   8.148000   7.984000   6.758000   6.914000   6.457000   -17.8590   12.66400   90.30000 
  6179.500   -.011498   2.390494   9.141000   91.86217   90.52494   48.70608   8.234049   8.078043   6.848019   6.931505   6.349445   -17.8280   12.88511   90.52494 
  6180.000   -.008000   2.403000   9.141000   92.62500   90.75000   47.56300   8.320000   8.172000   6.938000   6.949000   6.242000   -17.7970   13.10600   90.75000 
  6180.500   -.009000   2.400002   9.141000   92.75000   91.37500   48.34406   8.464535   8.312535   7.101990   7.109448   6.370975   -17.7110   12.92812   91.37500 
  6181.000   -.010000   2.397000   9.141000   92.87500   92.00000   49.12500   8.609000   8.453000   7.266000   7.270000   6.500000   -17.6250   12.75000   92.00000 
  6181.500   -.015497   2.393000   9.141000   92.37500   91.00000   50.75000   8.823950   8.640381   7.427968   7.512068   6.687500   -17.3750   13.03759   91.00000 
  6182.000   -.021000   2.389000   9.141000   91.87500   90.00000   52.37500   9.039000   8.828000   7.590000   7.754000   6.875000   -17.1250   13.32500   90.00000 
  6182.500   -.021000   2.453497   9.172014   90.62500   88.50000   52.78145   9.304589   9.054516   7.789055   7.966923   7.215150   -16.9610   14.63895   88.50000 
  6183.000   -.021000   2.518000   9.203000   89.37500   87.00000   53.18800   9.570000   9.281000   7.988000   8.180000   7.555000   -16.7970   15.95300   87.00000 
  6183.500   -.014498   2.534497   9.238010   88.75000   86.25000   52.28731   10.08935   9.800736   8.291002   8.445453   7.594003   -16.2343   14.09538   86.25000 
  6184.000   -.008000   2.551000   9.273000   88.12500   85.50000   51.38700   10.60900   10.32000   8.594000   8.711000   7.633000   -15.6720   12.23800   85.50000 
  6184.500   -.009500   2.504489   9.196510   85.87500   83.75000   49.81865   11.06581   10.77356   9.324815   9.249784   7.738492   -15.3084   10.60118   83.75000 
  6185.000   -.011000   2.458000   9.120000   83.62500   82.00000   48.25000   11.52300   11.22700   10.05500   9.789000   7.844000   -14.9450   8.966000   82.00000 
  6185.500   -.011500   2.418491   8.999008   79.93750   78.02034   48.84892   11.54650   11.21099   10.14853   10.31669   9.468750   -14.8750   8.959497   78.02034 
  6186.000   -.012000   2.379000   8.878000   76.25000   74.04200   49.44800   11.57000   11.19500   10.24200   10.84400   11.09400   -14.8050   8.953000   74.04200 
  6186.500   -.014500   2.361995   8.868500   79.08334   76.08415   47.87138   11.41802   11.05053   9.691394   10.45349   11.85542   -15.0511   9.820494   76.08415 
  6187.000   -.017000   2.345000   8.859000   81.91400   78.12500   46.29300   11.26600   10.90600   9.141000   10.06300   12.61700   -15.2970   10.68800   78.12500 
  6187.500   -.021501   2.350000   8.859000   87.39719   84.56250   45.94371   10.97711   10.65198   8.777346   9.316217   10.10171   -14.1916   11.99249   84.56250 
  6188.000   -.026000   2.355000   8.859000   92.87500   91.00000   45.59400   10.68800   10.39800   8.414000   8.570000   7.586000   -13.0860   13.29700   91.00000 
  6188.500   -.030998   2.373502   8.859000   93.06250   91.43750   46.96875   10.31638   10.04318   8.254032   8.265479   7.222730   -12.7109   16.13251   91.43750 
  6189.000   -.036000   2.392000   8.859000   93.25000   91.87500   48.34400   9.945000   9.688000   8.094000   7.961000   6.859000   -12.3360   18.96900   91.87500 
  6189.500   -.042002   2.393501   8.859000   93.37500   91.62500   49.26617   9.710907   9.457384   8.031494   7.992011   6.966445   -12.1290   19.50021   91.62500 
  6190.000   -.048000   2.395000   8.859000   93.50000   91.37500   50.18800   9.477000   9.227000   7.969000   8.023000   7.074000   -11.9220   20.03100   91.37500 
  6190.500   -.054497   2.370486   8.859000   93.77806   90.68005   46.87500   9.469000   9.219000   7.973000   8.105482   7.318593   -11.9530   19.01371   90.68005 
  6191.000   -.061000   2.346000   8.859000   94.05600   89.98600   43.56300   9.461000   9.211000   7.977000   8.188000   7.563000   -11.9840   17.99700   89.98600 
  6191.500   -.059500   2.354998   8.859000   92.96501   89.10416   43.71047   9.671949   9.441422   8.094013   8.257988   7.589989   -12.0895   16.95593   89.10416 
  6192.000   -.058000   2.364000   8.859000   91.87500   88.22300   43.85800   9.883000   9.672000   8.211000   8.328000   7.617000   -12.1950   15.91400   88.22300 
  6192.500   -.060501   2.370002   8.859000   91.20851   87.27803   44.08547   10.07450   9.847466   8.386907   8.488003   7.698997   -11.5504   15.51542   87.27803 
  6193.000   -.063000   2.376000   8.859000   90.54300   86.33400   44.31300   10.26600   10.02300   8.563000   8.648000   7.781000   -10.9060   15.11700   86.33400 
  6193.500   -.062500   2.381001   8.859000   88.91733   86.00060   44.57239   10.44556   10.17147   8.746607   8.874879   7.968506   -10.1790   15.32711   86.00060 
  6194.000   -.062000   2.386000   8.859000   87.29200   85.66700   44.83200   10.62500   10.32000   8.930000   9.102000   8.156000   -9.45300   15.53700   85.66700 
  6194.500   -.057501   2.380000   8.859000   87.34750   85.88905   46.21930   10.82796   10.51556   9.019476   9.253973   8.503962   -8.50632   14.65643   85.88905 
  6195.000   -.053000   2.374000   8.859000   87.40300   86.11100   47.60800   11.03100   10.71100   9.109000   9.406000   8.852000   -7.55900   13.77600   86.11100 
  6195.500   -.047001   2.374000   8.859000   87.88906   86.86845   46.04837   11.20711   10.89844   9.207043   9.448994   8.586103   -7.02937   12.93489   86.86845 
  6196.000   -.041000   2.374000   8.859000   88.37500   87.62500   44.48800   11.38300   11.08600   9.305000   9.492000   8.320000   -6.50000   12.09300   87.62500 
  6196.500   -.037499   2.370999   8.859000   90.61710   87.70853   43.17435   11.46896   11.16402   9.422046   9.566527   8.472477   -7.14865   11.96750   87.70853 
  6197.000   -.034000   2.368000   8.859000   92.85900   87.79200   41.86100   11.55500   11.24200   9.539000   9.641000   8.625000   -7.79700   11.84200   87.79200 
  6197.500   -.027998   2.378500   8.849503   90.04153   87.01378   42.32315   11.59002   11.25399   9.605511   9.753955   8.855418   -6.93987   11.19899   87.01378 
  6198.000   -.022000   2.389000   8.840000   87.22200   86.23600   42.78500   11.62500   11.26600   9.672000   9.867000   9.086000   -6.08200   10.55600   86.23600 
  6198.500   -.020001   2.391500   8.799017   86.92345   86.24300   43.31473   11.64850   11.27350   9.605484   9.867000   9.148499   -6.36150   10.15450   86.24300 
