~VERSION INFORMATION
VERS.                               2.00: CWLS LOG ASCII STANDARD VERSION 2.00
WRAP.                               NO  : ONE LINE PER DEPTH STEP               
~WELL INFORMATION
#MNEM.UNIT                     DATA TYPE  INFORMATION
#----------------------------------------------------------------------
STRT.F                             16.00: START DEPTH
STOP.F                          11705.00: STOP DEPTH
STEP.F                              0.50: STEP VALUE
NULL.                            -999.00: NULL VALUE
COMP.                                   : COMPANY                               
WELL.                      S MGS UNIT 16: WELL                                  
FLD .                            Unknown: FIELD                                 
LOC .                                   : LOCATION                              
CNTY.                                   : COUNTY                                
STAT.                                   : STATE                                 
CTRY.                                   : COUNTRY                               
SRVC.                                   : SERVICE COMPANY                       
DATE.                                   : LOG DATE                              
API .                   50733204590000  : UNIQUE WELL IDENTIFIER                
~PARAMETER INFORMATION                                                          
#MNEM.UNIT        VALUE   DESCRIPTION                                           
#---------      --------  -----------                                           
~OTHER INFORMATION                                                              
FLS0    .          CIRC                                                         
LGD0    .          7/2/1969                                                     
MT0     .          FRESH/GEL                                                    
FLS0    .          CIRC                                                         
LGD0    .          8/13/1969                                                    
MT0     .          CYPAN                                                        
CSG0    .          13.375" @ 2555                                               
CSG0    .          9.625" @ 10296                                               
~CURVE INFORMATION                                                              
#MNEM.UNIT                 DESCRIPTION                                          
#---------                 -----------                                          
DEPTH   .F               :  1 DEPTH
DRHO    .G/C3          00:  2 DENSITY CORRECTN                                
DT_ORIG .MS/F          00:  3 ORIGINAL SONIC CURVE                            
ILD     .OHMM          00:  4 INDUCTION LOG DEEP                              
ILM     .OHMM          00:  5 INDUCTION LOG MEDIUM                            
SFL     .OHMM          00:  6 SPHER. OR SHAL. FOC. LOG                        
RHOB    .G/C3          00:  7 BULK DENSITY                                    
CALI    .IN            00:  8 CALIPER                                         
SP      .MV            00:  9 SELF POTENTIAL                                  
RT      .OHMM          00: 10 TRUE RESIST CALC FROM AR                        
AF30    .OHMM          00: 11 ARRAY IND 4 FT RESISTIVI                        
AF90    .OHMM          00: 12 ARRAY IND 4 FT RESISTIVI                        
CNS     .%             00: 13 COMPENSATED NEUT (-S)                           
GR      .GAPI          00: 14 GAMMA RAY                                       
AF20    .OHMM          00: 15 ARRAY IND 4 FT RESISTIVI                        
DT      .MS/F          00: 16 INTERV TRANSIT TIME                             
~A  DEPTH    DRHO       DT_ORIG    ILD        ILM        SFL        RHOB       CALI       SP         RT         AF30       AF90       CNS        GR         AF20       DT                                                                                     
# ...
  4938.000   -.058000   86.67400   7.093000   5.616000   6.676000   2.496000   12.45200   39.90100   -999.000   -999.000   -999.000   29.67600   80.17100   -999.000   86.67400 
  4938.500   -.048502   88.24020   7.045012   5.357509   6.213861   2.408487   12.79449   39.67292   -999.000   -999.000   -999.000   33.69478   81.46329   -999.000   88.24020 
  4939.000   -.039000   89.80700   6.997000   5.099000   5.752000   2.321000   13.13700   39.44500   -999.000   -999.000   -999.000   37.71400   82.75600   -999.000   89.80700 
  4939.500   0.014988   92.48277   6.842496   5.356489   5.401968   2.300999   13.45055   39.32499   -999.000   -999.000   -999.000   41.22870   83.03389   -999.000   92.48277 
  4940.000   0.069000   95.15800   6.688000   5.614000   5.052000   2.281000   13.76400   39.20500   -999.000   -999.000   -999.000   44.74000   83.31200   -999.000   95.15800 
  4940.500   0.017507   94.51355   6.345070   5.424491   5.294971   2.366997   13.39094   39.23400   -999.000   -999.000   -999.000   43.35445   85.46081   -999.000   94.51355 
  4941.000   -.034000   93.86900   6.002000   5.235000   5.538000   2.453000   13.01800   39.26300   -999.000   -999.000   -999.000   41.96900   87.60800   -999.000   93.86900 
  4941.500   -.038501   92.20974   5.965489   5.115537   5.598494   2.472500   13.06299   39.19449   -999.000   -999.000   -999.000   41.20268   89.70432   -999.000   92.20974 
  4942.000   -.043000   90.55200   5.929000   4.996000   5.659000   2.492000   13.10800   39.12600   -999.000   -999.000   -999.000   40.43600   91.80000   -999.000   90.55200 
  4942.500   -.038001   91.30440   6.162922   5.390482   5.522030   2.479501   13.12250   39.14499   -999.000   -999.000   -999.000   39.85751   89.59955   -999.000   91.30440 
  4943.000   -.033000   92.05700   6.397000   5.785000   5.385000   2.467000   13.13700   39.16400   -999.000   -999.000   -999.000   39.27900   87.39900   -999.000   92.05700 
  4943.500   -.032000   92.32347   6.413493   5.858975   5.412495   2.453495   13.19697   39.25549   -999.000   -999.000   -999.000   39.27551   84.62161   -999.000   92.32347 
  4944.000   -.031000   92.59000   6.430000   5.933000   5.440000   2.440000   13.25700   39.34700   -999.000   -999.000   -999.000   39.27200   81.84400   -999.000   92.59000 
  4944.500   -.032000   92.36309   6.436501   5.857499   5.471502   2.447999   13.57003   39.42149   -999.000   -999.000   -999.000   39.38703   82.58037   -999.000   92.36309 
  4945.000   -.033000   92.13600   6.443000   5.782000   5.503000   2.456000   13.88300   39.49600   -999.000   -999.000   -999.000   39.50200   83.31700   -999.000   92.13600 
  4945.500   -.036998   92.02148   6.499510   5.651021   5.486495   2.469493   13.58488   39.43452   -999.000   -999.000   -999.000   38.96058   83.66798   -999.000   92.02148 
  4946.000   -.041000   91.90700   6.556000   5.520000   5.470000   2.483000   13.28700   39.37300   -999.000   -999.000   -999.000   38.41900   84.01900   -999.000   91.90700 
  4946.500   -.039500   91.87750   6.482521   5.311967   5.529511   2.483000   13.28700   39.16793   -999.000   -999.000   -999.000   37.45485   84.75537   -999.000   91.87750 
  4947.000   -.038000   91.84800   6.409000   5.104000   5.589000   2.483000   13.28700   38.96300   -999.000   -999.000   -999.000   36.49100   85.49200   -999.000   91.84800 
  4947.500   -.024500   92.14505   6.340522   5.127998   5.534530   2.474002   13.27200   38.92000   -999.000   -999.000   -999.000   36.89700   85.97149   -999.000   92.14505 
  4948.000   -.011000   92.44200   6.272000   5.152000   5.480000   2.465000   13.25700   38.87700   -999.000   -999.000   -999.000   37.30300   86.45100   -999.000   92.44200 
  4948.500   -999.000   92.39299   6.330988   5.439453   5.493996   2.465500   13.30149   39.05655   -999.000   -999.000   -999.000   38.51858   86.19395   -999.000   92.39299 
  4949.000   -999.000   92.34400   6.390000   5.727000   5.508000   2.466000   13.34600   39.23600   -999.000   -999.000   -999.000   39.73500   85.93700   -999.000   92.34400 
  4949.500   -999.000   91.58817   6.261488   5.797487   5.593523   2.477502   13.54001   39.00446   -999.000   -999.000   -999.000   39.62299   84.56267   -999.000   91.58817 
  4950.000   -.019000   90.83200   6.133000   5.868000   5.679000   2.489000   13.73400   38.77300   -999.000   -999.000   -999.000   39.51100   83.18800   -999.000   90.83200 
  4950.500   -.020500   90.32945   6.129001   5.648993   5.796940   2.494500   13.82352   38.68051   -999.000   -999.000   -999.000   38.89812   84.59157   -999.000   90.32945 
  4951.000   -.022000   89.82700   6.125000   5.430000   5.915000   2.500000   13.91300   38.58800   -999.000   -999.000   -999.000   38.28500   85.99500   -999.000   89.82700 
  4951.500   -.024999   90.39078   6.219975   5.510496   5.778994   2.499000   13.61454   38.29403   -999.000   -999.000   -999.000   38.57809   86.75293   -999.000   90.39078 
  4952.000   -.028000   90.95500   6.315000   5.591000   5.643000   2.498000   13.31600   38.00000   -999.000   -999.000   -999.000   38.87100   87.51100   -999.000   90.95500 
  4952.500   -.033001   91.35558   6.367514   5.717988   5.632498   2.498000   13.33100   37.92500   -999.000   -999.000   -999.000   38.97601   86.94566   -999.000   91.35558 
  4953.000   -.038000   91.75600   6.420000   5.845000   5.622000   2.498000   13.34600   37.85000   -999.000   -999.000   -999.000   39.08100   86.38000   -999.000   91.75600 
  4953.500   -.038000   91.56697   6.667480   6.020989   5.660987   2.495501   13.65912   37.78701   -999.000   -999.000   -999.000   38.69201   86.85170   -999.000   91.56697 
  4954.000   -.038000   91.37800   6.915000   6.197000   5.700000   2.493000   13.97200   37.72400   -999.000   -999.000   -999.000   38.30300   87.32300   -999.000   91.37800 
  4954.500   -.036000   88.87648   7.107941   6.518010   5.968512   2.517007   13.67409   37.69500   -999.000   -999.000   -999.000   37.12729   83.28327   -999.000   88.87648 
  4955.000   -.034000   86.37400   7.301000   6.839000   6.237000   2.541000   13.37600   37.66600   -999.000   -999.000   -999.000   35.95100   79.24300   -999.000   86.37400 
  4955.500   -.042998   83.07062   7.347997   6.400895   7.064540   2.541500   13.65950   37.91539   -999.000   -999.000   -999.000   33.31011   75.55035   -999.000   83.07062 
  4956.000   -.052000   79.76700   7.395000   5.963000   7.893000   2.542000   13.94300   38.16500   -999.000   -999.000   -999.000   30.67100   71.85800   -999.000   79.76700 
  4956.500   -.048499   81.74261   7.441997   5.841467   7.158607   2.516498   13.68942   38.32601   -999.000   -999.000   -999.000   31.63044   75.86993   -999.000   81.74261 
  4957.000   -.045000   83.72000   7.489000   5.720000   6.424000   2.491000   13.43600   38.48700   -999.000   -999.000   -999.000   32.58900   79.88400   -999.000   83.72000 
  4957.500   -.045000   86.82362   7.308030   5.584958   6.059606   2.485500   13.31656   38.53450   -999.000   -999.000   -999.000   35.02809   81.72831   -999.000   86.82362 
  4958.000   -.045000   89.92600   7.127000   5.450000   5.695000   2.480000   13.19700   38.58200   -999.000   -999.000   -999.000   37.46800   83.57100   -999.000   89.92600 
  4958.500   -.045000   89.90501   6.893024   5.581950   5.727497   2.480500   12.95848   38.48902   -999.000   -999.000   -999.000   37.30800   84.13309   -999.000   89.90501 
  4959.000   -.045000   89.88400   6.659000   5.714000   5.760000   2.481000   12.72000   38.39600   -999.000   -999.000   -999.000   37.14800   84.69500   -999.000   89.88400 
  4959.500   -.041500   89.28265   6.608022   5.762489   5.865017   2.482500   13.03295   38.37250   -999.000   -999.000   -999.000   36.81553   84.22202   -999.000   89.28265 
  4960.000   -.038000   88.68100   6.557000   5.811000   5.970000   2.484000   13.34600   38.34900   -999.000   -999.000   -999.000   36.48300   83.74900   -999.000   88.68100 
  4960.500   -.037000   89.06841   6.592007   5.699959   5.967500   2.486499   13.37601   38.26250   -999.000   -999.000   -999.000   36.77041   85.04704   -999.000   89.06841 
