~VERSION INFORMATION
VERS.                               2.00: CWLS LOG ASCII STANDARD VERSION 2.00
WRAP.                               NO  : ONE LINE PER DEPTH STEP               
~WELL INFORMATION
#MNEM.UNIT                     DATA TYPE  INFORMATION
#----------------------------------------------------------------------
STRT.F                             16.00: START DEPTH
STOP.F                          11705.00: STOP DEPTH
STEP.F                              0.50: STEP VALUE
NULL.                            -999.00: NULL VALUE
COMP.                                   : COMPANY                               
WELL.                      S MGS UNIT 16: WELL                                  
FLD .                            Unknown: FIELD                                 
LOC .                                   : LOCATION                              
CNTY.                                   : COUNTY                                
STAT.                                   : STATE                                 
CTRY.                                   : COUNTRY                               
SRVC.                                   : SERVICE COMPANY                       
DATE.                                   : LOG DATE                              
API .                   50733204590000  : UNIQUE WELL IDENTIFIER                
~PARAMETER INFORMATION                                                          
#MNEM.UNIT        VALUE   DESCRIPTION                                           
#---------      --------  -----------                                           
~OTHER INFORMATION                                                              
FLS0    .          CIRC                                                         
LGD0    .          7/2/1969                                                     
MT0     .          FRESH/GEL                                                    
FLS0    .          CIRC                                                         
LGD0    .          8/13/1969                                                    
MT0     .          CYPAN                                                        
CSG0    .          13.375" @ 2555                                               
CSG0    .          9.625" @ 10296                                               
~CURVE INFORMATION                                                              
#MNEM.UNIT                 DESCRIPTION                                          
#---------                 -----------                                          
DEPTH   .F               :  1 DEPTH
DRHO    .G/C3          00:  2 DENSITY CORRECTN                                
DT_ORIG .MS/F          00:  3 ORIGINAL SONIC CURVE                            
ILD     .OHMM          00:  4 INDUCTION LOG DEEP                              
ILM     .OHMM          00:  5 INDUCTION LOG MEDIUM                            
SFL     .OHMM          00:  6 SPHER. OR SHAL. FOC. LOG                        
RHOB    .G/C3          00:  7 BULK DENSITY                                    
CALI    .IN            00:  8 CALIPER                                         
SP      .MV            00:  9 SELF POTENTIAL                                  
RT      .OHMM          00: 10 TRUE RESIST CALC FROM AR                        
AF30    .OHMM          00: 11 ARRAY IND 4 FT RESISTIVI                        
AF90    .OHMM          00: 12 ARRAY IND 4 FT RESISTIVI                        
CNS     .%             00: 13 COMPENSATED NEUT (-S)                           
GR      .GAPI          00: 14 GAMMA RAY                                       
AF20    .OHMM          00: 15 ARRAY IND 4 FT RESISTIVI                        
DT      .MS/F          00: 16 INTERV TRANSIT TIME                             
~A  DEPTH    DRHO       DT_ORIG    ILD        ILM        SFL        RHOB       CALI       SP         RT         AF30       AF90       CNS        GR         AF20       DT                                                                                     
# ...
  3650.000   0.179000   103.6920   5.061000   3.502000   3.607000   2.095000   13.34600   70.35300   -999.000   -999.000   -999.000   38.65000   40.89100   -999.000   103.6920 
  3650.500   0.164502   103.9205   5.015512   3.510499   3.620000   2.099000   13.36100   69.14841   -999.000   -999.000   -999.000   40.33660   41.98434   -999.000   103.9205 
  3651.000   0.150000   104.1490   4.970000   3.519000   3.633000   2.103000   13.37600   67.94400   -999.000   -999.000   -999.000   42.02400   43.07800   -999.000   104.1490 
  3651.500   0.138502   103.8659   5.105993   3.691555   3.646502   2.128004   13.22702   66.74290   -999.000   -999.000   -999.000   43.04529   43.57291   -999.000   103.8659 
  3652.000   0.127000   103.5830   5.242000   3.864000   3.660000   2.153000   13.07800   65.54200   -999.000   -999.000   -999.000   44.06700   44.06800   -999.000   103.5830 
  3652.500   0.109999   100.8149   5.422474   4.079530   3.753015   2.207495   13.42092   64.03005   -999.000   -999.000   -999.000   43.84347   44.19701   -999.000   100.8149 
  3653.000   0.093000   98.04600   5.603000   4.295000   3.846000   2.262000   13.76400   62.51900   -999.000   -999.000   -999.000   43.62000   44.32600   -999.000   98.04600 
  3653.500   0.066500   95.88612   5.657513   4.247488   4.122479   2.308497   13.30160   61.19391   -999.000   -999.000   -999.000   40.57074   42.24448   -999.000   95.88612 
  3654.000   0.040000   93.72700   5.712000   4.200000   4.399000   2.355000   12.83900   59.86800   -999.000   -999.000   -999.000   37.52100   40.16200   -999.000   93.72700 
  3654.500   0.038000   96.44197   5.932966   4.325012   4.261480   2.344503   12.82400   58.66536   -999.000   -999.000   -999.000   35.92016   41.17224   -999.000   96.44197 
  3655.000   0.036000   99.15700   6.154000   4.450000   4.124000   2.334000   12.80900   57.46300   -999.000   -999.000   -999.000   34.31900   42.18200   -999.000   99.15700 
  3655.500   0.083500   103.9105   6.540963   4.962106   4.046980   2.324502   12.80900   56.40514   -999.000   -999.000   -999.000   36.24364   42.40905   -999.000   103.9105 
  3656.000   0.131000   108.6670   6.928000   5.474000   3.970000   2.315000   12.80900   55.34700   -999.000   -999.000   -999.000   38.16900   42.63600   -999.000   108.6670 
  3656.500   0.152496   103.7448   7.465089   6.338346   4.438011   2.324502   12.51097   54.53486   -999.000   -999.000   -999.000   36.56432   42.36246   -999.000   103.7448 
  3657.000   0.174000   98.82000   8.002000   7.203000   4.906000   2.334000   12.21300   53.72300   -999.000   -999.000   -999.000   34.96000   42.08900   -999.000   98.82000 
  3657.500   0.170500   86.38599   8.838789   8.005840   6.474291   2.368994   12.49648   53.25801   -999.000   -999.000   -999.000   29.89367   40.66960   -999.000   86.38599 
  3658.000   0.167000   73.95700   9.676000   8.809000   8.043000   2.404000   12.78000   52.79300   -999.000   -999.000   -999.000   24.82400   39.25100   -999.000   73.95700 
  3658.500   0.159002   69.20607   11.01463   9.210497   9.406147   2.429496   13.06299   52.46012   -999.000   -999.000   -999.000   21.07814   37.26176   -999.000   69.20607 
  3659.000   0.151000   64.45300   12.35300   9.612000   10.77000   2.455000   13.34600   52.12700   -999.000   -999.000   -999.000   17.33100   35.27200   -999.000   64.45300 
  3659.500   0.135502   64.10997   12.45148   9.134495   10.77400   2.446001   13.03294   52.36552   -999.000   -999.000   -999.000   16.75107   33.52789   -999.000   64.10997 
  3660.000   0.120000   63.76700   12.55000   8.657000   10.77800   2.437000   12.72000   52.60400   -999.000   -999.000   -999.000   16.17100   31.78300   -999.000   63.76700 
  3660.500   0.106001   70.10028   11.26316   7.709863   9.173716   2.396511   12.54099   53.05099   -999.000   -999.000   -999.000   18.34660   34.28946   -999.000   70.10028 
  3661.000   0.092000   76.43600   9.977000   6.763000   7.570000   2.356000   12.36200   53.49800   -999.000   -999.000   -999.000   20.52200   36.79600   -999.000   76.43600 
  3661.500   0.059997   87.64008   8.892479   6.105908   6.288627   2.349999   12.86893   53.95861   -999.000   -999.000   -999.000   24.87762   39.36343   -999.000   87.64008 
  3662.000   0.028000   98.83700   7.808000   5.449000   5.007000   2.344000   13.37600   54.41900   -999.000   -999.000   -999.000   29.23200   41.93000   -999.000   98.83700 
  3662.500   0.026000   102.7617   7.242620   5.138108   4.716463   2.339999   13.07796   55.52006   -999.000   -999.000   -999.000   31.66880   41.65057   -999.000   102.7617 
  3663.000   0.024000   106.6860   6.677000   4.827000   4.426000   2.336000   12.78000   56.62100   -999.000   -999.000   -999.000   34.10700   41.37100   -999.000   106.6860 
  3663.500   0.036997   104.6244   6.352485   4.646049   4.407500   2.320497   12.94405   58.07816   -999.000   -999.000   -999.000   34.22549   42.36095   -999.000   104.6244 
  3664.000   0.050000   102.5620   6.028000   4.465000   4.389000   2.305000   13.10800   59.53500   -999.000   -999.000   -999.000   34.34400   43.35100   -999.000   102.5620 
  3664.500   0.060501   101.8116   5.913970   4.388489   4.388500   2.296000   12.64540   59.83503   -999.000   -999.000   -999.000   34.73155   45.46871   -999.000   101.8116 
  3665.000   0.071000   101.0610   5.800000   4.312000   4.388000   2.287000   12.18300   60.13500   -999.000   -999.000   -999.000   35.11900   47.58700   -999.000   101.0610 
  3665.500   0.073500   101.1385   5.770494   4.301000   4.389500   2.293498   12.77937   59.70894   -999.000   -999.000   -999.000   36.13818   48.87237   -999.000   101.1385 
  3666.000   0.076000   101.2160   5.741000   4.290000   4.391000   2.300000   13.37600   59.28300   -999.000   -999.000   -999.000   37.15700   50.15800   -999.000   101.2160 
  3666.500   0.056499   101.5051   5.757001   4.320005   4.385499   2.302000   13.10748   58.68924   -999.000   -999.000   -999.000   37.70691   49.04814   -999.000   101.5051 
  3667.000   0.037000   101.7940   5.773000   4.350000   4.380000   2.304000   12.83900   58.09500   -999.000   -999.000   -999.000   38.25700   47.93800   -999.000   101.7940 
  3667.500   0.068495   101.8730   5.804493   4.365497   4.339500   2.280994   12.94349   57.36887   -999.000   -999.000   -999.000   38.59806   44.88488   -999.000   101.8730 
  3668.000   0.100000   101.9520   5.836000   4.381000   4.299000   2.258000   13.04800   56.64300   -999.000   -999.000   -999.000   38.93900   41.83300   -999.000   101.9520 
  3668.500   0.075507   102.3295   6.019056   4.456523   4.332492   2.264501   12.75000   56.19954   -999.000   -999.000   -999.000   37.31398   39.46691   -999.000   102.3295 
  3669.000   0.051000   102.7070   6.202000   4.532000   4.366000   2.271000   12.45200   55.75600   -999.000   -999.000   -999.000   35.68800   37.10200   -999.000   102.7070 
  3669.500   0.035997   102.9185   6.356513   4.610989   4.468472   2.286498   12.49649   55.56303   -999.000   -999.000   -999.000   33.97178   39.72902   -999.000   102.9185 
  3670.000   0.021000   103.1300   6.511000   4.690000   4.571000   2.302000   12.54100   55.37000   -999.000   -999.000   -999.000   32.25500   42.35500   -999.000   103.1300 
  3670.500   0.020000   102.4186   6.565996   4.798020   4.671512   2.312997   12.52600   55.25651   -999.000   -999.000   -999.000   32.71407   43.68176   -999.000   102.4186 
  3671.000   0.019000   101.7070   6.621000   4.906000   4.772000   2.324000   12.51100   55.14300   -999.000   -999.000   -999.000   33.17300   45.00800   -999.000   101.7070 
  3671.500   -.004494   100.7108   6.722985   4.892502   4.880506   2.333502   12.52600   55.20700   -999.000   -999.000   -999.000   32.35238   43.38281   -999.000   100.7108 
  3672.000   -.028000   99.71500   6.825000   4.879000   4.989000   2.343000   12.54100   55.27100   -999.000   -999.000   -999.000   31.53200   41.75800   -999.000   99.71500 
  3672.500   -.028000   99.98247   7.201558   5.020956   4.937506   2.342500   12.63049   55.69759   -999.000   -999.000   -999.000   30.46018   39.06807   -999.000   99.98247 
