~VERSION INFORMATION
VERS.                               2.00: CWLS LOG ASCII STANDARD VERSION 2.00
WRAP.                               NO  : ONE LINE PER DEPTH STEP               
~WELL INFORMATION
#MNEM.UNIT                     DATA TYPE  INFORMATION
#----------------------------------------------------------------------
STRT.F                           1691.00: START DEPTH
STOP.F                          10167.00: STOP DEPTH
STEP.F                              0.50: STEP VALUE
NULL.                            -999.00: NULL VALUE
COMP.                                   : COMPANY                               
WELL.                        MGS C-22-23: WELL                                  
FLD .                            Unknown: FIELD                                 
LOC .                                   : LOCATION                              
CNTY.                                   : COUNTY                                
STAT.                                   : STATE                                 
CTRY.                                   : COUNTRY                               
SRVC.                                   : SERVICE COMPANY                       
DATE.                                   : LOG DATE                              
API .                   50733203970000  : UNIQUE WELL IDENTIFIER                
~PARAMETER INFORMATION                                                          
#MNEM.UNIT        VALUE   DESCRIPTION                                           
#---------      --------  -----------                                           
~OTHER INFORMATION                                                              
CSG0    .          9.625" @ 6034                                                
FLS0    .          CIRC                                                         
LGD0    .          6/6/1988                                                     
MT0     .          #2                                                           
~CURVE INFORMATION                                                              
#MNEM.UNIT                 DESCRIPTION                                          
#---------                 -----------                                          
DEPTH   .F               :  1 DEPTH
DRHO    .G/C3          00:  2 DENSITY CORRECTN                                
RHOB    .G/C3          00:  3 BULK DENSITY                                    
CALI    .IN            00:  4 CALIPER                                         
DTL     .MS/F          00:  5 INTERV TRANSIT TIME LONG                        
DT_ORIG .MS/F          00:  6 ORIGINAL SONIC CURVE                            
GR      .GAPI          00:  7 GAMMA RAY                                       
IDPH    .OHMM          00:  8 INDUCTION DB PHASOR                             
ILD     .OHMM          00:  9 INDUCTION LOG DEEP                              
ILM     .OHMM          00: 10 INDUCTION LOG MEDIUM                            
IMPH    .OHMM          00: 11 INDUCTION MEDIUM PHASOR                         
SFL     .OHMM          00: 12 SPHER. OR SHAL. FOC. LOG                        
SP      .MV            00: 13 SELF POTENTIAL                                  
PEF     .B/E           00: 14 FOTO ELECTRO. XSCT                              
DT      .MS/F          00: 15 INTERV TRANSIT TIME                             
~A  DEPTH    DRHO       RHOB       CALI       DTL        DT_ORIG    GR         IDPH       ILD        ILM        IMPH       SFL        SP         PEF        DT                                                                                                
# ...
  6738.000   0.002000   2.506000   10.80500   78.00000   78.25000   87.18800   9.852000   9.484000   9.117000   8.609000   8.852000   -23.5470   3.859000   78.25000 
  6738.500   -.002001   2.545515   10.84400   78.31250   78.81250   85.87500   9.547020   9.199068   9.043011   8.957117   10.14057   -23.0703   3.957941   78.81250 
  6739.000   -.006000   2.585000   10.88300   78.62500   79.37500   84.56300   9.242000   8.914000   8.969000   9.305000   11.43000   -22.5940   4.057000   79.37500 
  6739.500   -.006000   2.569493   11.07445   79.50000   79.25000   82.71967   9.175493   8.882994   8.466805   9.046994   12.12108   -22.4924   4.251028   79.25000 
  6740.000   -.006000   2.554000   11.26600   80.37500   79.12500   80.87500   9.109000   8.852000   7.965000   8.789000   12.81300   -22.3910   4.445000   79.12500 
  6740.500   -.004000   2.564007   11.28949   81.00000   79.06250   81.84431   9.070005   8.863493   7.777588   8.253971   10.37791   -22.1800   4.273585   79.06250 
  6741.000   -.002000   2.574000   11.31300   81.62500   79.00000   82.81300   9.031000   8.875000   7.590000   7.719000   7.945000   -21.9690   4.102000   79.00000 
  6741.500   -.007001   2.566503   11.26599   71.58765   111.1250   84.34367   8.734500   8.578002   7.553005   7.539121   7.519503   -22.0390   3.952445   111.1250 
  6742.000   -.012000   2.559000   11.21900   61.56300   143.2500   85.87500   8.438000   8.281000   7.516000   7.359000   7.094000   -22.1090   3.803000   143.2500 
  6742.500   -.012000   2.559500   11.37094   71.47580   112.1875   82.50000   8.203485   8.035008   7.400463   7.414018   7.212969   -21.9059   3.874000   112.1875 
  6743.000   -.012000   2.560000   11.52300   81.39800   81.12500   79.12500   7.969000   7.789000   7.285000   7.469000   7.332000   -21.7030   3.945000   81.12500 
  6743.500   -.008500   2.572503   11.52300   73.12643   80.38568   78.50000   7.967000   7.814500   7.257492   7.447514   7.199017   -21.5545   3.988030   80.38568 
  6744.000   -.005000   2.585000   11.52300   64.85900   79.64600   77.87500   7.965000   7.840000   7.230000   7.426000   7.066000   -21.4060   4.031000   79.64600 
  6744.500   -.000499   2.592503   11.44496   73.84860   81.01576   80.15589   7.943504   7.840000   7.263507   7.372972   7.108983   -21.5699   4.259422   81.01576 
  6745.000   0.004000   2.600000   11.36700   82.84100   82.38700   82.43800   7.922000   7.840000   7.297000   7.320000   7.152000   -21.7340   4.488000   82.38700 
  6745.500   0.003500   2.559473   11.43350   83.79562   83.32422   80.99426   7.767594   7.670084   7.234497   7.298514   7.041023   -21.6875   4.361020   83.32422 
  6746.000   0.003000   2.519000   11.50000   84.75000   84.26200   79.55100   7.613000   7.500000   7.172000   7.277000   6.930000   -21.6410   4.234000   84.26200 
  6746.500   0.007998   2.493986   11.73859   84.75000   84.74428   79.58801   7.411973   7.293007   6.941612   7.132484   6.808995   -21.2895   4.177517   84.74428 
  6747.000   0.013000   2.469000   11.97700   84.75000   85.22700   79.62500   7.211000   7.086000   6.711000   6.988000   6.688000   -20.9380   4.121000   85.22700 
  6747.500   0.010502   2.482994   12.03150   83.07475   83.42505   80.00000   7.049079   6.926039   6.480613   6.718606   6.428059   -20.8830   3.929386   83.42505 
  6748.000   0.008000   2.497000   12.08600   81.40000   81.62500   80.37500   6.887000   6.766000   6.250000   6.449000   6.168000   -20.8280   3.738000   81.62500 
  6748.500   0.004502   2.538518   12.06251   80.82506   80.72466   83.77632   6.832006   6.728472   6.283008   6.329978   5.752134   -20.7345   3.725508   80.72466 
  6749.000   0.001000   2.580000   12.03900   80.25000   79.82400   87.17600   6.777000   6.691000   6.316000   6.211000   5.336000   -20.6410   3.713000   79.82400 
  6749.500   -.006003   2.567497   12.06651   80.12500   79.84949   89.64923   6.773500   6.687498   6.400037   6.327994   5.445481   -20.4456   3.870098   79.84949 
  6750.000   -.013000   2.555000   12.09400   80.00000   79.87500   92.12500   6.770000   6.684000   6.484000   6.445000   5.555000   -20.2500   4.027000   79.87500 
  6750.500   -.010501   2.557501   12.15250   79.87500   79.50000   90.00000   6.775499   6.708996   6.466502   6.548540   5.928180   -20.1875   3.984026   79.50000 
  6751.000   -.008000   2.560000   12.21100   79.75000   79.12500   87.87500   6.781000   6.734000   6.449000   6.652000   6.301000   -20.1250   3.941000   79.12500 
  6751.500   -.008000   2.558499   12.24750   85.50000   79.31250   85.09496   6.769496   6.771491   6.306440   6.511533   6.301000   -20.3044   4.001973   79.31250 
  6752.000   -.008000   2.557000   12.28400   91.25000   79.50000   82.31300   6.758000   6.809000   6.164000   6.371000   6.301000   -20.4840   4.063000   79.50000 
  6752.500   -.007500   2.550999   12.28400   86.19780   79.98775   81.80074   6.584011   6.654399   5.970410   6.095380   6.051025   -20.4530   4.090988   79.98775 
  6753.000   -.007000   2.545000   12.28400   81.15000   80.47500   81.28800   6.410000   6.500000   5.777000   5.820000   5.801000   -20.4220   4.119000   80.47500 
  6753.500   -.004001   2.529504   12.33747   81.92513   72.86343   81.00657   5.996068   6.035222   5.358900   5.466645   5.546914   -20.8515   4.074986   72.86343 
  6754.000   -.001000   2.514000   12.39100   82.70100   65.25000   80.72500   5.582000   5.570000   4.941000   5.113000   5.293000   -21.2810   4.031000   65.25000 
  6754.500   0.001999   2.474011   12.11357   85.03780   84.48183   78.86304   5.271704   5.253862   4.558402   4.722365   4.670339   -21.1095   4.423559   84.48183 
  6755.000   0.005000   2.434000   11.83600   87.37500   103.7190   77.00000   4.961000   4.938000   4.176000   4.332000   4.047000   -20.9380   4.816000   103.7190 
  6755.500   0.010503   2.475474   11.76951   87.37500   95.98666   71.15948   4.787081   4.771511   4.107505   4.122004   3.774591   -21.1019   4.833993   95.98666 
  6756.000   0.016000   2.517000   11.70300   87.37500   88.25000   65.31300   4.613000   4.605000   4.039000   3.912000   3.502000   -21.2660   4.852000   88.25000 
  6756.500   0.010502   2.514000   11.83199   88.12500   89.12500   68.71893   4.515446   4.501528   4.056501   3.929496   3.551007   -21.3675   4.592005   89.12500 
  6757.000   0.005000   2.511000   11.96100   88.87500   90.00000   72.12500   4.418000   4.398000   4.074000   3.947000   3.600000   -21.4690   4.332000   90.00000 
  6757.500   0.000500   2.508001   12.06647   87.18750   88.68750   74.09408   4.299015   4.246061   4.074000   4.020520   4.337072   -22.4063   4.069570   88.68750 
  6758.000   -.004000   2.505000   12.17200   85.50000   87.37500   76.06300   4.180000   4.094000   4.074000   4.094000   5.074000   -23.3440   3.807000   87.37500 
  6758.500   -.005500   2.481991   12.08995   86.50000   87.75000   73.50000   4.185499   4.081993   3.834080   3.991536   5.490232   -23.6953   3.738522   87.75000 
  6759.000   -.007000   2.459000   12.00800   87.50000   88.12500   70.93800   4.191000   4.070000   3.594000   3.889000   5.906000   -24.0470   3.670000   88.12500 
  6759.500   -.004499   2.407476   11.99251   92.18750   93.31250   71.84437   4.448947   4.355541   3.592000   3.769498   4.807031   -24.5079   4.093197   93.31250 
  6760.000   -.002000   2.356000   11.97700   96.87500   98.50000   72.75000   4.707000   4.641000   3.590000   3.650000   3.709000   -24.9690   4.516000   98.50000 
  6760.500   -.000001   2.367505   12.19157   107.0000   98.50000   68.32916   5.246222   5.193449   4.665636   4.100303   3.413099   -25.6641   4.312537   98.50000 
  6761.000   0.002000   2.379000   12.40600   117.1250   98.50000   63.90600   5.785000   5.746000   5.742000   4.551000   3.117000   -26.3590   4.109000   98.50000 
  6761.500   -.021005   2.110544   12.33949   125.1250   115.5000   51.86249   6.693053   6.536525   7.984653   7.184387   5.924321   -26.3750   3.105594   115.5000 
  6762.000   -.044000   1.842000   12.27300   133.1250   132.5000   39.81300   7.602000   7.328000   10.22700   9.820000   8.734000   -26.3910   2.102000   132.5000 
