~VERSION INFORMATION
VERS.                               2.00: CWLS LOG ASCII STANDARD VERSION 2.00
WRAP.                               NO  : ONE LINE PER DEPTH STEP               
~WELL INFORMATION
#MNEM.UNIT                     DATA TYPE  INFORMATION
#----------------------------------------------------------------------
STRT.F                             16.00: START DEPTH
STOP.F                          11705.00: STOP DEPTH
STEP.F                              0.50: STEP VALUE
NULL.                            -999.00: NULL VALUE
COMP.                                   : COMPANY                               
WELL.                      S MGS UNIT 16: WELL                                  
FLD .                            Unknown: FIELD                                 
LOC .                                   : LOCATION                              
CNTY.                                   : COUNTY                                
STAT.                                   : STATE                                 
CTRY.                                   : COUNTRY                               
SRVC.                                   : SERVICE COMPANY                       
DATE.                                   : LOG DATE                              
API .                   50733204590000  : UNIQUE WELL IDENTIFIER                
~PARAMETER INFORMATION                                                          
#MNEM.UNIT        VALUE   DESCRIPTION                                           
#---------      --------  -----------                                           
~OTHER INFORMATION                                                              
FLS0    .          CIRC                                                         
LGD0    .          7/2/1969                                                     
MT0     .          FRESH/GEL                                                    
FLS0    .          CIRC                                                         
LGD0    .          8/13/1969                                                    
MT0     .          CYPAN                                                        
CSG0    .          13.375" @ 2555                                               
CSG0    .          9.625" @ 10296                                               
~CURVE INFORMATION                                                              
#MNEM.UNIT                 DESCRIPTION                                          
#---------                 -----------                                          
DEPTH   .F               :  1 DEPTH
DRHO    .G/C3          00:  2 DENSITY CORRECTN                                
DT_ORIG .MS/F          00:  3 ORIGINAL SONIC CURVE                            
ILD     .OHMM          00:  4 INDUCTION LOG DEEP                              
ILM     .OHMM          00:  5 INDUCTION LOG MEDIUM                            
SFL     .OHMM          00:  6 SPHER. OR SHAL. FOC. LOG                        
RHOB    .G/C3          00:  7 BULK DENSITY                                    
CALI    .IN            00:  8 CALIPER                                         
SP      .MV            00:  9 SELF POTENTIAL                                  
RT      .OHMM          00: 10 TRUE RESIST CALC FROM AR                        
AF30    .OHMM          00: 11 ARRAY IND 4 FT RESISTIVI                        
AF90    .OHMM          00: 12 ARRAY IND 4 FT RESISTIVI                        
CNS     .%             00: 13 COMPENSATED NEUT (-S)                           
GR      .GAPI          00: 14 GAMMA RAY                                       
AF20    .OHMM          00: 15 ARRAY IND 4 FT RESISTIVI                        
DT      .MS/F          00: 16 INTERV TRANSIT TIME                             
~A  DEPTH    DRHO       DT_ORIG    ILD        ILM        SFL        RHOB       CALI       SP         RT         AF30       AF90       CNS        GR         AF20       DT                                                                                     
# ...
  6226.000   -.051000   173.4790   8.541000   1.788000   4.529000   1.765000   15.97000   4.091000   -999.000   -999.000   -999.000   61.30900   57.13200   -999.000   173.4790 
  6226.500   -.042000   181.3005   7.952170   1.767493   4.940967   1.574577   16.40244   4.053504   -999.000   -999.000   -999.000   76.92313   49.38303   -999.000   181.3005 
  6227.000   -.033000   189.1280   7.363000   1.747000   5.353000   1.384000   16.83500   4.016000   -999.000   -999.000   -999.000   92.54500   41.64100   -999.000   189.1280 
  6227.500   -.034500   192.9337   6.126080   1.646060   5.685214   1.336976   17.40151   4.016500   -999.000   -999.000   -999.000   97.17360   36.74107   -999.000   192.9337 
  6228.000   -.036000   196.7430   4.889000   1.545000   6.017000   1.290000   17.96800   4.017000   -999.000   -999.000   -999.000   101.8040   31.84500   -999.000   196.7430 
  6228.500   -.039999   190.7577   4.495046   1.511991   6.120510   1.284496   18.80348   4.016500   -999.000   -999.000   -999.000   98.32539   32.45063   -999.000   190.7577 
  6229.000   -.044000   184.7760   4.101000   1.479000   6.224000   1.279000   19.63800   4.016000   -999.000   -999.000   -999.000   94.84400   33.05600   -999.000   184.7760 
  6229.500   -.043500   176.8481   4.475541   1.632537   6.022514   1.285000   20.11522   3.707449   -999.000   -999.000   -999.000   94.49942   31.10995   -999.000   176.8481 
  6230.000   -.043000   168.9270   4.850000   1.786000   5.821000   1.291000   20.59200   3.399000   -999.000   -999.000   -999.000   94.15500   29.16200   -999.000   168.9270 
  6230.500   -.032507   157.5672   5.951108   2.090050   5.863985   1.312011   20.35358   2.854724   -999.000   -999.000   -999.000   96.41423   27.95792   -999.000   157.5672 
  6231.000   -.022000   146.2000   7.053000   2.394000   5.907000   1.333000   20.11500   2.310000   -999.000   -999.000   -999.000   98.67300   26.75400   -999.000   146.2000 
  6231.500   -.016998   143.2535   8.659945   3.148233   6.083559   1.346001   20.50241   2.111035   -999.000   -999.000   -999.000   99.26613   27.67384   -999.000   143.2535 
  6232.000   -.012000   140.3050   10.26600   3.902000   6.260000   1.359000   20.89000   1.912000   -999.000   -999.000   -999.000   99.85900   28.59400   -999.000   140.3050 
  6232.500   -.000001   135.2189   10.91558   5.207897   6.336990   1.409995   20.56215   2.070985   -999.000   -999.000   -999.000   93.13342   30.56792   -999.000   135.2189 
  6233.000   0.012000   130.1340   11.56500   6.514000   6.414000   1.461000   20.23400   2.230000   -999.000   -999.000   -999.000   86.41100   32.54200   -999.000   130.1340 
  6233.500   0.034008   123.4865   12.56888   7.325896   6.389501   1.553982   19.51830   2.554106   -999.000   -999.000   -999.000   83.72693   36.19473   -999.000   123.4865 
  6234.000   0.056000   116.8320   13.57200   8.137000   6.365000   1.647000   18.80300   2.878000   -999.000   -999.000   -999.000   81.04500   39.85100   -999.000   116.8320 
  6234.500   0.064501   116.5820   13.35658   10.26302   6.239463   1.762967   18.31086   3.063542   -999.000   -999.000   -999.000   76.83046   47.12650   -999.000   116.5820 
  6235.000   0.073000   116.3320   13.14100   12.38900   6.114000   1.879000   17.81900   3.249000   -999.000   -999.000   -999.000   72.61400   54.40100   -999.000   116.3320 
  6235.500   0.054999   113.9190   10.93267   10.18734   6.139503   2.027995   16.37222   3.639019   -999.000   -999.000   -999.000   66.39178   60.30892   -999.000   113.9190 
  6236.000   0.037000   111.5050   8.723000   7.985000   6.165000   2.177000   14.92700   4.029000   -999.000   -999.000   -999.000   60.17600   66.22200   -999.000   111.5050 
  6236.500   0.053997   104.2934   8.160896   7.579888   6.004512   2.286540   15.32972   4.202944   -999.000   -999.000   -999.000   54.22345   66.43396   -999.000   104.2934 
  6237.000   0.071000   97.08900   7.599000   7.175000   5.844000   2.396000   15.73200   4.377000   -999.000   -999.000   -999.000   48.26600   66.64600   -999.000   97.08900 
  6237.500   0.054507   92.16547   7.371094   7.561842   5.781494   2.451979   15.21016   4.955153   -999.000   -999.000   -999.000   43.28941   66.47359   -999.000   92.16547 
  6238.000   0.038000   87.24000   7.143000   7.949000   5.719000   2.508000   14.68800   5.533000   -999.000   -999.000   -999.000   38.31200   66.30100   -999.000   87.24000 
  6238.500   0.035001   83.84142   7.029557   7.927990   5.745996   2.531512   14.19615   5.952768   -999.000   -999.000   -999.000   34.65818   66.12904   -999.000   83.84142 
  6239.000   0.032000   80.44500   6.916000   7.907000   5.773000   2.555000   13.70400   6.373000   -999.000   -999.000   -999.000   31.00200   65.95700   -999.000   80.44500 
  6239.500   0.037998   80.06673   6.547653   7.498759   5.803008   2.557499   13.98756   6.793211   -999.000   -999.000   -999.000   29.48923   66.87115   -999.000   80.06673 
  6240.000   0.044000   79.68800   6.179000   7.091000   5.833000   2.560000   14.27100   7.213000   -999.000   -999.000   -999.000   27.97800   67.78500   -999.000   79.68800 
  6240.500   0.046000   80.70599   5.872608   6.744958   5.760023   2.562500   14.28550   7.869211   -999.000   -999.000   -999.000   28.10947   68.71040   -999.000   80.70599 
  6241.000   0.048000   81.72400   5.566000   6.399000   5.687000   2.565000   14.30000   8.525000   -999.000   -999.000   -999.000   28.24100   69.63500   -999.000   81.72400 
  6241.500   0.063001   81.61345   5.316487   6.039928   5.646490   2.566000   14.59838   8.995916   -999.000   -999.000   -999.000   28.93756   70.11428   -999.000   81.61345 
  6242.000   0.078000   81.50300   5.067000   5.681000   5.606000   2.567000   14.89700   9.467000   -999.000   -999.000   -999.000   29.63500   70.59400   -999.000   81.50300 
  6242.500   0.069003   81.37654   4.893881   5.283313   5.459942   2.570000   14.89700   9.392971   -999.000   -999.000   -999.000   30.22041   70.92781   -999.000   81.37654 
  6243.000   0.060000   81.25000   4.721000   4.886000   5.314000   2.573000   14.89700   9.319000   -999.000   -999.000   -999.000   30.80600   71.26200   -999.000   81.25000 
  6243.500   0.065000   81.11597   4.551460   4.696464   5.218524   2.574499   14.56881   9.355506   -999.000   -999.000   -999.000   31.51741   70.54430   -999.000   81.11597 
  6244.000   0.070000   80.98200   4.382000   4.507000   5.123000   2.576000   14.24100   9.392000   -999.000   -999.000   -999.000   32.22800   69.82600   -999.000   80.98200 
  6244.500   0.072000   81.09096   4.357000   4.532008   5.072492   2.572500   14.24100   9.643914   -999.000   -999.000   -999.000   32.74256   70.52834   -999.000   81.09096 
  6245.000   0.074000   81.20000   4.332000   4.557000   5.022000   2.569000   14.24100   9.896000   -999.000   -999.000   -999.000   33.25700   71.23100   -999.000   81.20000 
  6245.500   0.064504   81.02496   4.294502   4.542494   5.079987   2.560500   14.37506   10.33480   -999.000   -999.000   -999.000   32.67860   70.64110   -999.000   81.02496 
  6246.000   0.055000   80.85000   4.257000   4.528000   5.138000   2.552000   14.50900   10.77400   -999.000   -999.000   -999.000   32.10000   70.05100   -999.000   80.85000 
  6246.500   0.079986   80.91100   4.344502   4.530500   5.249473   2.535500   14.16597   10.96643   -999.000   -999.000   -999.000   31.75247   67.59110   -999.000   80.91100 
  6247.000   0.105000   80.97200   4.432000   4.533000   5.361000   2.519000   13.82300   11.15900   -999.000   -999.000   -999.000   31.40500   65.13000   -999.000   80.97200 
  6247.500   0.103500   81.77179   4.450006   4.479994   5.315500   2.501995   13.64404   11.00698   -999.000   -999.000   -999.000   32.09662   65.40845   -999.000   81.77179 
  6248.000   0.102000   82.57100   4.468000   4.427000   5.270000   2.485000   13.46500   10.85500   -999.000   -999.000   -999.000   32.78900   65.68700   -999.000   82.57100 
  6248.500   0.060974   83.42973   4.441514   4.342536   5.219993   2.498995   13.58454   10.68038   -999.000   -999.000   -999.000   32.66047   67.86089   -999.000   83.42973 
