~VERSION INFORMATION
VERS.                               2.00: CWLS LOG ASCII STANDARD VERSION 2.00
WRAP.                               NO  : ONE LINE PER DEPTH STEP               
~WELL INFORMATION
#MNEM.UNIT                     DATA TYPE  INFORMATION
#----------------------------------------------------------------------
STRT.F                            920.00: START DEPTH
STOP.F                           9532.00: STOP DEPTH
STEP.F                              0.50: STEP VALUE
NULL.                            -999.00: NULL VALUE
COMP.                                   : COMPANY                               
WELL.                       SRS TERN A-1: WELL                                  
FLD .            Granite Pt/Beluga River: FIELD                                 
LOC .      10N  10W   19 0585FNL 0636FWL: LOCATION                              
CNTY.                 GREATER_COOK_INLET: COUNTY                                
STAT.                             Alaska: STATE                                 
CTRY.                                 US: COUNTRY                               
SRVC.                                   : SERVICE COMPANY                       
DATE.                                   : LOG DATE                              
API .                   50733203530000  : UNIQUE WELL IDENTIFIER                
~PARAMETER INFORMATION                                                          
#MNEM.UNIT        VALUE   DESCRIPTION                                           
#---------      --------  -----------                                           
ELEV    .F          171.5: KB ELEVATION                                         
TDD     .F         9519.0: TOTAL DEPTH DRILLED                                  
~OTHER INFORMATION                                                              
FLS0    .          CIRCULATED                                                   
LGD0    .          7/13/82                                                      
MT0     .          DIS GEL H2O                                                  
FLS0    .          CIRCULATED                                                   
LGD0    .          7/24/82                                                      
FLS0    .          FLOWLINE                                                     
LGD0    .          8/2/82                                                       
MT0     .          LOW SOLIDS NONDISPERSED                                      
~CURVE INFORMATION                                                              
#MNEM.UNIT                 DESCRIPTION                                          
#---------                 -----------                                          
DEPTH   .F               :  1 DEPTH
GR      .GAPI          00:  2 GAMMA RAY                                       
SP      .MV            00:  3 SELF POTENTIAL                                  
CALI    .IN            00:  4 CALIPER                                         
SFL     .OHMM          00:  5 SPHER. OR SHAL. FOC. LOG                        
ILD     .OHMM          00:  6 INDUCTION LOG DEEP                              
ILM     .OHMM          00:  7 INDUCTION LOG MEDIUM                            
CNS     .%             00:  8 COMPENSATED NEUT (-S)                           
DRHO    .G/C3          00:  9 DENSITY CORRECTN                                
RHOB    .G/C3          00: 10 BULK DENSITY                                    
DT      .US/F          00: 11 INTERV TRANSIT TIME                             
MNOR    .OHMM          00: 12 NORMAL MICROLOG                                 
MINV    .OHMM          00: 13 INV MICROLOG                                    
PROX    .OHMM          00: 14 PROXIMITY LOG                                   
POTA    .PPM           00: 15 POTASSIUM                                       
URAN    .PPM           00: 16 URANIUM                                         
THOR    .PPM           00: 17 THORIUM                                         
SGR     .GAPI          00: 18 GAMMA RAY                                       
CGR     .GAPI          00: 19 GAMMA RAY                                       
~A  DEPTH    GR         SP         CALI       SFL        ILD        ILM        CNS        DRHO       RHOB       DT         MNOR       MINV       PROX       POTA       URAN       THOR       SGR        CGR                                                   
# ...
  4800.500   63.69400   -58.5647   8.679100   4.006000   3.858400   4.074400   39.29000   0.022000   2.204922   109.2591   -999.000   -999.000   3.400700   0.017680   1.779441   5.736884   66.23233   51.35570 
  4801.000   63.23920   -58.7132   8.676700   4.154700   3.966300   4.152000   38.93000   0.029300   2.204576   109.6087   -999.000   -999.000   3.345200   0.017672   1.802217   5.999411   66.89923   51.43940 
  4801.500   62.78440   -60.7269   8.674300   3.712900   4.077200   4.231000   39.48000   0.037600   2.187597   110.0832   -999.000   -999.000   3.436500   0.017562   1.868664   6.038785   67.65836   51.48774 
  4802.000   63.66400   -65.4770   8.582900   3.375700   4.189500   4.311600   40.04000   0.027900   2.169722   111.7163   -999.000   -999.000   3.730000   0.017449   1.765072   5.825284   67.04324   51.46815 
  4802.500   64.63320   -68.1309   8.474000   3.903800   4.304900   4.393700   40.05000   0.011700   2.159291   113.9206   -999.000   2.904300   4.475900   0.017431   1.674433   5.698315   65.99126   51.30532 
  4803.000   64.31510   -71.6330   8.361600   4.514600   4.423400   4.477400   39.34000   0.009000   2.153610   115.6792   3.211200   3.027800   5.561700   0.017580   1.583312   5.617888   64.91228   50.91999 
  4803.500   62.69000   -73.9585   8.247800   5.259900   4.530500   4.562600   38.57000   0.007400   2.148067   116.9448   3.444400   3.151400   5.782000   0.017844   1.556167   5.554979   64.28236   50.74986 
  4804.000   58.56740   -75.3568   8.182800   5.430300   4.630400   4.649500   37.00000   0.006600   2.142852   117.6875   3.677600   3.274900   5.985700   0.018151   1.546663   5.482273   63.94541   50.77495 
  4804.500   56.04800   -76.2175   8.162400   5.606300   4.732500   4.738000   36.89000   0.006300   2.139802   117.1664   3.910800   3.398500   6.196500   0.018430   1.544054   5.377296   65.04628   50.82585 
  4805.000   55.05120   -77.0275   8.172500   5.850300   4.836900   4.828300   36.86000   0.005900   2.142739   116.7691   4.084700   3.449000   6.318000   0.018643   1.564671   5.278848   64.90791   50.78455 
  4805.500   54.84660   -77.7583   8.182500   6.189700   4.935000   4.920200   36.79000   0.004600   2.144536   116.3741   4.148000   3.462800   6.388700   0.018305   1.506021   5.108777   64.73874   50.52614 
  4806.000   56.08850   -78.2339   8.192600   6.334800   5.012500   5.013900   36.67000   0.005500   2.144417   115.8673   4.211400   3.476600   6.436000   0.017793   1.433534   5.273122   63.80903   49.99901 
  4806.500   57.72090   -78.4723   8.202600   6.393400   5.130600   5.103100   36.35000   0.004900   2.144441   115.2441   4.226500   3.477900   6.545300   0.017309   1.431040   5.468986   62.94031   50.02043 
  4807.000   56.11190   -78.6663   8.217400   6.411300   5.222100   5.176000   35.95000   0.002700   2.148255   114.7627   4.207200   3.461700   6.740700   0.017020   1.428545   5.648097   63.15070   50.45881 
  4807.500   54.50280   -78.8098   8.230800   6.400700   5.294300   5.249900   35.53000   0.000400   2.152425   114.2813   4.145200   3.397800   6.919800   0.016905   1.426053   5.782335   63.54103   51.28246 
  4808.000   54.68290   -78.7751   8.240900   6.413500   5.363700   5.324900   34.50000   -.001100   2.160100   114.0711   4.077100   3.339900   7.069000   0.016842   1.410341   5.831390   64.12964   51.45975 
  4808.500   56.40010   -78.7404   8.246900   6.429400   5.434000   5.401000   34.09000   -.000600   2.169039   114.0580   4.146300   3.395100   7.149100   0.016811   1.392521   5.650855   64.04329   51.50685 
  4809.000   57.84620   -78.7057   8.251000   6.488600   5.505300   5.478100   33.87000   0.000000   2.177981   114.0449   4.215500   3.449300   7.217300   0.017288   1.372871   5.463531   63.48895   51.19426 
  4809.500   59.29230   -78.6206   8.247300   6.562400   5.577400   5.556400   33.69000   0.000500   2.188611   113.5136   4.284700   3.501300   7.286200   0.017540   1.348217   5.168922   62.53156   50.74781 
  4810.000   60.73840   -78.1558   8.243700   6.637100   5.650500   5.635800   33.52000   0.001100   2.199610   112.9371   4.389900   3.546100   7.402300   0.017612   1.330927   5.054252   62.10110   50.29609 
  4810.500   62.18450   -77.6910   8.236800   6.712600   5.724600   5.716300   33.31000   0.001600   2.210633   112.3607   4.495400   3.586800   7.866100   0.017986   1.324607   4.926085   62.35345   50.01193 
  4811.000   63.63060   -77.2465   8.229000   6.789000   5.787200   5.740200   32.89000   0.002200   2.220930   111.8837   4.558500   3.628900   8.359100   0.018614   1.333816   4.847384   62.66704   49.74904 
  4811.500   64.30550   -76.8108   8.221100   6.866300   5.696400   5.710200   32.72000   0.002700   2.225899   112.8042   4.560100   3.673700   8.809400   0.018993   1.340781   4.828970   63.41082   50.13628 
  4812.000   62.61880   -76.4033   8.213300   6.885700   5.607000   5.680200   32.65000   0.003300   2.224989   113.9827   4.554800   3.730900   8.002100   0.018654   1.370554   4.976992   63.95964   50.56337 
  4812.500   60.52530   -76.1423   8.212000   6.765200   5.549600   5.650500   32.58000   0.003800   2.221346   115.1664   4.616000   3.726400   7.098800   0.018045   1.411264   5.120838   64.07391   50.82727 
  4813.000   60.01380   -75.9495   8.214300   6.590200   5.536700   5.620900   32.50000   0.004400   2.216377   116.1056   4.494200   3.690500   7.254900   0.017791   1.504684   5.263536   65.24806   50.64861 
  4813.500   59.50240   -74.7990   8.216700   6.339700   5.525700   5.611100   32.23000   0.005000   2.224221   115.8822   4.391000   3.631500   7.508500   0.017757   1.597767   5.378380   65.04099   50.47378 
  4814.000   58.99090   -74.2421   8.241800   6.022800   5.567400   5.643900   32.08000   0.007300   2.243412   115.2106   4.315800   3.746000   7.634600   0.018605   1.678848   5.198000   64.77980   50.78491 
  4814.500   58.61100   -73.4058   8.297800   6.394800   5.614300   5.676800   32.31000   0.020200   2.259436   114.4851   4.390500   3.823700   7.762100   0.019073   1.589711   4.866168   63.96503   51.27266 
  4815.000   58.48860   -72.6923   8.353700   6.705200   5.706600   5.710000   32.91000   0.034500   2.257202   113.0376   4.490000   3.845900   8.055000   0.018903   1.453714   4.665320   62.28137   50.81615 
  4815.500   58.69580   -71.9401   8.238500   7.425700   5.800400   5.743400   33.11000   0.040400   2.242941   113.1770   4.589500   3.868100   8.358900   0.018329   1.282272   4.715057   61.10593   50.34716 
  4816.000   58.87060   -70.2200   8.298300   7.935600   5.871400   5.708100   32.56000   0.039300   2.235166   113.5229   4.689000   3.890200   8.800000   0.018463   1.297660   4.838697   61.05081   50.61378 
  4816.500   59.03540   -68.2144   8.324100   8.282600   5.872100   5.656000   32.25000   0.032000   2.238274   113.4042   4.724400   3.912400   8.772100   0.018863   1.376670   5.033641   61.01962   51.42323 
  4817.000   59.36020   -64.3154   8.377600   8.461600   5.825900   5.604400   31.89000   0.005100   2.245175   114.1838   4.724000   3.876200   8.409700   0.018760   1.449523   5.271538   63.44000   52.17329 
  4817.500   58.94710   -58.3976   8.436500   7.425200   5.706900   5.514000   31.64000   0.013800   2.238980   117.3275   4.546200   3.736800   7.528000   0.018184   1.546411   5.533495   65.61975   52.40968 
  4818.000   59.28630   -56.1740   8.465700   6.022100   5.468500   5.417800   31.34000   0.035900   2.200080   122.1178   3.685400   3.597300   4.908000   0.017474   1.626769   5.901092   66.05017   52.27589 
  4818.500   60.60920   -55.7588   8.488600   4.239900   5.238600   5.323400   35.22000   0.058700   2.139812   125.2163   -999.000   -999.000   4.269900   0.017108   1.641779   5.834822   66.27850   52.19616 
  4819.000   61.93200   -55.2875   8.545200   4.268200   5.018300   5.230600   39.59000   0.066700   2.110971   124.8847   -999.000   -999.000   4.135000   0.017098   1.606864   5.712626   66.50684   52.73712 
  4819.500   62.91540   -54.3937   8.661000   4.296700   4.807300   5.139400   41.59000   0.065900   2.129385   122.3724   -999.000   -999.000   4.239600   0.017944   1.670033   5.665758   67.41599   53.14491 
