~VERSION INFORMATION
VERS.                               2.00: CWLS LOG ASCII STANDARD VERSION 2.00
WRAP.                               NO  : ONE LINE PER DEPTH STEP               
~WELL INFORMATION
#MNEM.UNIT                     DATA TYPE  INFORMATION
#----------------------------------------------------------------------
STRT.F                             16.00: START DEPTH
STOP.F                          11705.00: STOP DEPTH
STEP.F                              0.50: STEP VALUE
NULL.                            -999.00: NULL VALUE
COMP.                                   : COMPANY                               
WELL.                      S MGS UNIT 16: WELL                                  
FLD .                            Unknown: FIELD                                 
LOC .                                   : LOCATION                              
CNTY.                                   : COUNTY                                
STAT.                                   : STATE                                 
CTRY.                                   : COUNTRY                               
SRVC.                                   : SERVICE COMPANY                       
DATE.                                   : LOG DATE                              
API .                   50733204590000  : UNIQUE WELL IDENTIFIER                
~PARAMETER INFORMATION                                                          
#MNEM.UNIT        VALUE   DESCRIPTION                                           
#---------      --------  -----------                                           
~OTHER INFORMATION                                                              
FLS0    .          CIRC                                                         
LGD0    .          7/2/1969                                                     
MT0     .          FRESH/GEL                                                    
FLS0    .          CIRC                                                         
LGD0    .          8/13/1969                                                    
MT0     .          CYPAN                                                        
CSG0    .          13.375" @ 2555                                               
CSG0    .          9.625" @ 10296                                               
~CURVE INFORMATION                                                              
#MNEM.UNIT                 DESCRIPTION                                          
#---------                 -----------                                          
DEPTH   .F               :  1 DEPTH
DRHO    .G/C3          00:  2 DENSITY CORRECTN                                
DT_ORIG .MS/F          00:  3 ORIGINAL SONIC CURVE                            
ILD     .OHMM          00:  4 INDUCTION LOG DEEP                              
ILM     .OHMM          00:  5 INDUCTION LOG MEDIUM                            
SFL     .OHMM          00:  6 SPHER. OR SHAL. FOC. LOG                        
RHOB    .G/C3          00:  7 BULK DENSITY                                    
CALI    .IN            00:  8 CALIPER                                         
SP      .MV            00:  9 SELF POTENTIAL                                  
RT      .OHMM          00: 10 TRUE RESIST CALC FROM AR                        
AF30    .OHMM          00: 11 ARRAY IND 4 FT RESISTIVI                        
AF90    .OHMM          00: 12 ARRAY IND 4 FT RESISTIVI                        
CNS     .%             00: 13 COMPENSATED NEUT (-S)                           
GR      .GAPI          00: 14 GAMMA RAY                                       
AF20    .OHMM          00: 15 ARRAY IND 4 FT RESISTIVI                        
DT      .MS/F          00: 16 INTERV TRANSIT TIME                             
~A  DEPTH    DRHO       DT_ORIG    ILD        ILM        SFL        RHOB       CALI       SP         RT         AF30       AF90       CNS        GR         AF20       DT                                                                                     
# ...
  8365.000   0.025000   91.95300   6.128000   6.973000   7.667000   2.564000   12.72000   14.98700   -999.000   -999.000   -999.000   44.18900   96.31800   -999.000   91.95300 
  8365.500   -999.000   87.43369   6.199952   7.137407   8.362879   2.570497   13.04796   15.26661   -999.000   -999.000   -999.000   40.90583   98.94157   -999.000   87.43369 
  8366.000   -999.000   82.90800   6.272000   7.302000   9.058000   2.577000   13.37600   15.54600   -999.000   -999.000   -999.000   37.61900   101.5630   -999.000   82.90800 
  8366.500   -999.000   79.89384   6.383479   7.682052   8.714067   2.573998   12.64527   15.35757   -999.000   -999.000   -999.000   34.83215   105.7551   -999.000   79.89384 
  8367.000   0.015000   76.88200   6.495000   8.062000   8.370000   2.571000   11.91500   15.16900   -999.000   -999.000   -999.000   32.04600   109.9400   -999.000   76.88200 
  8367.500   0.019503   75.43039   6.708089   8.480395   8.543018   2.550011   11.79556   15.09601   -999.000   -999.000   -999.000   30.19987   107.0501   -999.000   75.43039 
  8368.000   0.024000   73.97900   6.921000   8.899000   8.716000   2.529000   11.67600   15.02300   -999.000   -999.000   -999.000   28.35500   104.1640   -999.000   73.97900 
  8368.500   0.031503   73.37552   7.060604   9.319731   9.079702   2.513492   11.79550   15.05449   -999.000   -999.000   -999.000   27.49065   101.4821   -999.000   73.37552 
  8369.000   0.039000   72.77300   7.200000   9.740000   9.443000   2.498000   11.91500   15.08600   -999.000   -999.000   -999.000   26.62700   98.80200   -999.000   72.77300 
  8369.500   0.043997   74.36147   8.166839   10.01015   9.718778   2.499499   12.13849   15.45559   -999.000   -999.000   -999.000   25.25195   96.96077   -999.000   74.36147 
  8370.000   0.049000   75.95100   9.134000   10.28000   9.995000   2.501000   12.36200   15.82500   -999.000   -999.000   -999.000   23.87700   95.12000   -999.000   75.95100 
  8370.500   0.042499   79.49819   12.06290   10.66888   10.29489   2.505999   12.34700   16.54648   -999.000   -999.000   -999.000   23.99248   94.73473   -999.000   79.49819 
  8371.000   0.036000   83.04900   14.98900   11.05800   10.59500   2.511000   12.33200   17.26700   -999.000   -999.000   -999.000   24.10800   94.34900   -999.000   83.04900 
  8371.500   0.024500   85.97322   16.48684   11.20188   10.63001   2.463486   13.10773   17.78086   -999.000   -999.000   -999.000   24.21845   92.18378   -999.000   85.97322 
  8372.000   0.013000   88.89400   17.98600   11.34600   10.66500   2.416000   13.88300   18.29500   -999.000   -999.000   -999.000   24.32900   90.01500   -999.000   88.89400 
  8372.500   -.013999   93.49502   14.53587   9.321909   10.59046   2.107599   14.58363   18.38646   -999.000   -999.000   -999.000   25.09447   91.06763   -999.000   93.49502 
  8373.000   -.041000   98.09900   11.08300   7.295000   10.51600   1.799000   15.28400   18.47800   -999.000   -999.000   -999.000   25.85900   92.11900   -999.000   98.09900 
  8373.500   -999.000   107.8367   9.289511   5.552444   10.42947   1.628505   16.05997   18.12152   -999.000   -999.000   -999.000   34.22696   83.24390   -999.000   107.8367 
  8374.000   -999.000   117.5820   7.496000   3.811000   10.34300   1.458000   16.83500   17.76500   -999.000   -999.000   -999.000   42.59200   74.37000   -999.000   117.5820 
  8374.500   -999.000   125.3612   7.981016   4.911272   10.58352   1.460001   16.78998   17.69397   -999.000   -999.000   -999.000   58.41270   58.62189   -999.000   125.3612 
  8375.000   -999.000   133.1440   8.466000   6.010000   10.82400   1.462000   16.74500   17.62300   -999.000   -999.000   -999.000   74.22200   42.88300   -999.000   133.1440 
  8375.500   -999.000   133.1755   10.82382   52.62978   10.68757   1.550553   15.53679   17.65752   -999.000   -999.000   -999.000   80.48466   42.14942   -999.000   133.1755 
  8376.000   0.015000   133.2070   13.18000   99.29000   10.55100   1.639000   14.33000   17.69200   -999.000   -999.000   -999.000   86.75500   41.41600   -999.000   133.2070 
  8376.500   0.150384   130.1638   10.52303   184.9852   10.73041   1.973474   14.92683   17.82308   -999.000   -999.000   -999.000   77.13606   48.66716   -999.000   130.1638 
  8377.000   0.286000   127.1170   7.865000   270.5860   10.91000   2.308000   15.52300   17.95400   -999.000   -999.000   -999.000   67.51700   55.91500   -999.000   127.1170 
  8377.500   0.241474   103.5860   7.101889   141.2889   11.02404   2.446051   15.37395   18.42244   -999.000   -999.000   -999.000   54.72847   66.55523   -999.000   103.5860 
  8378.000   0.197000   80.04300   6.339000   12.00400   11.13800   2.584000   15.22500   18.89100   -999.000   -999.000   -999.000   41.93400   77.18400   -999.000   80.04300 
  8378.500   0.105020   66.78774   7.173801   10.22501   11.36440   2.579003   14.27025   19.42965   -999.000   -999.000   -999.000   35.49630   77.35196   -999.000   66.78774 
  8379.000   0.013000   53.52100   8.008000   8.445000   11.59100   2.574000   13.31600   19.96900   -999.000   -999.000   -999.000   29.06300   77.52000   -999.000   53.52100 
  8379.500   0.014500   62.73484   10.84756   9.118187   11.59150   2.592013   13.51010   20.30460   -999.000   -999.000   -999.000   26.72260   78.83655   -999.000   62.73484 
  8380.000   0.016000   71.95400   13.68600   9.792000   11.59200   2.610000   13.70400   20.64000   -999.000   -999.000   -999.000   24.38300   80.15300   -999.000   71.95400 
  8380.500   0.018000   77.26393   14.49595   10.76635   11.66245   2.599003   13.53991   20.82207   -999.000   -999.000   -999.000   23.12793   76.88023   -999.000   77.26393 
  8381.000   0.020000   82.57000   15.30600   11.74000   11.73300   2.588000   13.37600   21.00400   -999.000   -999.000   -999.000   21.87400   73.60700   -999.000   82.57000 
  8381.500   0.016499   71.78546   12.73126   11.31954   11.86098   2.584501   13.22693   21.34885   -999.000   -999.000   -999.000   21.00019   77.73771   -999.000   71.78546 
  8382.000   0.013000   60.99400   10.15400   10.89900   11.98900   2.581000   13.07800   21.69400   -999.000   -999.000   -999.000   20.12700   81.86700   -999.000   60.99400 
  8382.500   0.013000   48.98479   9.510003   10.95801   11.99951   2.570003   13.46555   21.90188   -999.000   -999.000   -999.000   20.32803   79.73479   -999.000   48.98479 
  8383.000   0.013000   36.98900   8.866000   11.01700   12.01000   2.559000   13.85300   22.11000   -999.000   -999.000   -999.000   20.52900   77.60500   -999.000   36.98900 
  8383.500   0.015001   40.19994   9.048579   11.42644   11.84392   2.544007   13.55502   22.39207   -999.000   -999.000   -999.000   21.07425   75.48813   -999.000   40.19994 
  8384.000   0.017000   43.40700   9.231000   11.83600   11.67800   2.529000   13.25700   22.67400   -999.000   -999.000   -999.000   21.62000   73.36800   -999.000   43.40700 
  8384.500   0.013500   102.1639   9.431957   10.83968   11.84660   2.526999   13.25700   22.87557   -999.000   -999.000   -999.000   21.53149   69.81665   -999.000   44.97220 
  8385.000   0.010000   160.9770   9.633000   9.843000   12.01500   2.525000   13.25700   23.07700   -999.000   -999.000   -999.000   21.44300   66.26400   -999.000   46.53740 
  8385.500   0.014003   462.1885   9.398489   9.409924   11.87939   2.520997   13.07811   23.00298   -999.000   -999.000   -999.000   21.77638   69.48048   -999.000   48.10260 
  8386.000   0.018000   763.6860   9.164000   8.977000   11.74400   2.517000   12.89900   22.92900   -999.000   -999.000   -999.000   22.11000   72.69500   -999.000   49.66780 
  8386.500   0.021500   760.7107   8.976563   8.703728   11.64246   2.517000   13.10744   23.16140   -999.000   -999.000   -999.000   22.90852   72.64198   -999.000   51.23300 
  8387.000   0.025000   757.7390   8.789000   8.430000   11.54100   2.517000   13.31600   23.39400   -999.000   -999.000   -999.000   23.70700   72.58900   -999.000   52.79820 
  8387.500   0.020499   451.8383   8.968987   8.184271   11.80719   2.521498   13.28651   23.91825   -999.000   -999.000   -999.000   23.98506   71.72023   -999.000   54.36340 
