~VERSION INFORMATION
VERS.                               2.00: CWLS LOG ASCII STANDARD VERSION 2.00
WRAP.                               NO  : ONE LINE PER DEPTH STEP               
~WELL INFORMATION
#MNEM.UNIT                     DATA TYPE  INFORMATION
#----------------------------------------------------------------------
STRT.F                             16.00: START DEPTH
STOP.F                          11705.00: STOP DEPTH
STEP.F                              0.50: STEP VALUE
NULL.                            -999.00: NULL VALUE
COMP.                                   : COMPANY                               
WELL.                      S MGS UNIT 16: WELL                                  
FLD .                            Unknown: FIELD                                 
LOC .                                   : LOCATION                              
CNTY.                                   : COUNTY                                
STAT.                                   : STATE                                 
CTRY.                                   : COUNTRY                               
SRVC.                                   : SERVICE COMPANY                       
DATE.                                   : LOG DATE                              
API .                   50733204590000  : UNIQUE WELL IDENTIFIER                
~PARAMETER INFORMATION                                                          
#MNEM.UNIT        VALUE   DESCRIPTION                                           
#---------      --------  -----------                                           
~OTHER INFORMATION                                                              
FLS0    .          CIRC                                                         
LGD0    .          7/2/1969                                                     
MT0     .          FRESH/GEL                                                    
FLS0    .          CIRC                                                         
LGD0    .          8/13/1969                                                    
MT0     .          CYPAN                                                        
CSG0    .          13.375" @ 2555                                               
CSG0    .          9.625" @ 10296                                               
~CURVE INFORMATION                                                              
#MNEM.UNIT                 DESCRIPTION                                          
#---------                 -----------                                          
DEPTH   .F               :  1 DEPTH
DRHO    .G/C3          00:  2 DENSITY CORRECTN                                
DT_ORIG .MS/F          00:  3 ORIGINAL SONIC CURVE                            
ILD     .OHMM          00:  4 INDUCTION LOG DEEP                              
ILM     .OHMM          00:  5 INDUCTION LOG MEDIUM                            
SFL     .OHMM          00:  6 SPHER. OR SHAL. FOC. LOG                        
RHOB    .G/C3          00:  7 BULK DENSITY                                    
CALI    .IN            00:  8 CALIPER                                         
SP      .MV            00:  9 SELF POTENTIAL                                  
RT      .OHMM          00: 10 TRUE RESIST CALC FROM AR                        
AF30    .OHMM          00: 11 ARRAY IND 4 FT RESISTIVI                        
AF90    .OHMM          00: 12 ARRAY IND 4 FT RESISTIVI                        
CNS     .%             00: 13 COMPENSATED NEUT (-S)                           
GR      .GAPI          00: 14 GAMMA RAY                                       
AF20    .OHMM          00: 15 ARRAY IND 4 FT RESISTIVI                        
DT      .MS/F          00: 16 INTERV TRANSIT TIME                             
~A  DEPTH    DRHO       DT_ORIG    ILD        ILM        SFL        RHOB       CALI       SP         RT         AF30       AF90       CNS        GR         AF20       DT                                                                                     
# ...
  4087.000   -.048000   184.0650   18.65200   8.621000   13.76100   1.338000   16.26800   79.05700   -999.000   -999.000   -999.000   101.2930   18.44300   -999.000   184.0650 
  4087.500   -.049500   183.0988   26.18439   10.38776   14.82266   1.337500   16.25301   78.09064   -999.000   -999.000   -999.000   103.5278   18.21405   -999.000   183.0988 
  4088.000   -.051000   182.1330   33.71900   12.15500   15.88400   1.337000   16.23800   77.12400   -999.000   -999.000   -999.000   105.7610   17.98500   -999.000   182.1330 
  4088.500   -.049500   179.1588   37.04557   13.23711   16.98308   1.331501   16.53643   75.92289   -999.000   -999.000   -999.000   106.4502   17.83695   -999.000   179.1588 
  4089.000   -.048000   176.1850   40.37100   14.32000   18.08300   1.326000   16.83500   74.72100   -999.000   -999.000   -999.000   107.1390   17.68900   -999.000   176.1850 
  4089.500   -.049000   170.5333   38.49077   13.93252   18.74657   1.330000   16.22342   73.94975   -999.000   -999.000   -999.000   105.4894   17.72701   -999.000   170.5333 
  4090.000   -.050000   164.8830   36.61100   13.54500   19.41000   1.334000   15.61200   73.17900   -999.000   -999.000   -999.000   103.8400   17.76500   -999.000   164.8830 
  4090.500   -.056002   168.6806   39.66757   15.18667   19.34650   1.334000   15.98489   73.02747   -999.000   -999.000   -999.000   103.1986   17.80099   -999.000   168.6806 
  4091.000   -.062000   172.4780   42.72400   16.82800   19.28300   1.334000   16.35800   72.87600   -999.000   -999.000   -999.000   102.5570   17.83700   -999.000   172.4780 
  4091.500   -.059000   178.2522   47.60131   20.61273   20.01781   1.335000   16.10450   72.64452   -999.000   -999.000   -999.000   103.4152   16.96153   -999.000   178.2522 
  4092.000   -.056000   184.0270   52.48100   24.39800   20.75300   1.336000   15.85100   72.41300   -999.000   -999.000   -999.000   104.2730   16.08600   -999.000   184.0270 
  4092.500   -.056000   182.3213   49.70827   23.87950   21.45010   1.367000   15.89550   72.14252   -999.000   -999.000   -999.000   105.1186   18.39120   -999.000   182.3213 
  4093.000   -.056000   180.6160   46.93600   23.36100   22.14700   1.398000   15.94000   71.87200   -999.000   -999.000   -999.000   105.9640   20.69800   -999.000   180.6160 
  4093.500   -.079000   179.8741   41.63703   17.92844   21.98548   1.463516   16.19344   71.72249   -999.000   -999.000   -999.000   102.3704   25.40531   -999.000   179.8741 
  4094.000   -.102000   179.1320   36.33900   12.49900   21.82400   1.529000   16.44700   71.57300   -999.000   -999.000   -999.000   98.77600   30.11400   -999.000   179.1320 
  4094.500   -.074504   179.8417   33.97889   10.89682   20.34475   1.559002   15.97006   71.56750   -999.000   -999.000   -999.000   97.66911   37.78841   -999.000   179.8417 
  4095.000   -.047000   180.5510   31.62000   9.295000   18.86500   1.589000   15.49300   71.56200   -999.000   -999.000   -999.000   96.56300   45.46600   -999.000   180.5510 
  4095.500   -.035502   175.7784   29.19313   9.945692   19.06048   1.583499   15.10552   71.56900   -999.000   -999.000   -999.000   97.73952   46.86372   -999.000   175.7784 
  4096.000   -.024000   171.0020   26.76500   10.59600   19.25600   1.578000   14.71800   71.57600   -999.000   -999.000   -999.000   98.91600   48.26200   -999.000   171.0020 
  4096.500   -.050002   163.6424   26.00564   12.10770   21.55036   1.605503   15.26927   71.61399   -999.000   -999.000   -999.000   99.19202   43.98422   -999.000   163.6424 
  4097.000   -.076000   156.2790   25.24600   13.62000   23.84500   1.633000   15.82100   71.65200   -999.000   -999.000   -999.000   99.46800   39.70700   -999.000   156.2790 
  4097.500   -.071499   147.2672   26.70879   14.87064   24.25438   1.647003   15.07551   71.78302   -999.000   -999.000   -999.000   99.95988   37.94656   -999.000   147.2672 
  4098.000   -.067000   138.2540   28.17100   16.12100   24.66400   1.661000   14.33000   71.91400   -999.000   -999.000   -999.000   100.4520   36.18700   -999.000   138.2540 
  4098.500   -.085496   147.3481   28.82578   16.53509   21.82563   1.627513   14.68795   71.90450   -999.000   -999.000   -999.000   98.80832   37.24289   -999.000   147.3481 
  4099.000   -.104000   156.4370   29.48100   16.94900   18.98800   1.594000   15.04600   71.89500   -999.000   -999.000   -999.000   97.16400   38.29900   -999.000   156.4370 
  4099.500   -.080001   156.2105   27.46531   14.06363   19.60048   1.532513   15.80584   72.08195   -999.000   -999.000   -999.000   97.85506   34.85603   -999.000   156.2105 
  4100.000   -.056000   155.9840   25.45100   11.17700   20.21300   1.471000   16.56600   72.26900   -999.000   -999.000   -999.000   98.54600   31.41300   -999.000   155.9840 
  4100.500   -.034999   151.7687   21.69464   9.784288   20.09398   1.467501   16.26795   72.23698   -999.000   -999.000   -999.000   96.32486   32.35862   -999.000   151.7687 
  4101.000   -.014000   147.5550   17.94000   8.391000   19.97500   1.464000   15.97000   72.20500   -999.000   -999.000   -999.000   94.10300   33.30400   -999.000   147.5550 
  4101.500   0.010497   144.3980   15.25143   7.895449   16.47497   1.526489   14.59807   72.35345   -999.000   -999.000   -999.000   89.88240   42.39132   -999.000   144.3980 
  4102.000   0.035000   141.2410   12.56100   7.400000   12.97400   1.589000   13.22700   72.50200   -999.000   -999.000   -999.000   85.66400   51.47600   -999.000   141.2410 
  4102.500   0.042500   141.0900   11.07873   6.903014   11.03934   1.665002   13.27149   72.80989   -999.000   -999.000   -999.000   81.22269   60.43185   -999.000   141.0900 
  4103.000   0.050000   140.9390   9.597000   6.406000   9.104000   1.741000   13.31600   73.11800   -999.000   -999.000   -999.000   76.78300   69.39100   -999.000   140.9390 
  4103.500   0.036002   139.4105   9.120565   6.586948   8.169512   1.818986   13.10749   73.69658   -999.000   -999.000   -999.000   69.84378   69.90852   -999.000   139.4105 
  4104.000   0.022000   137.8820   8.644000   6.768000   7.235000   1.897000   12.89900   74.27500   -999.000   -999.000   -999.000   62.90800   70.42600   -999.000   137.8820 
  4104.500   0.003004   128.1197   8.362005   6.720009   7.573592   2.035531   12.86899   74.56252   -999.000   -999.000   -999.000   59.65534   70.59303   -999.000   128.1197 
  4105.000   -.016000   118.3630   8.080000   6.672000   7.912000   2.174000   12.83900   74.85000   -999.000   -999.000   -999.000   56.40100   70.76000   -999.000   118.3630 
  4105.500   -.035493   105.3897   7.934010   6.204881   8.417490   2.296027   12.73500   75.27309   -999.000   -999.000   -999.000   50.06289   69.45499   -999.000   105.3897 
  4106.000   -.055000   92.41800   7.788000   5.738000   8.923000   2.418000   12.63100   75.69600   -999.000   -999.000   -999.000   43.72300   68.15000   -999.000   92.41800 
  4106.500   0.000491   94.86015   7.831498   5.664020   7.821619   2.365487   12.55599   75.94447   -999.000   -999.000   -999.000   43.09447   71.64206   -999.000   94.86015 
  4107.000   0.056000   97.30200   7.875000   5.590000   6.720000   2.313000   12.48100   76.19300   -999.000   -999.000   -999.000   42.46600   75.13600   -999.000   97.30200 
  4107.500   0.051000   103.5888   7.724534   5.521996   6.596515   2.289503   12.57052   76.24402   -999.000   -999.000   -999.000   43.58954   78.12807   -999.000   103.5888 
  4108.000   0.046000   109.8780   7.574000   5.454000   6.473000   2.266000   12.66000   76.29500   -999.000   -999.000   -999.000   44.71300   81.12200   -999.000   109.8780 
  4108.500   0.050001   107.6274   7.333448   5.337502   6.498494   2.261500   12.54099   76.31400   -999.000   -999.000   -999.000   44.51047   80.43726   -999.000   107.6274 
  4109.000   0.054000   105.3760   7.093000   5.221000   6.524000   2.257000   12.42200   76.33300   -999.000   -999.000   -999.000   44.30800   79.75300   -999.000   105.3760 
  4109.500   0.092009   103.6174   7.337022   5.244998   6.605524   2.264000   12.91389   76.25400   -999.000   -999.000   -999.000   43.78302   81.41135   -999.000   103.6174 
