~VERSION INFORMATION
VERS.                               2.00: CWLS LOG ASCII STANDARD VERSION 2.00
WRAP.                               NO  : ONE LINE PER DEPTH STEP               
~WELL INFORMATION
#MNEM.UNIT                     DATA TYPE  INFORMATION
#----------------------------------------------------------------------
STRT.F                            920.00: START DEPTH
STOP.F                           9532.00: STOP DEPTH
STEP.F                              0.50: STEP VALUE
NULL.                            -999.00: NULL VALUE
COMP.                                   : COMPANY                               
WELL.                       SRS TERN A-1: WELL                                  
FLD .            Granite Pt/Beluga River: FIELD                                 
LOC .      10N  10W   19 0585FNL 0636FWL: LOCATION                              
CNTY.                 GREATER_COOK_INLET: COUNTY                                
STAT.                             Alaska: STATE                                 
CTRY.                                 US: COUNTRY                               
SRVC.                                   : SERVICE COMPANY                       
DATE.                                   : LOG DATE                              
API .                   50733203530000  : UNIQUE WELL IDENTIFIER                
~PARAMETER INFORMATION                                                          
#MNEM.UNIT        VALUE   DESCRIPTION                                           
#---------      --------  -----------                                           
ELEV    .F          171.5: KB ELEVATION                                         
TDD     .F         9519.0: TOTAL DEPTH DRILLED                                  
~OTHER INFORMATION                                                              
FLS0    .          CIRCULATED                                                   
LGD0    .          7/13/82                                                      
MT0     .          DIS GEL H2O                                                  
FLS0    .          CIRCULATED                                                   
LGD0    .          7/24/82                                                      
FLS0    .          FLOWLINE                                                     
LGD0    .          8/2/82                                                       
MT0     .          LOW SOLIDS NONDISPERSED                                      
~CURVE INFORMATION                                                              
#MNEM.UNIT                 DESCRIPTION                                          
#---------                 -----------                                          
DEPTH   .F               :  1 DEPTH
GR      .GAPI          00:  2 GAMMA RAY                                       
SP      .MV            00:  3 SELF POTENTIAL                                  
CALI    .IN            00:  4 CALIPER                                         
SFL     .OHMM          00:  5 SPHER. OR SHAL. FOC. LOG                        
ILD     .OHMM          00:  6 INDUCTION LOG DEEP                              
ILM     .OHMM          00:  7 INDUCTION LOG MEDIUM                            
CNS     .%             00:  8 COMPENSATED NEUT (-S)                           
DRHO    .G/C3          00:  9 DENSITY CORRECTN                                
RHOB    .G/C3          00: 10 BULK DENSITY                                    
DT      .US/F          00: 11 INTERV TRANSIT TIME                             
MNOR    .OHMM          00: 12 NORMAL MICROLOG                                 
MINV    .OHMM          00: 13 INV MICROLOG                                    
PROX    .OHMM          00: 14 PROXIMITY LOG                                   
POTA    .PPM           00: 15 POTASSIUM                                       
URAN    .PPM           00: 16 URANIUM                                         
THOR    .PPM           00: 17 THORIUM                                         
SGR     .GAPI          00: 18 GAMMA RAY                                       
CGR     .GAPI          00: 19 GAMMA RAY                                       
~A  DEPTH    GR         SP         CALI       SFL        ILD        ILM        CNS        DRHO       RHOB       DT         MNOR       MINV       PROX       POTA       URAN       THOR       SGR        CGR                                                   
# ...
  5873.000   45.54960   -50.3638   8.457700   19.76160   10.89630   9.488000   29.18000   -.004500   2.452567   84.25220   -999.000   -999.000   27.82170   0.016501   0.932773   3.031105   46.83276   38.89702 
  5873.500   46.76840   -48.4862   8.462400   27.71710   10.94780   9.379900   28.20000   -.010900   2.473543   77.50000   -999.000   -999.000   64.19630   0.016166   1.056850   3.223427   47.93522   38.33026 
  5874.000   49.90160   -45.9019   8.467200   18.22190   10.25940   9.233800   23.16000   0.007600   2.448628   85.26390   -999.000   -999.000   36.04950   0.015911   1.144445   3.880124   50.56562   39.45824 
  5874.500   52.14560   -43.7680   8.471900   10.38950   9.575700   8.767600   20.22000   0.030000   2.351535   95.60990   -999.000   -999.000   11.56370   0.016059   1.229697   4.807532   54.21992   41.64775 
  5875.000   53.20320   -41.8106   8.492600   7.674700   8.937500   8.325000   23.09000   0.052500   2.284780   102.9926   -999.000   -999.000   6.543900   0.016259   1.274374   5.406470   57.04290   44.99119 
  5875.500   54.30000   -41.2293   8.519300   6.744200   8.341900   7.904700   25.96000   0.075000   2.278737   106.4441   -999.000   -999.000   5.642900   0.016498   1.314211   5.663670   59.77634   47.89575 
  5876.000   56.87670   -40.9132   8.546100   6.369000   7.786000   7.505700   31.13000   0.093700   2.295178   103.5943   -999.000   -999.000   5.639800   0.016875   1.353670   5.707449   61.81161   50.05993 
  5876.500   58.83010   -40.7273   8.651500   6.754900   7.267100   7.126700   36.09000   0.081700   2.306922   101.9043   -999.000   -999.000   6.285600   0.017260   1.346445   5.634341   62.99915   51.27929 
  5877.000   60.17590   -40.8481   8.769100   7.130400   6.782800   6.962000   37.36000   0.069700   2.312224   101.3848   -999.000   -999.000   6.603400   0.017638   1.329103   5.580893   63.54589   51.65668 
  5877.500   59.66780   -41.1482   8.861300   6.865000   6.740500   6.863800   36.82000   0.057800   2.320539   101.5304   -999.000   -999.000   6.098500   0.018015   1.295155   5.473040   63.00787   51.85912 
  5878.000   58.17410   -41.6916   8.953500   6.609400   6.738700   6.931500   36.18000   0.045800   2.335868   101.7178   -999.000   -999.000   5.632300   0.018344   1.230317   5.093828   62.03353   51.88033 
  5878.500   56.76020   -42.6281   9.030100   6.551100   6.736800   7.033600   35.55000   0.036600   2.345049   101.5241   -999.000   -999.000   5.201700   0.018593   1.160788   5.094371   61.29916   51.88416 
  5879.000   55.30090   -43.8702   8.932100   7.477000   6.762400   7.137300   35.78000   0.035600   2.342945   101.0949   -999.000   -999.000   6.071800   0.018746   1.079115   5.095566   60.77093   51.88802 
  5879.500   55.54030   -45.8746   8.834200   8.533900   6.829300   7.167500   36.10000   0.035400   2.341596   100.2536   -999.000   -999.000   7.257200   0.018637   0.961631   5.170743   60.31915   51.89186 
  5880.000   57.32940   -44.5403   8.736200   9.740100   6.897000   6.963600   36.43000   0.032200   2.340363   98.35210   -999.000   -999.000   8.617000   0.018437   0.963542   5.280115   59.87506   51.91422 
  5880.500   59.11850   -43.2060   8.638200   11.09720   6.965300   6.765600   35.58000   0.026600   2.341681   95.57480   -999.000   -999.000   8.905000   0.018229   0.969787   5.423388   60.02419   52.02271 
  5881.000   60.90750   -41.7773   8.532900   9.378100   6.873100   6.573100   32.91000   0.020900   2.342955   98.34490   -999.000   -999.000   8.772200   0.018018   1.082526   5.625016   60.17840   52.14246 
  5881.500   62.23740   -40.5155   8.499700   7.925400   6.497600   6.386100   32.15000   0.015900   2.348028   101.2541   -999.000   -999.000   7.962400   0.017805   1.193711   5.435973   60.60238   52.27850 
  5882.000   64.12510   -39.5402   8.497000   6.697600   5.983800   6.204500   33.41000   0.022000   2.354148   103.3038   -999.000   -999.000   5.367900   0.017584   1.261300   5.523871   61.17522   52.42718 
  5882.500   65.90480   -38.7872   8.484100   5.660100   5.510700   6.028000   35.46000   0.033900   2.354513   104.6007   -999.000   -999.000   5.157500   0.017451   1.292655   5.748474   62.24648   52.57735 
  5883.000   66.94200   -38.2255   8.484700   4.898000   5.074900   5.856500   37.22000   0.046900   2.340604   105.4622   -999.000   -999.000   4.477800   0.017302   1.334450   6.218286   63.46925   52.84118 
  5883.500   67.97920   -37.9723   8.678800   4.583400   5.057800   5.690000   38.40000   0.055400   2.321967   104.4507   -999.000   -999.000   4.133100   0.017413   1.429010   6.166653   64.33574   53.30769 
  5884.000   69.01640   -37.7608   8.759000   4.407000   5.081600   5.556400   38.89000   0.056200   2.314305   103.3866   -999.000   -999.000   3.710900   0.017807   1.424001   5.953393   64.84923   53.95470 
  5884.500   67.00160   -37.7573   8.760200   4.589100   5.106800   5.554900   38.33000   0.050400   2.329482   100.9036   -999.000   -999.000   3.983300   0.018324   1.338366   5.633759   63.70718   53.90623 
  5885.000   63.74640   -37.8100   8.761300   4.968200   5.259800   5.563100   37.76000   0.044500   2.374029   99.80110   -999.000   -999.000   4.489800   0.018645   1.165970   5.190568   62.18401   53.67856 
  5885.500   58.93870   -38.0379   8.760800   5.399100   5.417400   5.606000   37.20000   0.047800   2.417984   97.60250   -999.000   -999.000   4.749700   0.018555   0.994932   5.223338   60.80718   53.42036 
  5886.000   57.24640   -38.3442   8.758500   5.867300   5.553100   5.649300   36.20000   0.062500   2.426267   96.49300   -999.000   -999.000   4.723700   0.018338   0.940109   5.400069   59.62492   52.36002 
  5886.500   58.26100   -38.6751   8.761400   5.879500   5.641400   5.692900   34.34000   0.078800   2.420943   96.31510   -999.000   -999.000   4.879400   0.018119   0.955728   5.604635   59.84435   52.45443 
  5887.000   59.63150   -39.1183   8.766600   5.566100   5.731100   5.736800   33.67000   0.080900   2.410389   97.47530   -999.000   -999.000   4.971700   0.018140   1.027652   5.863550   60.16602   52.58863 
  5887.500   60.80140   -39.3623   8.766400   5.269500   5.822200   5.781100   33.32000   0.074300   2.392913   99.78960   -999.000   -999.000   4.548300   0.018199   1.168520   6.219618   61.57102   52.72715 
  5888.000   62.13020   -39.6064   8.755100   4.988600   5.843500   5.825700   33.36000   0.070400   2.374522   102.1077   -999.000   -999.000   4.128800   0.017951   1.363434   6.646088   64.95044   54.09131 
  5888.500   63.57850   -39.7790   8.743700   4.970400   5.841800   5.860700   34.26000   0.068700   2.346240   103.1037   -999.000   -999.000   4.043000   0.017641   1.522685   6.962834   67.87038   56.90548 
  5889.000   64.38440   -39.8334   8.733900   5.165600   5.840200   5.885700   36.20000   0.067400   2.327517   103.1611   -999.000   -999.000   4.162000   0.017078   1.580334   6.791981   69.71109   56.78279 
  5889.500   63.42810   -39.7217   8.730800   5.368500   5.838600   5.910800   36.76000   0.066300   2.323498   103.0472   -999.000   -999.000   4.284600   0.016999   1.438628   6.504667   67.85902   56.02809 
  5890.000   61.38720   -39.6100   8.735500   5.579400   5.837000   5.936000   37.95000   0.082400   2.338713   103.2707   -999.000   -999.000   4.466400   0.017417   1.444055   6.076984   65.73080   55.06453 
  5890.500   59.34630   -39.5350   8.745200   5.798600   5.835300   5.941600   37.50000   0.098500   2.362540   103.4942   -999.000   -999.000   4.705200   0.017501   1.472053   6.111583   65.77722   54.28186 
  5891.000   60.34040   -39.5786   8.754900   6.026400   5.834500   5.931500   36.88000   0.114700   2.368452   103.7483   -999.000   -999.000   4.956700   0.017382   1.345443   6.187678   66.08971   54.00514 
  5891.500   61.34050   -39.6633   8.764600   6.263100   5.851600   5.921400   36.03000   0.099600   2.354425   103.9557   -999.000   -999.000   5.250800   0.017253   1.405765   6.382521   66.71994   53.77242 
  5892.000   62.34060   -39.7190   8.770100   6.131200   5.868800   5.911300   35.02000   0.082900   2.337310   104.2206   -999.000   -999.000   5.639700   0.018123   1.511559   6.348623   67.50760   54.11071 
