~VERSION INFORMATION
VERS.                               2.00: CWLS LOG ASCII STANDARD VERSION 2.00
WRAP.                               NO  : ONE LINE PER DEPTH STEP               
~WELL INFORMATION
#MNEM.UNIT                     DATA TYPE  INFORMATION
#----------------------------------------------------------------------
STRT.F                            920.00: START DEPTH
STOP.F                           9532.00: STOP DEPTH
STEP.F                              0.50: STEP VALUE
NULL.                            -999.00: NULL VALUE
COMP.                                   : COMPANY                               
WELL.                       SRS TERN A-1: WELL                                  
FLD .            Granite Pt/Beluga River: FIELD                                 
LOC .      10N  10W   19 0585FNL 0636FWL: LOCATION                              
CNTY.                 GREATER_COOK_INLET: COUNTY                                
STAT.                             Alaska: STATE                                 
CTRY.                                 US: COUNTRY                               
SRVC.                                   : SERVICE COMPANY                       
DATE.                                   : LOG DATE                              
API .                   50733203530000  : UNIQUE WELL IDENTIFIER                
~PARAMETER INFORMATION                                                          
#MNEM.UNIT        VALUE   DESCRIPTION                                           
#---------      --------  -----------                                           
ELEV    .F          171.5: KB ELEVATION                                         
TDD     .F         9519.0: TOTAL DEPTH DRILLED                                  
~OTHER INFORMATION                                                              
FLS0    .          CIRCULATED                                                   
LGD0    .          7/13/82                                                      
MT0     .          DIS GEL H2O                                                  
FLS0    .          CIRCULATED                                                   
LGD0    .          7/24/82                                                      
FLS0    .          FLOWLINE                                                     
LGD0    .          8/2/82                                                       
MT0     .          LOW SOLIDS NONDISPERSED                                      
~CURVE INFORMATION                                                              
#MNEM.UNIT                 DESCRIPTION                                          
#---------                 -----------                                          
DEPTH   .F               :  1 DEPTH
GR      .GAPI          00:  2 GAMMA RAY                                       
SP      .MV            00:  3 SELF POTENTIAL                                  
CALI    .IN            00:  4 CALIPER                                         
SFL     .OHMM          00:  5 SPHER. OR SHAL. FOC. LOG                        
ILD     .OHMM          00:  6 INDUCTION LOG DEEP                              
ILM     .OHMM          00:  7 INDUCTION LOG MEDIUM                            
CNS     .%             00:  8 COMPENSATED NEUT (-S)                           
DRHO    .G/C3          00:  9 DENSITY CORRECTN                                
RHOB    .G/C3          00: 10 BULK DENSITY                                    
DT      .US/F          00: 11 INTERV TRANSIT TIME                             
MNOR    .OHMM          00: 12 NORMAL MICROLOG                                 
MINV    .OHMM          00: 13 INV MICROLOG                                    
PROX    .OHMM          00: 14 PROXIMITY LOG                                   
POTA    .PPM           00: 15 POTASSIUM                                       
URAN    .PPM           00: 16 URANIUM                                         
THOR    .PPM           00: 17 THORIUM                                         
SGR     .GAPI          00: 18 GAMMA RAY                                       
CGR     .GAPI          00: 19 GAMMA RAY                                       
~A  DEPTH    GR         SP         CALI       SFL        ILD        ILM        CNS        DRHO       RHOB       DT         MNOR       MINV       PROX       POTA       URAN       THOR       SGR        CGR                                                   
# ...
  4079.000   35.24160   69.33109   12.61290   4.741600   753.7408   8.726000   48.65000   -999.000   -999.000   -999.000   -999.000   -999.000   -999.000   -999.000   -999.000   -999.000   -999.000   -999.000 
  4079.500   35.71330   68.24120   12.61230   5.200900   652.5160   8.700000   47.18000   -999.000   -999.000   -999.000   -999.000   -999.000   -999.000   -999.000   -999.000   -999.000   -999.000   -999.000 
  4080.000   35.93250   66.88179   12.64140   5.400900   67.20200   8.674000   45.71000   -999.000   -999.000   -999.000   -999.000   -999.000   -999.000   -999.000   -999.000   -999.000   -999.000   -999.000 
  4080.500   34.85610   65.69820   12.68960   5.608600   218.2040   8.648200   44.25000   -999.000   -999.000   -999.000   -999.000   -999.000   -999.000   -999.000   -999.000   -999.000   -999.000   -999.000 
  4081.000   33.77970   63.85059   12.75400   5.824300   1603.266   8.424300   43.06000   -999.000   -999.000   -999.000   -999.000   -999.000   -999.000   -999.000   -999.000   -999.000   -999.000   -999.000 
  4081.500   32.60180   61.28120   13.08130   6.048200   1540.360   8.004200   42.33000   -999.000   -999.000   -999.000   -999.000   -999.000   -999.000   -999.000   -999.000   -999.000   -999.000   -999.000 
  4082.000   30.94920   57.37890   13.41510   6.280800   1276.165   7.605000   42.62000   -999.000   -999.000   -999.000   -999.000   -999.000   -999.000   -999.000   -999.000   -999.000   -999.000   -999.000 
  4082.500   30.53200   55.99220   13.88430   6.522400   1057.282   11.01610   43.18000   -999.000   -999.000   -999.000   -999.000   -999.000   -999.000   -999.000   -999.000   -999.000   -999.000   -999.000 
  4083.000   31.20040   55.23540   16.00360   6.773200   363.2606   19.66960   43.74000   -999.000   -999.000   137.3517   -999.000   -999.000   -999.000   -999.000   -999.000   -999.000   -999.000   -999.000 
  4083.500   32.15990   54.43310   17.08760   7.033600   67.89060   35.12070   43.39000   -999.000   -999.000   149.8874   -999.000   -999.000   -999.000   -999.000   -999.000   -999.000   -999.000   -999.000 
  4084.000   33.86030   53.55080   17.26660   8.304700   12.68820   62.70910   41.18000   -999.000   -999.000   150.7802   -999.000   -999.000   -999.000   -999.000   -999.000   -999.000   -999.000   -999.000 
  4084.500   38.42820   52.66599   16.51770   9.719500   6.552300   111.9688   38.97000   -999.000   -999.000   149.2561   -999.000   -999.000   -999.000   -999.000   -999.000   -999.000   -999.000   -999.000 
  4085.000   43.38500   51.77100   15.76180   12.50560   47.80880   199.9234   36.76000   0.003500   2.044080   138.1970   2.770000   2.632600   2.370900   -999.000   -999.000   -999.000   -999.000   -999.000 
  4085.500   48.05550   50.85550   11.24280   13.98860   348.8382   356.9689   34.55000   -.000900   2.090316   131.5526   3.251100   2.786100   3.374000   -999.000   1.139035   4.894813   54.62886   45.23199 
  4086.000   51.54720   50.00780   11.17090   15.64750   1102.692   637.3784   32.90000   -.005900   2.129402   125.2278   3.682500   2.833900   4.801600   0.015806   1.106445   4.889145   55.91283   45.89803 
  4086.500   54.15730   49.19579   11.09900   17.50310   1305.422   1138.058   32.98000   -.010800   2.152823   123.3289   3.842500   2.881800   8.260500   0.015842   1.060571   4.823638   55.76497   45.70449 
  4087.000   53.22480   48.46140   11.02710   19.54080   1545.425   152.2298   33.34000   -.012000   2.172440   123.0602   3.807200   2.929600   9.048600   0.015974   1.038675   4.600264   55.33663   45.51086 
  4087.500   51.83110   47.85600   11.02790   21.75990   1829.552   381.1193   33.95000   -.012800   2.183441   123.0662   3.757100   2.842600   9.542900   0.016370   1.150977   4.414331   54.77757   44.93164 
  4088.000   50.82270   47.35989   11.04820   24.23110   260.8463   954.1625   34.56000   -.014000   2.173628   123.5616   3.688200   2.738800   9.995800   0.016465   1.131842   4.272612   53.96223   44.33327 
  4088.500   49.97080   46.94070   11.06850   24.29020   67.27520   457.8593   35.10000   -.015600   2.142008   125.5284   3.700400   2.708400   10.53500   0.016143   1.060346   4.108905   52.83634   43.74210 
  4089.000   49.11880   46.53020   11.10400   24.17370   53.61350   106.5253   34.22000   -.014900   2.110116   126.6022   3.766400   2.719100   11.39330   0.016349   0.966353   3.875369   51.65601   43.07380 
  4089.500   49.37180   46.28100   11.19690   24.05770   42.72610   35.91990   33.34000   -.012700   2.099133   126.4940   3.822200   2.761700   14.24930   0.016727   0.909358   3.610850   50.91627   43.08003 
  4090.000   51.53950   46.08109   11.29450   21.73140   34.04970   174.7007   32.46000   -.010400   2.103109   126.3858   3.850200   2.806600   15.15440   0.017204   0.889874   3.652792   51.52867   43.34239 
  4090.500   56.17230   -53.7560   11.41570   17.90940   27.13520   849.6765   34.42000   -.004300   2.115003   126.2776   3.699200   2.681300   11.59140   0.017429   0.941378   3.902376   52.86745   43.86129 
  4091.000   55.65080   -53.9996   11.53680   14.75960   21.62480   159.2722   38.06000   0.007500   2.097097   125.2411   3.422500   2.556000   8.866100   0.016947   1.089977   4.279416   54.72754   44.72304 
  4091.500   54.04500   -53.9642   11.65800   12.61370   19.25800   29.14690   41.70000   0.010100   2.034467   121.8552   3.145900   2.411900   6.781500   0.016727   1.240181   4.487827   56.56380   45.61805 
  4092.000   52.43910   -53.9405   11.23020   11.40740   17.58420   16.43530   39.80000   -.000700   1.962736   118.3252   2.869300   2.233600   6.286400   0.016995   1.315829   4.524515   58.06941   46.29963 
  4092.500   51.21210   -53.9263   10.55560   11.64630   15.59770   14.75180   37.62000   -.010800   1.959416   115.5617   3.154200   2.573100   6.064000   0.017167   1.355183   4.590585   58.90332   46.76909 
  4093.000   53.54560   -53.7133   10.12850   12.14980   13.70680   13.94930   35.43000   -.020300   2.040329   113.8804   3.710700   3.135100   8.404800   0.017481   1.392243   4.666710   59.83670   47.10832 
  4093.500   55.86040   -53.2400   9.275100   12.26120   13.52850   13.19050   33.25000   -.007000   2.144437   113.2619   4.267100   3.564700   10.61050   0.018107   1.430581   4.718797   60.82080   47.96574 
  4094.000   58.51540   -52.3606   9.279000   12.03730   13.60950   12.97070   32.00000   0.006200   2.229902   113.2099   4.575700   3.466600   11.35960   0.018829   1.464739   4.711982   61.51542   49.06644 
  4094.500   60.61550   -51.5736   9.284000   11.65660   13.57440   12.83750   32.94000   0.019400   2.263278   113.2319   4.605800   3.368400   9.527800   0.018715   1.437493   4.734658   61.82392   50.12568 
  4095.000   61.83270   -50.9546   9.291300   10.78850   13.46510   12.70560   33.88000   0.017800   2.263357   112.8542   4.494700   3.270300   7.916400   0.017985   1.357954   4.724436   60.63620   50.64300 
  4095.500   60.86620   -50.3357   9.313500   10.80180   13.38810   12.57510   34.06000   0.011900   2.257020   111.8341   4.364400   3.172200   7.242700   0.017106   1.256811   4.986938   59.28255   50.12691 
  4096.000   57.32780   -51.5408   9.454100   11.04300   13.16560   12.44600   31.96000   0.006100   2.256192   109.3993   4.234000   3.074000   7.731000   0.016129   1.161499   5.298456   57.97266   49.00195 
  4096.500   54.70990   -51.9139   9.557000   11.16640   13.01170   12.31820   29.87000   0.000200   2.271038   107.8528   4.103700   3.014000   8.041900   0.015754   1.074882   5.279099   56.43400   47.87167 
  4097.000   54.26480   -52.2869   9.519600   11.19120   13.06910   12.19170   28.43000   0.005200   2.296306   106.0637   3.973400   3.124300   8.208300   0.016119   0.981506   5.030892   56.85487   47.47794 
  4097.500   54.40230   -52.7132   9.482200   11.12240   13.18150   12.79270   28.63000   0.010400   2.325099   106.1428   3.843000   3.234600   7.915900   0.016808   1.003096   4.752360   57.82227   47.30283 
  4098.000   56.30060   -53.3398   9.444800   11.03390   13.40390   13.68880   28.83000   0.027900   2.350496   107.1847   3.951200   3.344900   7.634000   0.017417   1.091594   4.779592   58.92918   48.06772 
