~VERSION INFORMATION
VERS.                               2.00: CWLS LOG ASCII STANDARD VERSION 2.00
WRAP.                               NO  : ONE LINE PER DEPTH STEP               
~WELL INFORMATION
#MNEM.UNIT                     DATA TYPE  INFORMATION
#----------------------------------------------------------------------
STRT.F                           1691.00: START DEPTH
STOP.F                          10167.00: STOP DEPTH
STEP.F                              0.50: STEP VALUE
NULL.                            -999.00: NULL VALUE
COMP.                                   : COMPANY                               
WELL.                        MGS C-22-23: WELL                                  
FLD .                            Unknown: FIELD                                 
LOC .                                   : LOCATION                              
CNTY.                                   : COUNTY                                
STAT.                                   : STATE                                 
CTRY.                                   : COUNTRY                               
SRVC.                                   : SERVICE COMPANY                       
DATE.                                   : LOG DATE                              
API .                   50733203970000  : UNIQUE WELL IDENTIFIER                
~PARAMETER INFORMATION                                                          
#MNEM.UNIT        VALUE   DESCRIPTION                                           
#---------      --------  -----------                                           
~OTHER INFORMATION                                                              
CSG0    .          9.625" @ 6034                                                
FLS0    .          CIRC                                                         
LGD0    .          6/6/1988                                                     
MT0     .          #2                                                           
~CURVE INFORMATION                                                              
#MNEM.UNIT                 DESCRIPTION                                          
#---------                 -----------                                          
DEPTH   .F               :  1 DEPTH
DRHO    .G/C3          00:  2 DENSITY CORRECTN                                
RHOB    .G/C3          00:  3 BULK DENSITY                                    
CALI    .IN            00:  4 CALIPER                                         
DTL     .MS/F          00:  5 INTERV TRANSIT TIME LONG                        
DT_ORIG .MS/F          00:  6 ORIGINAL SONIC CURVE                            
GR      .GAPI          00:  7 GAMMA RAY                                       
IDPH    .OHMM          00:  8 INDUCTION DB PHASOR                             
ILD     .OHMM          00:  9 INDUCTION LOG DEEP                              
ILM     .OHMM          00: 10 INDUCTION LOG MEDIUM                            
IMPH    .OHMM          00: 11 INDUCTION MEDIUM PHASOR                         
SFL     .OHMM          00: 12 SPHER. OR SHAL. FOC. LOG                        
SP      .MV            00: 13 SELF POTENTIAL                                  
PEF     .B/E           00: 14 FOTO ELECTRO. XSCT                              
DT      .MS/F          00: 15 INTERV TRANSIT TIME                             
~A  DEPTH    DRHO       RHOB       CALI       DTL        DT_ORIG    GR         IDPH       ILD        ILM        IMPH       SFL        SP         PEF        DT                                                                                                
# ...
  5072.000   -999.000   -999.000   -999.000   92.00000   94.00000   76.43800   9.047000   8.797000   8.805000   8.727000   11.33600   -53.9380   -999.000   94.00000 
  5072.500   -999.000   -999.000   -999.000   91.75000   92.87500   79.31250   9.109497   8.839997   8.812500   9.011929   11.34400   -54.5787   -999.000   92.87500 
  5073.000   -999.000   -999.000   -999.000   91.50000   91.75000   82.18800   9.172000   8.883000   8.820000   9.297000   11.35200   -55.2190   -999.000   91.75000 
  5073.500   -999.000   -999.000   -999.000   88.75000   89.18750   82.50049   9.164003   8.894501   8.628965   9.144550   10.69164   -55.4536   -999.000   89.18750 
  5074.000   -999.000   -999.000   -999.000   86.00000   86.62500   82.81300   9.156000   8.906000   8.438000   8.992000   10.03100   -55.6880   -999.000   86.62500 
  5074.500   -999.000   -999.000   -999.000   82.75000   84.00000   80.21822   9.109509   8.918002   8.434000   8.718575   8.521729   -55.5160   -999.000   84.00000 
  5075.000   -999.000   -999.000   -999.000   79.50000   81.37500   77.62500   9.063000   8.930000   8.430000   8.445000   7.012000   -55.3440   -999.000   81.37500 
  5075.500   -999.000   -999.000   -999.000   81.37500   81.62500   77.75000   8.797029   8.656439   8.492493   8.418011   7.693672   -54.7343   -999.000   81.62500 
  5076.000   -999.000   -999.000   -999.000   83.25000   81.87500   77.87500   8.531000   8.383000   8.555000   8.391000   8.375000   -54.1250   -999.000   81.87500 
  5076.500   -999.000   -999.000   -999.000   85.37500   85.56250   75.87500   8.339472   8.199511   8.208950   8.343999   8.660091   -53.9065   -999.000   85.56250 
  5077.000   -999.000   -999.000   -999.000   87.50000   89.25000   73.87500   8.148000   8.016000   7.863000   8.297000   8.945000   -53.6880   -999.000   89.25000 
  5077.500   -999.000   -999.000   -999.000   87.62500   88.50000   74.06250   8.064000   7.957018   7.689522   8.008118   7.810900   -53.7345   -999.000   88.50000 
  5078.000   -999.000   -999.000   -999.000   87.75000   87.75000   74.25000   7.980000   7.898000   7.516000   7.719000   6.676000   -53.7810   -999.000   87.75000 
  5078.500   -999.000   -999.000   -999.000   88.00000   88.18750   80.78379   7.759507   7.663940   7.429989   7.508114   7.060619   -53.5154   -999.000   88.18750 
  5079.000   -999.000   -999.000   -999.000   88.25000   88.62500   87.31300   7.539000   7.430000   7.344000   7.297000   7.445000   -53.2500   -999.000   88.62500 
  5079.500   -999.000   -999.000   -999.000   87.87500   88.37500   87.40650   7.413940   7.297040   7.137118   7.200984   7.023334   -52.9844   -999.000   88.37500 
  5080.000   -999.000   -999.000   -999.000   87.50000   88.12500   87.50000   7.289000   7.164000   6.930000   7.105000   6.602000   -52.7190   -999.000   88.12500 
  5080.500   -999.000   -999.000   -999.000   88.12500   88.68750   85.43750   7.244001   7.127006   6.872989   7.009526   6.441467   -52.6250   -999.000   88.68750 
  5081.000   -999.000   -999.000   -999.000   88.75000   89.25000   83.37500   7.199000   7.090000   6.816000   6.914000   6.281000   -52.5310   -999.000   89.25000 
  5081.500   -999.000   -999.000   -999.000   89.00000   89.25000   81.15639   7.122994   7.027527   6.816000   6.873013   6.175501   -52.6095   -999.000   89.25000 
  5082.000   -999.000   -999.000   -999.000   89.25000   89.25000   78.93800   7.047000   6.965000   6.816000   6.832000   6.070000   -52.6880   -999.000   89.25000 
  5082.500   -999.000   -999.000   -999.000   89.50000   89.43750   77.90658   6.913957   6.841954   6.733986   6.792996   6.718460   -52.6410   -999.000   89.43750 
  5083.000   -999.000   -999.000   -999.000   89.75000   89.62500   76.87500   6.781000   6.719000   6.652000   6.754000   7.367000   -52.5940   -999.000   89.62500 
  5083.500   -999.000   -999.000   -999.000   89.50000   89.25000   78.59490   6.656006   6.596059   6.404042   6.577989   6.644361   -52.5625   -999.000   89.25000 
  5084.000   -999.000   -999.000   -999.000   89.25000   88.87500   80.31300   6.531000   6.473000   6.156000   6.402000   5.922000   -52.5310   -999.000   88.87500 
  5084.500   -999.000   -999.000   -999.000   88.87500   89.31250   84.02959   6.413941   6.342019   6.044945   6.195048   5.951007   -52.6095   -999.000   89.31250 
  5085.000   -999.000   -999.000   -999.000   88.50000   89.75000   87.75000   6.297000   6.211000   5.934000   5.988000   5.980000   -52.6880   -999.000   89.75000 
  5085.500   -999.000   -999.000   -999.000   88.50000   89.00000   85.31250   6.297000   6.211000   5.889002   5.918008   5.804440   -52.7815   -999.000   89.00000 
  5086.000   -999.000   -999.000   -999.000   88.50000   88.25000   82.87500   6.297000   6.211000   5.844000   5.848000   5.629000   -52.8750   -999.000   88.25000 
  5086.500   -999.000   -999.000   -999.000   86.37500   86.50000   82.78147   6.455016   6.388505   6.040988   5.982517   5.627001   -52.8750   -999.000   86.50000 
  5087.000   -999.000   -999.000   -999.000   84.25000   84.75000   82.68800   6.613000   6.566000   6.238000   6.117000   5.625000   -52.8750   -999.000   84.75000 
  5087.500   -999.000   -999.000   -999.000   82.37500   83.37500   80.78199   6.704997   6.654019   6.515469   6.429443   6.314330   -53.1720   -999.000   83.37500 
  5088.000   -999.000   -999.000   -999.000   80.50000   82.00000   78.87500   6.797000   6.742000   6.793000   6.742000   7.004000   -53.4690   -999.000   82.00000 
  5088.500   -999.000   -999.000   -999.000   82.25000   82.68750   80.87500   6.806497   6.748001   6.628999   6.839974   7.297105   -53.3285   -999.000   82.68750 
  5089.000   -999.000   -999.000   -999.000   84.00000   83.37500   82.87500   6.816000   6.754000   6.465000   6.938000   7.590000   -53.1880   -999.000   83.37500 
  5089.500   -999.000   -999.000   -999.000   86.00000   86.12500   85.09402   6.794493   6.740506   6.369012   6.681921   6.867427   -53.2345   -999.000   86.12500 
  5090.000   -999.000   -999.000   -999.000   88.00000   88.87500   87.31300   6.773000   6.727000   6.273000   6.426000   6.145000   -53.2810   -999.000   88.87500 
  5090.500   -999.000   -999.000   -999.000   88.75000   88.81250   87.43799   6.614968   6.554993   6.200991   6.251964   6.080530   -53.5780   -999.000   88.81250 
  5091.000   -999.000   -999.000   -999.000   89.50000   88.75000   87.56300   6.457000   6.383000   6.129000   6.078000   6.016000   -53.8750   -999.000   88.75000 
  5091.500   -999.000   -999.000   -999.000   91.75000   91.81250   86.78144   6.388497   6.316498   6.081994   6.068502   6.164516   -54.0470   -999.000   91.81250 
  5092.000   -999.000   -999.000   -999.000   94.00000   94.87500   86.00000   6.320000   6.250000   6.035000   6.059000   6.313000   -54.2190   -999.000   94.87500 
  5092.500   -999.000   -999.000   -999.000   95.37500   95.56250   86.40656   6.355494   6.290996   6.046996   6.099987   6.341992   -54.7036   -999.000   95.56250 
  5093.000   -999.000   -999.000   -999.000   96.75000   96.25000   86.81300   6.391000   6.332000   6.059000   6.141000   6.371000   -55.1880   -999.000   96.25000 
  5093.500   -999.000   -999.000   -999.000   95.00000   95.12500   87.93848   6.492446   6.435513   6.167948   6.216984   6.218482   -56.0010   -999.000   95.12500 
  5094.000   -999.000   -999.000   -999.000   93.25000   94.00000   89.06300   6.594000   6.539000   6.277000   6.293000   6.066000   -56.8130   -999.000   94.00000 
  5094.500   -999.000   -999.000   -999.000   92.50000   92.56250   87.62598   6.664000   6.595492   6.361014   6.404453   6.390437   -57.4380   -999.000   92.56250 
  5095.000   -999.000   -999.000   -999.000   91.75000   91.12500   86.18800   6.734000   6.652000   6.445000   6.516000   6.715000   -58.0630   -999.000   91.12500 
  5095.500   -999.000   -999.000   -999.000   92.62500   91.93750   87.34437   6.806509   6.712506   6.462496   6.584012   6.836024   -58.4847   -999.000   91.93750 
  5096.000   -999.000   -999.000   -999.000   93.50000   92.75000   88.50000   6.879000   6.773000   6.480000   6.652000   6.957000   -58.9060   -999.000   92.75000 
