~VERSION INFORMATION
VERS.                               2.00: CWLS LOG ASCII STANDARD VERSION 2.00
WRAP.                               NO  : ONE LINE PER DEPTH STEP               
~WELL INFORMATION
#MNEM.UNIT                     DATA TYPE  INFORMATION
#----------------------------------------------------------------------
STRT.F                            920.00: START DEPTH
STOP.F                           9532.00: STOP DEPTH
STEP.F                              0.50: STEP VALUE
NULL.                            -999.00: NULL VALUE
COMP.                                   : COMPANY                               
WELL.                       SRS TERN A-1: WELL                                  
FLD .            Granite Pt/Beluga River: FIELD                                 
LOC .      10N  10W   19 0585FNL 0636FWL: LOCATION                              
CNTY.                 GREATER_COOK_INLET: COUNTY                                
STAT.                             Alaska: STATE                                 
CTRY.                                 US: COUNTRY                               
SRVC.                                   : SERVICE COMPANY                       
DATE.                                   : LOG DATE                              
API .                   50733203530000  : UNIQUE WELL IDENTIFIER                
~PARAMETER INFORMATION                                                          
#MNEM.UNIT        VALUE   DESCRIPTION                                           
#---------      --------  -----------                                           
ELEV    .F          171.5: KB ELEVATION                                         
TDD     .F         9519.0: TOTAL DEPTH DRILLED                                  
~OTHER INFORMATION                                                              
FLS0    .          CIRCULATED                                                   
LGD0    .          7/13/82                                                      
MT0     .          DIS GEL H2O                                                  
FLS0    .          CIRCULATED                                                   
LGD0    .          7/24/82                                                      
FLS0    .          FLOWLINE                                                     
LGD0    .          8/2/82                                                       
MT0     .          LOW SOLIDS NONDISPERSED                                      
~CURVE INFORMATION                                                              
#MNEM.UNIT                 DESCRIPTION                                          
#---------                 -----------                                          
DEPTH   .F               :  1 DEPTH
GR      .GAPI          00:  2 GAMMA RAY                                       
SP      .MV            00:  3 SELF POTENTIAL                                  
CALI    .IN            00:  4 CALIPER                                         
SFL     .OHMM          00:  5 SPHER. OR SHAL. FOC. LOG                        
ILD     .OHMM          00:  6 INDUCTION LOG DEEP                              
ILM     .OHMM          00:  7 INDUCTION LOG MEDIUM                            
CNS     .%             00:  8 COMPENSATED NEUT (-S)                           
DRHO    .G/C3          00:  9 DENSITY CORRECTN                                
RHOB    .G/C3          00: 10 BULK DENSITY                                    
DT      .US/F          00: 11 INTERV TRANSIT TIME                             
MNOR    .OHMM          00: 12 NORMAL MICROLOG                                 
MINV    .OHMM          00: 13 INV MICROLOG                                    
PROX    .OHMM          00: 14 PROXIMITY LOG                                   
POTA    .PPM           00: 15 POTASSIUM                                       
URAN    .PPM           00: 16 URANIUM                                         
THOR    .PPM           00: 17 THORIUM                                         
SGR     .GAPI          00: 18 GAMMA RAY                                       
CGR     .GAPI          00: 19 GAMMA RAY                                       
~A  DEPTH    GR         SP         CALI       SFL        ILD        ILM        CNS        DRHO       RHOB       DT         MNOR       MINV       PROX       POTA       URAN       THOR       SGR        CGR                                                   
# ...
  7316.000   70.53920   -28.8795   8.481200   8.898800   8.123800   8.068100   38.86000   0.026400   2.143222   108.5054   -999.000   3.090000   6.514000   0.019666   2.138974   5.626475   71.94241   54.79913 
  7316.500   75.03010   -29.2539   8.483400   11.47130   8.991700   8.660300   36.64000   0.010200   2.228057   104.9539   -999.000   3.022100   6.566800   0.020448   2.180711   5.930183   73.73666   55.65044 
  7317.000   78.32510   -29.7543   8.476000   12.43440   9.952400   9.296000   34.61000   0.001500   2.297633   101.6173   -999.000   3.074000   7.064600   0.021202   2.223861   6.654965   76.89125   58.28041 
  7317.500   79.74480   -30.3958   8.458600   12.10470   11.01570   9.978400   34.37000   0.025000   2.321692   99.76020   -999.000   3.074100   7.600200   0.022097   2.247212   7.548716   81.85652   63.72303 
  7318.000   78.39730   -31.0794   8.431800   11.78370   11.38020   10.71080   34.14000   0.022800   2.346402   98.84390   -999.000   3.047600   8.176400   0.021974   2.276120   7.846996   84.25006   66.57234 
  7318.500   77.05990   -31.7070   8.398700   12.24370   11.45860   11.20800   33.81000   0.019700   2.368681   98.26300   -999.000   3.021000   8.710700   0.021687   2.236111   7.847061   84.78760   67.58113 
  7319.000   76.12310   -32.1723   8.406800   13.21610   11.53760   11.47680   31.74000   0.016500   2.383757   96.40790   -999.000   3.125100   9.040600   0.020968   2.170537   7.847131   83.36176   66.93498 
  7319.500   75.18630   -32.5702   8.415900   13.92550   11.61710   11.75200   31.82000   0.016700   2.397632   94.07780   4.596500   3.324700   9.383100   0.020650   2.104959   7.761559   81.55373   66.08044 
  7320.000   74.24940   -32.9681   8.425000   14.40440   11.79210   11.95090   31.89000   0.023200   2.424049   92.46190   4.731500   3.257400   9.379600   0.021048   1.925793   7.538159   79.28444   65.17030 
  7320.500   73.31260   -33.2624   8.436100   14.89970   12.06730   12.07400   30.57000   0.029600   2.445940   90.30330   4.866500   3.190100   9.026700   0.021472   1.638994   7.140915   77.48029   64.28197 
  7321.000   72.43870   -33.4619   8.447600   15.33370   12.39600   12.19840   29.04000   0.036000   2.467288   88.54170   5.001600   3.122900   8.687000   0.022131   1.399474   6.785683   75.47948   63.81774 
  7321.500   70.96110   -33.7204   8.456400   14.98520   12.46790   12.25810   27.51000   0.034500   2.449744   87.88890   4.792700   3.423300   9.331700   0.021875   1.214128   6.546472   73.88449   63.35352 
  7322.000   68.67990   -34.0827   8.450500   14.57020   12.29370   12.10790   26.48000   0.026000   2.435507   87.96770   4.375700   4.138800   10.27520   0.021435   1.235684   6.505331   74.49866   62.92190 
  7322.500   67.21030   -34.5000   8.444500   14.00430   12.11460   11.86550   26.28000   0.017500   2.430596   88.57620   4.085900   4.854300   9.941000   0.021010   1.266077   6.959526   74.98611   62.48677 
  7323.000   68.22240   -35.0004   8.438600   13.52620   11.53610   11.53590   26.28000   0.009200   2.440842   89.27870   4.016100   5.155100   9.041200   0.020861   1.299893   6.939587   74.99046   62.75259 
  7323.500   72.21890   -35.5314   8.431500   13.29830   10.83910   10.83870   28.08000   0.009700   2.451838   89.68310   3.946400   4.741500   8.222900   0.020868   1.318735   6.914450   75.16766   63.15711 
  7324.000   78.67890   -36.1418   8.424200   11.91080   10.25240   10.18370   29.89000   0.010100   2.454480   90.08740   3.876700   4.327900   7.478600   0.021863   1.386423   6.951255   76.75171   64.01895 
  7324.500   80.84210   -36.5725   8.419700   10.88520   9.831500   9.568200   31.05000   0.010500   2.449413   90.59880   3.807000   3.914300   6.801700   0.022936   1.618847   7.142459   79.73872   65.24352 
  7325.000   82.82490   -36.7802   8.416000   9.116800   9.428000   9.116800   31.72000   0.011000   2.437679   91.65200   3.636600   3.500600   6.581400   0.024149   1.911348   7.344473   83.76674   67.33499 
  7325.500   80.45720   -36.9096   8.415900   8.307800   9.041000   8.307800   32.39000   0.031100   2.424989   93.02150   3.330600   3.087000   6.834900   0.025595   2.206295   7.005094   87.74344   69.41934 
  7326.000   78.87020   -37.0697   8.416000   8.306300   8.669900   8.306300   33.05000   0.051800   2.410444   95.57320   3.367900   2.996700   7.582200   0.026662   2.457679   6.690992   90.54019   72.40396 
  7326.500   77.77790   -37.1823   8.415600   8.530700   8.501500   8.530700   34.65000   0.072500   2.342712   98.50260   4.883900   4.577300   8.298300   0.026941   2.504231   6.713472   92.57544   72.29297 
  7327.000   76.31520   -37.2870   8.415300   8.761200   8.883500   8.761200   37.97000   0.063200   2.292707   101.9520   5.227600   4.910700   8.852400   0.026309   2.515092   6.748412   91.62929   72.08087 
  7327.500   74.85260   -37.3321   8.414900   9.417800   9.282700   9.417800   40.87000   0.036300   2.256658   104.6532   5.123600   4.717400   9.443600   0.024959   2.199721   6.796659   87.28731   69.90295 
  7328.000   71.58620   -37.3759   8.414500   10.85260   9.699700   10.01630   38.68000   0.009400   2.283080   106.2218   5.019600   4.524200   10.07430   0.023536   1.960202   6.874829   83.87251   67.87119 
  7328.500   70.40090   -37.5150   8.413500   13.21890   10.13560   10.27470   36.48000   0.001000   2.360838   102.9896   4.959100   4.330900   10.46450   0.022253   1.740864   6.868737   80.62219   65.82054 
  7329.000   69.94810   -37.9091   8.410400   15.75780   10.53950   10.53970   34.29000   0.001700   2.409039   97.99430   4.981900   4.182600   10.11730   0.021268   1.563458   6.770536   77.54285   64.18405 
  7329.500   69.58100   -38.3033   8.407400   15.02940   10.81140   10.81150   32.09000   0.002400   2.428608   94.32410   5.008100   4.156000   9.660500   0.020501   1.472429   6.699215   74.74333   63.19077 
  7330.000   69.99820   -38.7131   8.404400   14.33470   11.09030   10.88510   29.90000   0.003000   2.402956   91.54000   5.034300   4.129400   9.224300   0.020368   1.431935   6.896049   74.99785   62.67513 
  7330.500   70.62060   -38.9365   8.401300   13.67210   11.31010   10.93850   30.21000   0.017800   2.321824   90.84300   5.060400   4.102900   8.807800   0.020236   1.638244   7.057723   75.88039   63.05041 
  7331.000   71.25460   -39.0045   8.398300   13.34420   11.09100   10.99220   33.79000   0.033300   2.279736   92.44720   5.058000   4.076300   8.735900   0.020138   1.777905   7.167387   78.14359   63.51693 
  7331.500   71.95230   -39.0484   8.398200   13.06260   10.87630   11.04610   36.44000   0.031000   2.279478   94.05130   5.028200   4.049700   9.011700   0.020528   1.870640   7.268221   79.49957   64.04335 
  7332.000   72.62910   -39.0924   8.399600   12.82240   10.66560   11.05590   35.38000   0.020700   2.314604   95.65500   4.904000   4.023200   8.891600   0.020897   1.940233   7.359119   80.52699   64.46509 
  7332.500   73.11020   -39.2573   8.414900   12.52460   10.46250   11.04700   34.89000   0.010400   2.356666   96.05130   4.512300   3.764500   8.510100   0.021382   1.850071   7.409305   80.46100   64.59544 
  7333.000   73.59140   -39.4223   8.430100   11.73290   10.52440   11.03810   34.89000   0.000100   2.379383   96.09640   4.119400   3.408800   8.011400   0.021698   1.816515   7.145965   80.28928   64.68091 
  7333.500   75.36890   -39.6327   8.445400   10.86060   10.58670   11.02920   34.89000   0.000000   2.395431   96.13880   4.065400   3.053200   7.286400   0.021903   1.800132   7.174074   80.17014   64.81110 
  7334.000   77.10030   -39.8434   8.461800   10.67460   10.64930   11.02030   34.55000   0.009100   2.409683   96.16580   4.331000   2.389600   6.859500   0.022108   1.806421   7.194852   80.14575   64.79930 
  7334.500   78.00230   -40.5544   8.483300   11.02180   10.71240   11.01140   33.94000   0.018300   2.422037   95.93840   4.596700   1.830700   7.572600   0.022188   1.818557   6.996331   79.99126   64.77487 
  7335.000   76.20150   -41.4444   8.504800   11.64220   10.77580   10.93820   32.91000   0.027500   2.424058   94.30430   4.673000   2.920200   8.359800   0.022228   1.830675   6.829761   80.06851   64.74774 
