~VERSION INFORMATION
VERS.                               2.00: CWLS LOG ASCII STANDARD VERSION 2.00
WRAP.                               NO  : ONE LINE PER DEPTH STEP               
~WELL INFORMATION
#MNEM.UNIT                     DATA TYPE  INFORMATION
#----------------------------------------------------------------------
STRT.F                            920.00: START DEPTH
STOP.F                           9532.00: STOP DEPTH
STEP.F                              0.50: STEP VALUE
NULL.                            -999.00: NULL VALUE
COMP.                                   : COMPANY                               
WELL.                       SRS TERN A-1: WELL                                  
FLD .            Granite Pt/Beluga River: FIELD                                 
LOC .      10N  10W   19 0585FNL 0636FWL: LOCATION                              
CNTY.                 GREATER_COOK_INLET: COUNTY                                
STAT.                             Alaska: STATE                                 
CTRY.                                 US: COUNTRY                               
SRVC.                                   : SERVICE COMPANY                       
DATE.                                   : LOG DATE                              
API .                   50733203530000  : UNIQUE WELL IDENTIFIER                
~PARAMETER INFORMATION                                                          
#MNEM.UNIT        VALUE   DESCRIPTION                                           
#---------      --------  -----------                                           
ELEV    .F          171.5: KB ELEVATION                                         
TDD     .F         9519.0: TOTAL DEPTH DRILLED                                  
~OTHER INFORMATION                                                              
FLS0    .          CIRCULATED                                                   
LGD0    .          7/13/82                                                      
MT0     .          DIS GEL H2O                                                  
FLS0    .          CIRCULATED                                                   
LGD0    .          7/24/82                                                      
FLS0    .          FLOWLINE                                                     
LGD0    .          8/2/82                                                       
MT0     .          LOW SOLIDS NONDISPERSED                                      
~CURVE INFORMATION                                                              
#MNEM.UNIT                 DESCRIPTION                                          
#---------                 -----------                                          
DEPTH   .F               :  1 DEPTH
GR      .GAPI          00:  2 GAMMA RAY                                       
SP      .MV            00:  3 SELF POTENTIAL                                  
CALI    .IN            00:  4 CALIPER                                         
SFL     .OHMM          00:  5 SPHER. OR SHAL. FOC. LOG                        
ILD     .OHMM          00:  6 INDUCTION LOG DEEP                              
ILM     .OHMM          00:  7 INDUCTION LOG MEDIUM                            
CNS     .%             00:  8 COMPENSATED NEUT (-S)                           
DRHO    .G/C3          00:  9 DENSITY CORRECTN                                
RHOB    .G/C3          00: 10 BULK DENSITY                                    
DT      .US/F          00: 11 INTERV TRANSIT TIME                             
MNOR    .OHMM          00: 12 NORMAL MICROLOG                                 
MINV    .OHMM          00: 13 INV MICROLOG                                    
PROX    .OHMM          00: 14 PROXIMITY LOG                                   
POTA    .PPM           00: 15 POTASSIUM                                       
URAN    .PPM           00: 16 URANIUM                                         
THOR    .PPM           00: 17 THORIUM                                         
SGR     .GAPI          00: 18 GAMMA RAY                                       
CGR     .GAPI          00: 19 GAMMA RAY                                       
~A  DEPTH    GR         SP         CALI       SFL        ILD        ILM        CNS        DRHO       RHOB       DT         MNOR       MINV       PROX       POTA       URAN       THOR       SGR        CGR                                                   
# ...
  5522.000   57.31940   -43.1187   9.525900   5.410600   5.964000   6.119500   41.11000   0.080200   1.915981   118.2588   -999.000   -999.000   5.879200   0.013606   1.806510   5.908829   61.30856   46.56944 
  5522.500   51.81200   -41.8991   9.519500   6.261900   6.566300   6.921300   41.06000   0.097700   1.694412   122.5616   -999.000   -999.000   14.10980   0.011814   1.885241   5.382466   56.22810   42.99113 
  5523.000   44.44110   -40.9708   9.500000   8.746600   7.229400   7.828300   42.13000   0.089900   1.612672   123.8989   -999.000   -999.000   33.99220   0.007802   2.393107   4.460403   51.10266   36.10338 
  5523.500   42.37370   -39.0340   9.476900   15.26080   7.498200   8.634800   47.61000   0.063400   1.632267   123.8072   -999.000   -999.000   38.80640   0.005651   2.767834   3.665783   46.10883   24.78255 
  5524.000   44.14720   -38.0110   9.453800   14.85360   7.407500   8.004100   55.14000   0.009100   1.661783   122.4197   -999.000   -999.000   12.35270   0.006290   2.879017   3.239570   45.26579   19.56232 
  5524.500   45.92070   -37.7666   9.430700   11.24190   7.307200   7.419500   58.44000   -.005800   1.820960   118.5960   -999.000   -999.000   5.366400   0.008932   2.490382   3.537558   44.93130   24.56795 
  5525.000   49.42930   -38.0084   9.407600   7.770600   7.155100   6.877500   58.25000   -.015400   2.048452   115.3942   -999.000   -999.000   3.993300   0.013272   2.028995   3.899809   54.92616   34.72619 
  5525.500   54.41590   -38.8530   9.384500   6.910700   7.006100   6.375200   57.33000   -.022200   2.158437   114.9023   -999.000   -999.000   4.358200   0.016411   1.912817   4.149015   62.23701   41.65393 
  5526.000   59.40240   -40.2274   9.361400   6.740400   6.860200   5.954500   49.86000   -.010400   2.235131   113.4680   -999.000   -999.000   4.226300   0.018199   1.837114   3.998379   63.64580   46.24039 
  5526.500   58.18830   -42.2139   9.338300   6.731700   6.726400   6.209000   42.48000   0.019600   2.274323   109.8539   -999.000   -999.000   3.784100   0.018234   1.768975   3.831568   62.51581   47.69487 
  5527.000   56.65240   -44.4965   9.315200   6.731000   6.816000   6.474300   36.74000   0.044000   2.298236   108.0366   -999.000   -999.000   4.014200   0.017776   1.657698   3.538495   60.29372   46.48724 
  5527.500   54.83580   -45.9909   9.292000   6.730300   6.906800   6.751000   36.40000   0.056000   2.301604   106.2871   -999.000   -999.000   7.007500   0.017166   1.511241   3.264861   57.27097   44.71272 
  5528.000   51.96780   -47.0082   9.244100   13.76910   6.955500   7.039500   35.49000   0.042900   2.299967   106.6820   -999.000   -999.000   8.507200   0.016759   1.290661   3.144839   54.42718   43.13221 
  5528.500   50.42040   -47.3036   9.113000   18.88520   6.998600   7.340300   33.14000   0.029100   2.294678   108.7333   -999.000   -999.000   9.629000   0.016347   1.135464   3.106978   52.56667   41.91734 
  5529.000   49.42610   -46.2735   8.847900   20.55200   7.042000   7.315100   28.88000   0.010900   2.296924   111.0637   -999.000   -999.000   10.13430   0.015918   1.307098   3.344724   51.57463   41.38448 
  5529.500   49.03550   -44.2725   8.616200   17.26100   7.085600   7.012000   27.46000   0.002200   2.306228   111.3837   -999.000   -999.000   10.44170   0.015484   1.457693   3.833430   51.41636   41.35583 
  5530.000   50.97990   -41.3471   8.648000   12.21960   6.971900   6.721500   26.51000   0.010000   2.317095   110.6659   -999.000   -999.000   9.428700   0.015100   1.626861   4.370729   54.82587   42.75373 
  5530.500   53.82050   -38.6106   8.766500   8.650600   6.499600   6.443000   26.21000   0.020900   2.300111   109.8169   -999.000   -999.000   7.700500   0.014758   1.783977   4.891588   57.89442   43.98142 
  5531.000   56.05780   -37.6085   8.903000   6.668300   6.059400   6.176100   27.88000   0.037100   2.258393   111.4186   -999.000   -999.000   6.003500   0.014540   1.918483   5.201194   60.35748   44.99449 
  5531.500   56.98760   -36.8717   9.091300   6.148000   5.648900   5.920200   30.99000   0.066000   2.202169   113.6982   -999.000   -999.000   4.896400   0.014542   2.038772   5.330052   61.81164   45.81919 
  5532.000   57.65710   -36.2119   9.147300   5.775700   5.553300   5.674900   34.71000   0.085700   2.103324   115.9583   -999.000   -999.000   4.524100   0.014543   2.113708   5.448465   63.09238   46.30360 
  5532.500   58.05950   -35.5522   9.170000   5.719100   5.587700   5.476300   37.37000   0.079300   2.004479   119.1191   -999.000   -999.000   4.285800   0.014775   2.103419   5.517150   63.94441   46.77737 
  5533.000   58.45440   -35.0779   9.146200   5.663100   5.622300   5.496400   40.56000   0.067400   1.920815   120.4499   -999.000   -999.000   4.834700   0.015092   2.090202   5.357623   64.19669   47.04881 
  5533.500   58.84930   -34.6804   9.092100   5.607600   5.657200   5.516500   43.76000   0.036200   1.966264   120.4055   -999.000   -999.000   5.838400   0.015314   2.064941   5.089272   62.18148   46.27301 
  5534.000   58.50270   -34.5316   9.040700   5.531200   5.684600   5.536800   46.95000   0.016000   2.070333   118.2311   -999.000   -999.000   7.050600   0.015247   2.013462   4.867723   61.14740   46.02130 
  5534.500   57.82800   -34.4169   9.057100   5.444400   5.650100   5.557100   47.02000   0.004300   2.182068   114.5049   -999.000   -999.000   4.390800   0.015183   1.980158   4.822591   60.64404   45.92707 
  5535.000   59.29260   -34.4192   9.180700   5.340100   5.615800   5.577500   43.44000   0.009900   2.295518   109.7888   -999.000   -999.000   4.356500   0.015167   1.980414   4.962939   61.02058   45.87940 
  5535.500   59.70600   -34.4394   9.427100   5.211500   5.581700   5.597900   39.85000   0.027700   2.301619   105.9927   -999.000   -999.000   4.322500   0.015178   1.982895   5.176160   61.27038   46.19942 
  5536.000   60.67410   -34.4846   9.657300   5.086000   5.547800   5.614800   36.88000   0.058900   2.299865   105.6300   -999.000   -999.000   4.283300   0.015130   1.989019   5.169369   61.50907   46.40530 
  5536.500   61.66140   -34.5326   9.772100   4.963500   5.514100   5.536400   36.86000   0.074800   2.284734   106.5264   -999.000   -999.000   4.265700   0.014941   2.004698   5.130407   61.85603   46.58668 
  5537.000   62.12680   -34.5990   9.847300   4.822800   5.480700   5.459200   36.45000   0.072700   2.266529   107.6990   -999.000   -999.000   4.233200   0.014650   2.042124   5.179374   62.38463   46.79847 
  5537.500   61.43050   -34.6655   9.826900   4.658800   5.447400   5.383000   36.73000   0.070800   2.250354   108.8717   -999.000   -999.000   4.099800   0.014744   2.089542   5.466934   63.16118   46.72786 
  5538.000   59.80640   -34.6390   9.806500   4.500300   5.130600   5.307900   37.02000   0.069200   2.243621   110.1452   -999.000   -999.000   3.952900   0.015208   2.148935   5.440277   64.67542   46.61800 
  5538.500   57.63420   -34.5710   9.764000   4.337500   4.801700   5.233900   37.31000   0.058900   2.257577   110.1227   -999.000   -999.000   3.540100   0.014954   2.082170   5.318269   63.82629   46.53410 
  5539.000   55.54530   -34.4796   9.708900   4.164600   4.660300   5.160900   37.45000   0.062400   2.287046   109.1866   -999.000   -999.000   3.453200   0.014224   1.911485   5.040864   62.52962   46.49517 
  5539.500   55.24460   -34.4104   9.675100   3.998600   4.785900   5.088900   37.56000   0.072500   2.298579   107.9890   -999.000   -999.000   3.779800   0.014359   1.925255   5.095856   61.41798   46.46873 
  5540.000   55.87560   -34.4020   9.728500   4.410700   4.915000   5.053700   37.67000   0.082700   2.299251   106.7914   -999.000   -999.000   4.137200   0.014594   1.960759   5.241688   61.68823   46.51286 
  5540.500   56.50650   -34.3936   9.778000   4.685400   5.047500   5.081000   37.77000   0.093000   2.292161   106.5667   -999.000   -999.000   4.528400   0.014704   1.996410   5.556471   62.10199   46.57776 
  5541.000   57.01470   -34.3842   9.978100   4.757700   5.183600   5.108400   37.07000   0.104600   2.281772   107.6999   -999.000   -999.000   4.806700   0.013964   2.023721   5.888557   62.37885   46.64240 
