~VERSION INFORMATION
VERS.                               2.00: CWLS LOG ASCII STANDARD VERSION 2.00
WRAP.                               NO  : ONE LINE PER DEPTH STEP               
~WELL INFORMATION
#MNEM.UNIT                     DATA TYPE  INFORMATION
#----------------------------------------------------------------------
STRT.F                            920.00: START DEPTH
STOP.F                           9532.00: STOP DEPTH
STEP.F                              0.50: STEP VALUE
NULL.                            -999.00: NULL VALUE
COMP.                                   : COMPANY                               
WELL.                       SRS TERN A-1: WELL                                  
FLD .            Granite Pt/Beluga River: FIELD                                 
LOC .      10N  10W   19 0585FNL 0636FWL: LOCATION                              
CNTY.                 GREATER_COOK_INLET: COUNTY                                
STAT.                             Alaska: STATE                                 
CTRY.                                 US: COUNTRY                               
SRVC.                                   : SERVICE COMPANY                       
DATE.                                   : LOG DATE                              
API .                   50733203530000  : UNIQUE WELL IDENTIFIER                
~PARAMETER INFORMATION                                                          
#MNEM.UNIT        VALUE   DESCRIPTION                                           
#---------      --------  -----------                                           
ELEV    .F          171.5: KB ELEVATION                                         
TDD     .F         9519.0: TOTAL DEPTH DRILLED                                  
~OTHER INFORMATION                                                              
FLS0    .          CIRCULATED                                                   
LGD0    .          7/13/82                                                      
MT0     .          DIS GEL H2O                                                  
FLS0    .          CIRCULATED                                                   
LGD0    .          7/24/82                                                      
FLS0    .          FLOWLINE                                                     
LGD0    .          8/2/82                                                       
MT0     .          LOW SOLIDS NONDISPERSED                                      
~CURVE INFORMATION                                                              
#MNEM.UNIT                 DESCRIPTION                                          
#---------                 -----------                                          
DEPTH   .F               :  1 DEPTH
GR      .GAPI          00:  2 GAMMA RAY                                       
SP      .MV            00:  3 SELF POTENTIAL                                  
CALI    .IN            00:  4 CALIPER                                         
SFL     .OHMM          00:  5 SPHER. OR SHAL. FOC. LOG                        
ILD     .OHMM          00:  6 INDUCTION LOG DEEP                              
ILM     .OHMM          00:  7 INDUCTION LOG MEDIUM                            
CNS     .%             00:  8 COMPENSATED NEUT (-S)                           
DRHO    .G/C3          00:  9 DENSITY CORRECTN                                
RHOB    .G/C3          00: 10 BULK DENSITY                                    
DT      .US/F          00: 11 INTERV TRANSIT TIME                             
MNOR    .OHMM          00: 12 NORMAL MICROLOG                                 
MINV    .OHMM          00: 13 INV MICROLOG                                    
PROX    .OHMM          00: 14 PROXIMITY LOG                                   
POTA    .PPM           00: 15 POTASSIUM                                       
URAN    .PPM           00: 16 URANIUM                                         
THOR    .PPM           00: 17 THORIUM                                         
SGR     .GAPI          00: 18 GAMMA RAY                                       
CGR     .GAPI          00: 19 GAMMA RAY                                       
~A  DEPTH    GR         SP         CALI       SFL        ILD        ILM        CNS        DRHO       RHOB       DT         MNOR       MINV       PROX       POTA       URAN       THOR       SGR        CGR                                                   
# ...
  4430.000   56.25790   -72.7725   8.667300   15.93160   18.43900   16.07330   32.22000   0.015600   2.158028   120.7426   4.988000   3.911500   13.61400   0.018766   1.379854   4.224573   60.74667   48.08010 
  4430.500   56.01550   -73.2535   8.661400   16.05250   18.46120   16.03540   32.13000   0.012500   2.160196   120.3349   4.969700   4.095100   13.42410   0.019819   1.388694   4.019654   61.28266   48.63516 
  4431.000   55.40380   -73.7809   8.653600   16.17420   18.48330   16.00820   31.56000   0.009200   2.161579   119.8852   5.010600   4.278000   13.30440   0.020223   1.409126   3.979695   61.78877   49.11951 
  4431.500   55.06410   -74.3389   8.645900   16.27850   18.50550   16.00540   30.99000   0.006400   2.162027   119.5587   5.119300   4.358900   13.42980   0.019941   1.439142   4.047606   62.19859   49.20380 
  4432.000   54.98000   -74.8210   8.645000   16.37830   18.52770   16.00260   30.87000   0.003800   2.162205   119.2731   5.227900   4.439900   13.63970   0.019524   1.466748   4.213321   62.41256   49.29874 
  4432.500   54.95400   -74.9390   8.644400   16.30790   18.54990   15.99980   30.80000   0.001200   2.160600   119.3550   5.336600   4.228700   13.71400   0.019370   1.499788   4.273850   62.22082   49.07504 
  4433.000   54.89550   -74.9391   8.643800   16.19920   18.59070   15.99700   30.75000   -.001300   2.158535   119.5979   5.096500   3.811800   13.63740   0.019287   1.552332   4.332103   61.78599   48.82190 
  4433.500   55.97210   -75.0441   8.643200   16.15660   18.67500   15.99410   31.07000   -.001900   2.159644   119.7786   4.792400   3.395000   13.60150   0.018753   1.558486   4.421672   61.22173   48.57597 
  4434.000   57.27150   -75.2151   8.642100   16.14930   18.75970   15.99130   31.57000   -.001700   2.168334   119.9468   4.488200   3.574700   13.58680   0.018047   1.469576   4.527435   60.80261   48.25884 
  4434.500   57.37310   -76.0363   8.641000   16.14200   18.84470   15.98850   32.13000   -.001600   2.174406   119.6200   4.877700   4.076500   13.60410   0.018164   1.426553   4.598725   60.64977   48.41450 
  4435.000   56.60990   -76.6837   8.639900   16.15540   18.93020   16.07090   32.25000   -.000900   2.171542   119.2683   5.173700   4.316500   13.73990   0.018377   1.415659   4.772901   61.14922   48.96168 
  4435.500   55.35120   -77.5565   8.633700   16.24210   18.99110   16.16800   31.93000   0.000800   2.169000   118.9166   5.220600   3.964600   13.96290   0.018745   1.545094   4.993973   62.03889   49.87979 
  4436.000   53.38940   -78.4837   8.623200   16.47310   19.00560   16.26580   31.30000   0.002500   2.171219   118.6462   5.267400   3.743500   14.37670   0.019084   1.527277   5.120090   63.07467   50.79790 
  4436.500   52.01720   -79.1315   8.612700   16.64230   19.17870   16.36410   31.13000   0.004200   2.174918   118.8841   5.356800   3.989500   14.90480   0.018879   1.483517   5.233746   63.67496   51.39014 
  4437.000   52.97000   -79.3836   8.602200   16.78100   19.29970   16.46300   31.05000   0.006800   2.175604   119.1220   5.470100   4.235500   14.46070   0.018657   1.430658   5.340961   62.79097   51.09032 
  4437.500   54.77470   -79.6358   8.590400   16.86230   19.23680   16.56250   31.33000   0.009700   2.172824   119.8199   5.502000   4.461600   14.04040   0.018617   1.341697   5.146869   62.01846   50.88123 
  4438.000   56.18960   -79.8880   8.555100   16.85060   19.17400   16.66270   31.56000   0.012200   2.168723   120.2230   5.497300   4.117800   14.02690   0.018873   1.318425   4.917024   61.58894   50.68072 
  4438.500   56.67330   -80.1401   8.519800   16.83900   19.11150   16.76340   31.62000   0.009400   2.168662   120.3779   5.537800   2.795100   14.04550   0.019081   1.269251   4.751987   61.16001   50.52467 
  4439.000   56.76860   -80.3923   8.484600   16.76700   19.04920   16.83030   31.57000   0.006600   2.170525   120.4186   5.601600   0.430800   13.88870   0.019288   1.206357   4.666499   60.83962   50.40073 
  4439.500   56.87170   -80.6278   8.448100   16.65610   18.98710   16.77680   31.49000   0.003700   2.169222   120.4364   5.582900   -4.51070   13.84670   0.019434   1.182060   4.562435   60.56290   50.31097 
  4440.000   56.98130   -80.8616   8.397400   16.53060   18.92510   16.72350   31.04000   0.004200   2.164300   120.4488   5.455600   -4.60370   13.53010   0.019577   1.154474   4.586333   61.18784   50.63000 
  4440.500   57.09100   -81.0953   8.371500   16.42240   18.86340   16.67030   31.52000   0.003700   2.161282   120.4246   5.328300   -4.44310   13.18970   0.019720   1.253862   4.847534   63.00616   51.17239 
  4441.000   57.17860   -81.6553   8.350700   16.44610   18.84810   16.61730   32.31000   0.002900   2.161372   120.4004   5.201000   -4.42820   12.85780   0.019720   1.366498   5.118612   64.02333   51.97379 
  4441.500   57.15160   -82.1771   8.329900   16.57280   19.21600   16.56450   33.14000   0.002100   2.165910   120.3528   5.073700   -4.48120   13.02730   0.019507   1.440210   5.175785   64.30348   51.82490 
  4442.000   57.16920   -82.6847   8.325400   16.86220   19.40920   16.60220   33.91000   0.002800   2.180070   120.1855   5.161700   -4.53430   14.07200   0.018734   1.315958   5.042690   61.24438   51.43291 
  4442.500   57.20960   -83.0516   8.323500   17.30460   19.59530   16.86800   33.52000   0.005700   2.199881   119.5977   5.239100   -4.55550   14.89360   0.018232   1.195627   5.019547   59.68433   50.87756 
  4443.000   57.45570   -83.3115   8.318400   17.62250   19.78140   17.13810   32.82000   0.008500   2.212266   119.2249   5.303200   -4.54650   15.42630   0.018380   1.207931   4.985982   58.63962   50.45557 
  4443.500   57.70170   -83.2541   8.331000   17.84750   19.96940   17.41260   31.42000   0.013800   2.214141   119.0445   5.356800   -4.47380   15.43150   0.018514   1.194005   4.806682   57.96526   49.96755 
  4444.000   56.67370   -83.1115   8.347000   17.99320   20.15910   17.69140   30.24000   0.016500   2.213871   118.9631   5.427500   -1.70990   15.48410   0.018281   1.130129   4.592532   56.94090   49.29934 
  4444.500   55.43550   -82.8947   8.349500   18.20220   20.35060   17.97470   29.03000   0.017800   2.211288   118.9178   5.654800   1.053900   15.54210   0.017707   1.064953   4.407911   55.58513   48.22115 
  4445.000   53.44400   -82.6779   8.350400   18.44350   20.54390   18.26250   29.28000   0.009300   2.207623   118.8281   5.916000   3.817800   15.58580   0.017185   1.031793   4.389863   54.59703   47.23009 
  4445.500   51.78260   -82.8006   8.349200   18.64540   20.55950   18.51130   29.48000   0.003100   2.203202   118.5489   6.139000   4.589400   15.70490   0.016747   1.022493   4.493841   54.40492   46.61619 
  4446.000   51.15360   -83.0201   8.372600   18.81120   20.39040   18.09040   29.29000   0.005900   2.203647   117.1083   5.837600   5.185000   17.04950   0.016851   0.975519   4.599459   54.50337   46.16708 
  4446.500   51.87590   -83.2753   8.409400   19.26530   20.18650   17.67900   29.10000   0.008600   2.209929   115.3989   5.270900   5.780600   15.95360   0.017083   0.985893   4.628928   54.88002   47.23387 
  4447.000   52.59810   -83.3921   8.438300   19.67390   19.26730   17.27700   28.90000   0.011200   2.212357   115.6190   5.888500   3.683000   15.02220   0.017330   1.018584   4.740962   56.57195   48.00563 
  4447.500   54.05840   -83.3085   8.420200   18.11210   18.39000   16.88420   28.54000   0.009500   2.208992   115.8391   6.426200   4.129800   14.49080   0.017727   1.129328   4.931046   59.25865   48.77739 
  4448.000   56.49350   -83.3610   8.402100   16.49290   17.87080   16.50020   28.69000   0.007300   2.201069   116.9442   5.940800   4.755300   13.19840   0.018263   1.365620   4.872516   62.39728   49.68061 
  4448.500   58.31680   -83.5568   8.386800   15.54510   17.72920   16.12500   31.56000   0.005900   2.192773   118.5114   5.455400   5.380900   12.82710   0.018885   1.497652   4.788166   63.84377   50.59567 
  4449.000   60.33190   -83.8245   8.375100   15.15070   17.58860   15.75840   31.75000   0.004800   2.185099   119.6057   5.744400   5.436400   12.94890   0.019651   1.550040   4.732996   64.54251   51.28603 
