~VERSION INFORMATION
VERS.                               2.00: CWLS LOG ASCII STANDARD VERSION 2.00
WRAP.                               NO  : ONE LINE PER DEPTH STEP               
~WELL INFORMATION
#MNEM.UNIT                     DATA TYPE  INFORMATION
#----------------------------------------------------------------------
STRT.F                            920.00: START DEPTH
STOP.F                           9532.00: STOP DEPTH
STEP.F                              0.50: STEP VALUE
NULL.                            -999.00: NULL VALUE
COMP.                                   : COMPANY                               
WELL.                       SRS TERN A-1: WELL                                  
FLD .            Granite Pt/Beluga River: FIELD                                 
LOC .      10N  10W   19 0585FNL 0636FWL: LOCATION                              
CNTY.                 GREATER_COOK_INLET: COUNTY                                
STAT.                             Alaska: STATE                                 
CTRY.                                 US: COUNTRY                               
SRVC.                                   : SERVICE COMPANY                       
DATE.                                   : LOG DATE                              
API .                   50733203530000  : UNIQUE WELL IDENTIFIER                
~PARAMETER INFORMATION                                                          
#MNEM.UNIT        VALUE   DESCRIPTION                                           
#---------      --------  -----------                                           
ELEV    .F          171.5: KB ELEVATION                                         
TDD     .F         9519.0: TOTAL DEPTH DRILLED                                  
~OTHER INFORMATION                                                              
FLS0    .          CIRCULATED                                                   
LGD0    .          7/13/82                                                      
MT0     .          DIS GEL H2O                                                  
FLS0    .          CIRCULATED                                                   
LGD0    .          7/24/82                                                      
FLS0    .          FLOWLINE                                                     
LGD0    .          8/2/82                                                       
MT0     .          LOW SOLIDS NONDISPERSED                                      
~CURVE INFORMATION                                                              
#MNEM.UNIT                 DESCRIPTION                                          
#---------                 -----------                                          
DEPTH   .F               :  1 DEPTH
GR      .GAPI          00:  2 GAMMA RAY                                       
SP      .MV            00:  3 SELF POTENTIAL                                  
CALI    .IN            00:  4 CALIPER                                         
SFL     .OHMM          00:  5 SPHER. OR SHAL. FOC. LOG                        
ILD     .OHMM          00:  6 INDUCTION LOG DEEP                              
ILM     .OHMM          00:  7 INDUCTION LOG MEDIUM                            
CNS     .%             00:  8 COMPENSATED NEUT (-S)                           
DRHO    .G/C3          00:  9 DENSITY CORRECTN                                
RHOB    .G/C3          00: 10 BULK DENSITY                                    
DT      .US/F          00: 11 INTERV TRANSIT TIME                             
MNOR    .OHMM          00: 12 NORMAL MICROLOG                                 
MINV    .OHMM          00: 13 INV MICROLOG                                    
PROX    .OHMM          00: 14 PROXIMITY LOG                                   
POTA    .PPM           00: 15 POTASSIUM                                       
URAN    .PPM           00: 16 URANIUM                                         
THOR    .PPM           00: 17 THORIUM                                         
SGR     .GAPI          00: 18 GAMMA RAY                                       
CGR     .GAPI          00: 19 GAMMA RAY                                       
~A  DEPTH    GR         SP         CALI       SFL        ILD        ILM        CNS        DRHO       RHOB       DT         MNOR       MINV       PROX       POTA       URAN       THOR       SGR        CGR                                                   
# ...
  9110.000   80.89260   -1.97130   9.997900   9.440900   7.416700   7.062900   28.51000   0.103800   2.486400   78.99640   -999.000   -999.000   -999.000   -999.000   -999.000   -999.000   -999.000   -999.000 
  9110.500   82.13890   -2.41150   9.734000   8.200700   7.358000   6.905500   27.60000   0.119100   2.509200   80.99740   -999.000   -999.000   -999.000   -999.000   -999.000   -999.000   -999.000   -999.000 
  9111.000   82.64070   -2.88280   9.495600   7.258400   7.246300   6.751700   26.69000   0.134300   2.532100   83.48230   -999.000   -999.000   -999.000   -999.000   -999.000   -999.000   -999.000   -999.000 
  9111.500   83.14250   -3.35420   9.401400   7.024900   7.136400   6.601200   25.78000   0.150700   2.516800   86.18200   -999.000   -999.000   -999.000   -999.000   -999.000   -999.000   -999.000   -999.000 
  9112.000   83.64420   -3.81390   9.479100   7.021100   7.028100   6.454100   28.15000   0.170600   2.503700   89.79280   -999.000   -999.000   -999.000   -999.000   -999.000   -999.000   -999.000   -999.000 
  9112.500   82.76420   -4.59500   9.521100   7.031900   6.957900   6.460000   30.99000   0.191300   2.483000   94.25250   -999.000   -999.000   -999.000   -999.000   -999.000   -999.000   -999.000   -999.000 
  9113.000   81.75940   -6.24250   9.471000   7.459500   7.020500   6.476800   33.83000   0.188300   2.450300   97.67480   -999.000   -999.000   -999.000   -999.000   -999.000   -999.000   -999.000   -999.000 
  9113.500   81.08290   -8.36080   9.330200   9.030400   7.083600   6.493500   36.67000   0.184000   2.386200   101.3780   -999.000   -999.000   -999.000   -999.000   -999.000   -999.000   -999.000   -999.000 
  9114.000   80.86370   -10.1669   9.285800   10.93210   7.147300   6.787700   39.51000   0.164300   2.307600   102.4869   -999.000   -999.000   -999.000   -999.000   -999.000   -999.000   -999.000   -999.000 
  9114.500   80.77880   -13.7566   9.232300   12.07240   7.423000   7.417200   42.35000   0.135400   2.202400   105.2918   -999.000   -999.000   -999.000   -999.000   -999.000   -999.000   -999.000   -999.000 
  9115.000   80.69390   -15.4305   9.193300   13.25360   8.398600   8.398400   45.19000   0.091800   2.109300   101.7402   -999.000   -999.000   -999.000   -999.000   -999.000   -999.000   -999.000   -999.000 
  9115.500   80.60900   -17.2571   9.154400   14.08910   9.085400   9.753200   46.15000   0.067700   2.061000   95.59660   -999.000   -999.000   -999.000   -999.000   -999.000   -999.000   -999.000   -999.000 
  9116.000   80.29950   -18.7086   9.112100   14.39230   10.19810   11.41710   43.75000   0.079900   2.109200   91.08600   -999.000   -999.000   -999.000   -999.000   -999.000   -999.000   -999.000   -999.000 
  9116.500   76.99040   -19.7674   9.243200   14.48740   13.48300   13.36480   41.35000   0.092200   2.160800   86.57540   -999.000   -999.000   -999.000   -999.000   -999.000   -999.000   -999.000   -999.000 
  9117.000   67.14120   -20.3642   9.542100   22.69730   17.48740   15.64490   38.95000   0.104400   2.222000   91.62440   -999.000   -999.000   -999.000   -999.000   -999.000   -999.000   -999.000   -999.000 
  9117.500   47.91150   -20.9412   10.83590   112.8940   23.32650   18.31390   29.21000   0.111900   1.959200   100.5711   -999.000   -999.000   -999.000   -999.000   -999.000   -999.000   -999.000   -999.000 
  9118.000   40.29690   -21.3083   13.06700   207.7224   25.29760   21.43820   33.92000   0.077000   1.665100   111.7055   -999.000   -999.000   -999.000   -999.000   -999.000   -999.000   -999.000   -999.000 
  9118.500   33.32900   -21.4068   14.04110   317.0895   27.04960   25.09560   38.63000   0.042000   1.510500   118.1797   -999.000   -999.000   -999.000   -999.000   -999.000   -999.000   -999.000   -999.000 
  9119.000   31.73440   -20.7160   14.92070   261.4272   28.92290   26.57410   43.34000   0.007100   1.432800   123.0539   -999.000   -999.000   -999.000   -999.000   -999.000   -999.000   -999.000   -999.000 
  9119.500   30.13980   -20.0252   14.93660   191.3080   29.44440   25.12400   48.05000   -.010500   1.421600   123.6197   -999.000   -999.000   -999.000   -999.000   -999.000   -999.000   -999.000   -999.000 
  9120.000   28.54520   -19.3344   14.65530   139.9959   27.00980   22.41540   52.76000   -.009400   1.414200   123.8011   -999.000   -999.000   -999.000   -999.000   -999.000   -999.000   -999.000   -999.000 
  9120.500   26.95060   -18.4954   14.37390   102.4467   24.77660   19.99880   57.47000   -.008400   1.424300   123.7925   -999.000   -999.000   -999.000   -999.000   -999.000   -999.000   -999.000   -999.000 
  9121.000   25.35600   -17.5860   14.42860   70.38550   22.72790   17.84270   57.53000   -.007300   1.434400   123.8859   -999.000   -999.000   -999.000   -999.000   -999.000   -999.000   -999.000   -999.000 
  9121.500   29.10800   -16.6176   14.52980   52.15960   21.34480   16.40670   56.89000   -.006400   1.439500   124.3553   -999.000   -999.000   -999.000   -999.000   -999.000   -999.000   -999.000   -999.000 
  9122.000   33.63750   -15.8111   14.85980   47.08330   20.85380   16.10260   56.25000   -.005900   1.441900   124.7445   -999.000   -999.000   -999.000   -999.000   -999.000   -999.000   -999.000   -999.000 
  9122.500   38.16700   -15.2519   14.55540   42.22440   20.37410   15.96550   55.61000   -.004700   1.447100   125.2653   -999.000   -999.000   -999.000   -999.000   -999.000   -999.000   -999.000   -999.000 
  9123.000   42.69650   -14.8139   13.12330   44.26650   20.85890   19.14270   54.98000   -.003600   1.466700   128.0730   -999.000   -999.000   -999.000   -999.000   -999.000   -999.000   -999.000   -999.000 
  9123.500   38.40570   -14.4794   11.98270   52.27180   23.04280   22.95220   54.34000   -.002400   1.483300   128.9902   -999.000   -999.000   -999.000   -999.000   -999.000   -999.000   -999.000   -999.000 
  9124.000   30.66150   -14.3139   10.94300   88.32130   26.21550   27.51980   53.70000   -.001800   1.514300   129.1600   -999.000   -999.000   -999.000   -999.000   -999.000   -999.000   -999.000   -999.000 
  9124.500   23.48060   -14.1134   11.35530   496.0058   32.31300   32.31300   53.60000   -.004700   1.488900   128.5020   -999.000   -999.000   -999.000   -999.000   -999.000   -999.000   -999.000   -999.000 
  9125.000   19.41390   -14.1014   12.43380   1556.731   41.87700   41.87700   54.17000   -.007500   1.474600   126.1816   -999.000   -999.000   -999.000   -999.000   -999.000   -999.000   -999.000   -999.000 
  9125.500   19.75420   -14.1822   14.38280   1686.448   52.20420   52.20420   54.75000   -.010400   1.414100   123.8543   -999.000   -999.000   -999.000   -999.000   -999.000   -999.000   -999.000   -999.000 
  9126.000   20.09460   -14.2629   15.27680   1672.775   71.60030   71.60030   55.33000   -.013300   1.383600   123.5121   -999.000   -999.000   -999.000   -999.000   -999.000   -999.000   -999.000   -999.000 
  9126.500   20.43490   -14.3437   16.17090   1525.974   91.90470   91.90470   55.91000   -.016200   1.377400   123.6729   -999.000   -999.000   -999.000   -999.000   -999.000   -999.000   -999.000   -999.000 
  9127.000   20.72580   -14.4245   17.06500   1342.050   113.1259   113.1259   55.18000   -.019100   1.375500   123.9464   -999.000   -999.000   -999.000   -999.000   -999.000   -999.000   -999.000   -999.000 
  9127.500   19.80290   -14.3343   17.36040   1354.356   118.6356   118.6356   53.45000   -.019600   1.373500   124.3594   -999.000   -999.000   -999.000   -999.000   -999.000   -999.000   -999.000   -999.000 
  9128.000   18.87990   -14.1380   17.65590   1589.837   120.1125   120.1124   54.03000   -.018800   1.371500   124.5249   -999.000   -999.000   -999.000   -999.000   -999.000   -999.000   -999.000   -999.000 
  9128.500   17.95700   -13.8591   17.63180   1801.089   119.6364   119.6364   56.25000   -.019000   1.370600   124.6010   -999.000   -999.000   -999.000   -999.000   -999.000   -999.000   -999.000   -999.000 
  9129.000   17.03400   -13.3896   17.33000   1852.485   113.4812   130.2513   57.87000   -.020400   1.370600   124.6714   -999.000   -999.000   -999.000   -999.000   -999.000   -999.000   -999.000   -999.000 
