~VERSION INFORMATION
VERS.                               2.00: CWLS LOG ASCII STANDARD VERSION 2.00
WRAP.                               NO  : ONE LINE PER DEPTH STEP               
~WELL INFORMATION
#MNEM.UNIT                     DATA TYPE  INFORMATION
#----------------------------------------------------------------------
STRT.F                           1691.00: START DEPTH
STOP.F                          10167.00: STOP DEPTH
STEP.F                              0.50: STEP VALUE
NULL.                            -999.00: NULL VALUE
COMP.                                   : COMPANY                               
WELL.                        MGS C-22-23: WELL                                  
FLD .                            Unknown: FIELD                                 
LOC .                                   : LOCATION                              
CNTY.                                   : COUNTY                                
STAT.                                   : STATE                                 
CTRY.                                   : COUNTRY                               
SRVC.                                   : SERVICE COMPANY                       
DATE.                                   : LOG DATE                              
API .                   50733203970000  : UNIQUE WELL IDENTIFIER                
~PARAMETER INFORMATION                                                          
#MNEM.UNIT        VALUE   DESCRIPTION                                           
#---------      --------  -----------                                           
~OTHER INFORMATION                                                              
CSG0    .          9.625" @ 6034                                                
FLS0    .          CIRC                                                         
LGD0    .          6/6/1988                                                     
MT0     .          #2                                                           
~CURVE INFORMATION                                                              
#MNEM.UNIT                 DESCRIPTION                                          
#---------                 -----------                                          
DEPTH   .F               :  1 DEPTH
DRHO    .G/C3          00:  2 DENSITY CORRECTN                                
RHOB    .G/C3          00:  3 BULK DENSITY                                    
CALI    .IN            00:  4 CALIPER                                         
DTL     .MS/F          00:  5 INTERV TRANSIT TIME LONG                        
DT_ORIG .MS/F          00:  6 ORIGINAL SONIC CURVE                            
GR      .GAPI          00:  7 GAMMA RAY                                       
IDPH    .OHMM          00:  8 INDUCTION DB PHASOR                             
ILD     .OHMM          00:  9 INDUCTION LOG DEEP                              
ILM     .OHMM          00: 10 INDUCTION LOG MEDIUM                            
IMPH    .OHMM          00: 11 INDUCTION MEDIUM PHASOR                         
SFL     .OHMM          00: 12 SPHER. OR SHAL. FOC. LOG                        
SP      .MV            00: 13 SELF POTENTIAL                                  
PEF     .B/E           00: 14 FOTO ELECTRO. XSCT                              
DT      .MS/F          00: 15 INTERV TRANSIT TIME                             
~A  DEPTH    DRHO       RHOB       CALI       DTL        DT_ORIG    GR         IDPH       ILD        ILM        IMPH       SFL        SP         PEF        DT                                                                                                
# ...
  4508.500   -999.000   -999.000   -999.000   96.75000   97.31250   86.15693   10.36747   10.17950   9.707005   10.05052   8.960991   -48.4065   -999.000   97.31250 
  4509.000   -999.000   -999.000   -999.000   95.25000   95.75000   87.81300   10.47700   10.25000   9.672000   10.10900   9.039000   -48.5000   -999.000   95.75000 
  4509.500   -999.000   -999.000   -999.000   92.25000   93.18750   88.93848   10.51201   10.27751   9.680002   10.01152   9.578224   -48.8125   -999.000   93.18750 
  4510.000   -999.000   -999.000   -999.000   89.25000   90.62500   90.06300   10.54700   10.30500   9.688000   9.914000   10.11700   -49.1250   -999.000   90.62500 
  4510.500   -999.000   -999.000   -999.000   89.75000   90.06250   90.40652   10.55100   10.34400   9.773499   9.894498   9.902441   -49.4375   -999.000   90.06250 
  4511.000   -999.000   -999.000   -999.000   90.25000   89.50000   90.75000   10.55500   10.38300   9.859000   9.875000   9.688000   -49.7500   -999.000   89.50000 
  4511.500   -999.000   -999.000   -999.000   90.62500   89.75000   88.84399   10.56650   10.41401   9.898489   9.972507   9.906500   -49.7190   -999.000   89.75000 
  4512.000   -999.000   -999.000   -999.000   91.00000   90.00000   86.93800   10.57800   10.44500   9.938000   10.07000   10.12500   -49.6880   -999.000   90.00000 
  4512.500   -999.000   -999.000   -999.000   91.25000   90.81250   87.59399   10.60150   10.46101   9.949504   10.14051   10.47250   -49.9221   -999.000   90.81250 
  4513.000   -999.000   -999.000   -999.000   91.50000   91.62500   88.25000   10.62500   10.47700   9.961000   10.21100   10.82000   -50.1560   -999.000   91.62500 
  4513.500   -999.000   -999.000   -999.000   92.00000   92.12500   90.68750   10.66400   10.48850   9.965000   10.20700    9.99996   -50.7653   -999.000   92.12500 
  4514.000   -999.000   -999.000   -999.000   92.50000   92.62500   93.12500   10.70300   10.50000   9.969000   10.20300   9.180000   -51.3750   -999.000   92.62500 
  4514.500   -999.000   -999.000   -999.000   92.25000   92.12500   89.21854   10.74600   10.53498   9.992500   10.19550   9.445481   -51.6564   -999.000   92.12500 
  4515.000   -999.000   -999.000   -999.000   92.00000   91.62500   85.31300   10.78900   10.57000   10.01600   10.18800   9.711000   -51.9380   -999.000   91.62500 
  4515.500   -999.000   -999.000   -999.000   92.00000   91.62500   83.81348   10.80850   10.59750   10.08200   10.23450   9.605493   -52.2661   -999.000   91.62500 
  4516.000   -999.000   -999.000   -999.000   92.00000   91.62500   82.31300   10.82800   10.62500   10.14800   10.28100   9.500000   -52.5940   -999.000   91.62500 
  4516.500   -999.000   -999.000   -999.000   91.75000   92.18750   86.34295   10.82050   10.62900   10.18750   10.35151   9.726519   -52.4845   -999.000   92.18750 
  4517.000   -999.000   -999.000   -999.000   91.50000   92.75000   90.37500   10.81300   10.63300   10.22700   10.42200   9.953000   -52.3750   -999.000   92.75000 
  4517.500   -999.000   -999.000   -999.000   92.00000   93.31250   88.71908   10.80900   10.64050   10.17999   10.41000   10.08595   -52.5780   -999.000   93.31250 
  4518.000   -999.000   -999.000   -999.000   92.50000   93.87500   87.06300   10.80500   10.64800   10.13300   10.39800   10.21900   -52.7810   -999.000   93.87500 
  4518.500   -999.000   -999.000   -999.000   92.87500   93.56250   91.06250   10.82850   10.67150   10.07800   10.31602   10.04296   -53.2656   -999.000   93.56250 
  4519.000   -999.000   -999.000   -999.000   93.25000   93.25000   95.06300   10.85200   10.69500   10.02300   10.23400   9.867000   -53.7500   -999.000   93.25000 
  4519.500   -999.000   -999.000   -999.000   92.37500   92.50000   94.93799   10.95350   10.79303   10.10551   10.24600   9.406076   -54.4375   -999.000   92.50000 
  4520.000   -999.000   -999.000   -999.000   91.50000   91.75000   94.81300   11.05500   10.89100   10.18800   10.25800   8.945000   -55.1250   -999.000   91.75000 
  4520.500   -999.000   -999.000   -999.000   92.00000   91.81250   91.87500   11.30111   11.14458   10.37549   10.45306   9.069946   -55.4529   -999.000   91.81250 
  4521.000   -999.000   -999.000   -999.000   92.50000   91.87500   88.93800   11.54700   11.39800   10.56300   10.64800   9.195000   -55.7810   -999.000   91.87500 
  4521.500   -999.000   -999.000   -999.000   91.37500   91.93750   85.75000   11.91000   11.78106   11.02340   11.05844   9.906185   -56.1096   -999.000   91.93750 
  4522.000   -999.000   -999.000   -999.000   90.25000   92.00000   82.56300   12.27300   12.16400   11.48400   11.46900   10.61700   -56.4380   -999.000   92.00000 
  4522.500   -999.000   -999.000   -999.000   91.50000   92.43750   83.68848   12.58941   12.47252   11.95288   12.01220   11.40264   -56.9380   -999.000   92.43750 
  4523.000   -999.000   -999.000   -999.000   92.75000   92.87500   84.81300   12.90600   12.78100   12.42200   12.55500   12.18800   -57.4380   -999.000   92.87500 
  4523.500   -999.000   -999.000   -999.000   92.12500   91.00000   84.78150   13.05451   12.89851   12.41400   12.76605   12.73846   -57.9065   -999.000   91.00000 
  4524.000   -999.000   -999.000   -999.000   91.50000   89.12500   84.75000   13.20300   13.01600   12.40600   12.97700   13.28900   -58.3750   -999.000   89.12500 
  4524.500   -999.000   -999.000   -999.000   91.62500   90.06250   89.12500   13.10547   12.90252   12.10152   12.62147   13.36348   -58.2500   -999.000   90.06250 
  4525.000   -999.000   -999.000   -999.000   91.75000   91.00000   93.50000   13.00800   12.78900   11.79700   12.26600   13.43800   -58.1250   -999.000   91.00000 
  4525.500   -999.000   -999.000   -999.000   91.50000   91.93750   93.50000   12.92199   12.72251   11.56639   11.84410   12.87905   -58.0940   -999.000   91.93750 
  4526.000   -999.000   -999.000   -999.000   91.25000   92.87500   93.50000   12.83600   12.65600   11.33600   11.42200   12.32000   -58.0630   -999.000   92.87500 
  4526.500   -999.000   -999.000   -999.000   93.25000   94.31250   88.81250   12.89452   12.73051   11.48445   11.41400   11.73381   -58.2505   -999.000   94.31250 
  4527.000   -999.000   -999.000   -999.000   95.25000   95.75000   84.12500   12.95300   12.80500   11.63300   11.40600   11.14800   -58.4380   -999.000   95.75000 
  4527.500   -999.000   -999.000   -999.000   97.12500   98.12500   80.31250   13.04699   12.84000   12.18008   11.92940   13.10569   -59.2343   -999.000   98.12500 
  4528.000   -999.000   -999.000   -999.000   99.00000   100.5000   76.50000   13.14100   12.87500   12.72700   12.45300   15.06300   -60.0310   -999.000   100.5000 
  4528.500   -999.000   -999.000   -999.000   99.62500   100.1875   76.68750   13.73045   13.35953   12.87502   13.10550   15.75823   -60.2969   -999.000   100.1875 
  4529.000   -999.000   -999.000   -999.000   100.2500   99.87500   76.87500   14.32000   13.84400   13.02300   13.75800   16.45300   -60.5630   -999.000   99.87500 
  4529.500   -999.000   -999.000   -999.000   100.3750   100.5625   68.56250   16.37181   15.73543   13.87083   14.41058   15.30465   -60.9064   -999.000   100.5625 
  4530.000   -999.000   -999.000   -999.000   100.5000   101.2500   60.25000   18.42200   17.62500   14.71900   15.06300   14.15600   -61.2500   -999.000   101.2500 
  4530.500   -999.000   -999.000   -999.000   108.0000   107.6250   46.10857   22.49056   21.05354   19.57113   17.87500   17.58628   -61.8125   -999.000   107.6250 
  4531.000   -999.000   -999.000   -999.000   115.5000   114.0000   31.96900   26.56300   24.48400   24.42200   20.68800   21.01600   -62.3750   -999.000   114.0000 
  4531.500   -999.000   -999.000   -999.000   119.1250   120.1250   27.15625   34.92272   30.39689   34.24093   34.23522   47.47055   -62.9846   -999.000   120.1250 
  4532.000   -999.000   -999.000   -999.000   122.7500   126.2500   22.34400   43.28100   36.31300   44.06300   47.78100   73.93800   -63.5940   -999.000   126.2500 
  4532.500   -999.000   -999.000   -999.000   124.1250   125.9375   20.61745   72.11095   51.56416   67.90687   136.4659   345.3181   -64.0786   -999.000   125.9375 
