~VERSION INFORMATION
VERS.                               2.00: CWLS LOG ASCII STANDARD VERSION 2.00
WRAP.                               NO  : ONE LINE PER DEPTH STEP               
~WELL INFORMATION
#MNEM.UNIT                     DATA TYPE  INFORMATION
#----------------------------------------------------------------------
STRT.F                           1691.00: START DEPTH
STOP.F                          10167.00: STOP DEPTH
STEP.F                              0.50: STEP VALUE
NULL.                            -999.00: NULL VALUE
COMP.                                   : COMPANY                               
WELL.                        MGS C-22-23: WELL                                  
FLD .                            Unknown: FIELD                                 
LOC .                                   : LOCATION                              
CNTY.                                   : COUNTY                                
STAT.                                   : STATE                                 
CTRY.                                   : COUNTRY                               
SRVC.                                   : SERVICE COMPANY                       
DATE.                                   : LOG DATE                              
API .                   50733203970000  : UNIQUE WELL IDENTIFIER                
~PARAMETER INFORMATION                                                          
#MNEM.UNIT        VALUE   DESCRIPTION                                           
#---------      --------  -----------                                           
~OTHER INFORMATION                                                              
CSG0    .          9.625" @ 6034                                                
FLS0    .          CIRC                                                         
LGD0    .          6/6/1988                                                     
MT0     .          #2                                                           
~CURVE INFORMATION                                                              
#MNEM.UNIT                 DESCRIPTION                                          
#---------                 -----------                                          
DEPTH   .F               :  1 DEPTH
DRHO    .G/C3          00:  2 DENSITY CORRECTN                                
RHOB    .G/C3          00:  3 BULK DENSITY                                    
CALI    .IN            00:  4 CALIPER                                         
DTL     .MS/F          00:  5 INTERV TRANSIT TIME LONG                        
DT_ORIG .MS/F          00:  6 ORIGINAL SONIC CURVE                            
GR      .GAPI          00:  7 GAMMA RAY                                       
IDPH    .OHMM          00:  8 INDUCTION DB PHASOR                             
ILD     .OHMM          00:  9 INDUCTION LOG DEEP                              
ILM     .OHMM          00: 10 INDUCTION LOG MEDIUM                            
IMPH    .OHMM          00: 11 INDUCTION MEDIUM PHASOR                         
SFL     .OHMM          00: 12 SPHER. OR SHAL. FOC. LOG                        
SP      .MV            00: 13 SELF POTENTIAL                                  
PEF     .B/E           00: 14 FOTO ELECTRO. XSCT                              
DT      .MS/F          00: 15 INTERV TRANSIT TIME                             
~A  DEPTH    DRHO       RHOB       CALI       DTL        DT_ORIG    GR         IDPH       ILD        ILM        IMPH       SFL        SP         PEF        DT                                                                                                
# ...
 10094.500   0.095005   2.433501   12.01151   71.75000   74.87500   -999.000   37.70265   35.09375   34.70432   35.54640   28.52267   -17.2969   13.90581   74.87500 
 10095.000   0.107000   2.441000   12.00000   71.25000   73.25000   -999.000   36.28100   33.71900   31.09400   36.62500   29.90600   -16.5470   14.81300   73.25000 
 10095.500   0.121986   2.444498   12.10541   64.93750   68.12500   -999.000   35.62548   32.90625   29.65625   34.20407   31.56423   -16.8748   13.83959   68.12500 
 10096.000   0.137000   2.448000   12.21100   58.62500   63.00000   -999.000   34.96900   32.09400   28.21900   31.78100   33.21900   -17.2030   12.86700   63.00000 
 10096.500   0.133498   2.454506   11.75049   64.00000   70.37500   -999.000   34.31249   31.61795   28.61768   29.86118   32.14020   -16.9919   14.57335   70.37500 
 10097.000   0.130000   2.461000   11.28900   69.37500   77.75000   -999.000   33.65600   31.14100   29.01600   27.93800   31.06300   -16.7810   16.28100   77.75000 
 10097.500   0.110002   2.438993   11.53494   66.81250   74.37500   -999.000   32.20240   29.91397   27.84420   27.70358   31.39868   -16.9685   15.34836   74.37500 
 10098.000   0.090000   2.417000   11.78100   64.25000   71.00000   -999.000   30.75000   28.68800   26.67200   27.46900   31.73400   -17.1560   14.41400   71.00000 
 10098.500   0.096505   2.452987   11.84351   66.12500   70.93750   -999.000   29.96070   28.04747   25.13285   26.64887   29.32746   -16.8433   12.64072   70.93750 
 10099.000   0.103000   2.489000   11.90600   68.00000   70.87500   -999.000   29.17200   27.40600   23.59400   25.82800   26.92200   -16.5310   10.86700   70.87500 
 10099.500   0.110502   2.498993   11.90200   69.50000   69.62500   -999.000   28.91412   27.27343   23.52349   24.80453   26.14079   -16.4531   11.58203   69.62500 
 10100.000   0.118000   2.509000   11.89800   71.00000   68.37500   -999.000   28.65600   27.14100   23.45300   23.78100   25.35900   -16.3750   12.29700   68.37500 
 10100.500   0.124504   2.504502   11.87500   70.31250   70.87500   -999.000   28.26544   26.93016   23.12503   23.36747   25.42151   -16.0000   12.37100   70.87500 
 10101.000   0.131000   2.500000   11.85200   69.62500   73.37500   -999.000   27.87500   26.71900   22.79700   22.95300   25.48400   -15.6250   12.44500   73.37500 
 10101.500   0.118998   2.450511   11.54320   71.25000   72.31250   -999.000   26.93750   25.92230   21.48438   22.11021   23.95396   -16.4526   14.75465   72.31250 
 10102.000   0.107000   2.401000   11.23400   72.87500   71.25000   -999.000   26.00000   25.12500   20.17200   21.26600   22.42200   -17.2810   17.06300   71.25000 
 10102.500   0.090994   2.421506   9.379748   71.12500   70.62500   -999.000   24.43750   23.58621   18.10245   19.44620   21.78897   -17.4060   16.39857   70.62500 
 10103.000   0.075000   2.442000   7.523000   69.37500   70.00000   -999.000   22.87500   22.04700   16.03100   17.62500   21.15600   -17.5310   15.73400   70.00000 
 10103.500   0.058494   2.482489   7.523000   70.37500   70.62500   -999.000   21.96890   21.21980   15.45320   16.22604   21.80437   -17.5310   15.22626   70.62500 
 10104.000   0.042000   2.523000   7.523000   71.37500   71.25000   -999.000   21.06300   20.39100   14.87500   14.82800   22.45300   -17.5310   14.71900   71.25000 
 10104.500   0.028487   2.491512   6.828381   71.75000   71.37500   -999.000   20.77341   20.22710   15.28939   14.82050   20.66263   -17.5155   16.39193   71.37500 
 10105.000   0.015000   2.460000   6.133000   72.12500   71.50000   -999.000   20.48400   20.06300   15.70300   14.81300   18.87500   -17.5000   18.06300   71.50000 
 10105.500   0.032498   2.410987   4.792985   71.56250   72.50000   -999.000   20.44498   20.06300   16.35942   15.89900   17.47592   -17.5155   17.86742   72.50000 
 10106.000   0.050000   2.362000   3.453000   71.00000   73.50000   -999.000   20.40600   20.06300   17.01600   16.98400   16.07800   -17.5310   17.67200   73.50000 
 10106.500   0.066005   2.329485   3.249846   70.18750   70.68750   -999.000   20.47645   20.07849   16.97698   17.66355   16.59390   -17.4685   21.18986   70.68750 
 10107.000   0.082000   2.297000   3.047000   69.37500   67.87500   -999.000   20.54700   20.09400   16.93800   18.34400   17.10900   -17.4060   24.70300   67.87500 
 10107.500   0.074506   2.252015   3.047000   67.06250   68.00000   -999.000   20.61746   20.10949   16.75794   17.85145   17.29639   -17.4450   27.27443   68.00000 
 10108.000   0.067000   2.207000   3.047000   64.75000   68.12500   -999.000   -999.000   -999.000   -999.000   -999.000   -999.000   -999.000   29.84400   68.12500 
 10108.500   0.062498   2.208000   3.047000   68.37500   69.93750   -999.000   -999.000   -999.000   -999.000   -999.000   -999.000   -999.000   28.35903   69.93750 
 10109.000   0.058000   2.209000   3.047000   72.00000   71.75000   -999.000   -999.000   -999.000   -999.000   -999.000   -999.000   -999.000   26.87500   71.75000 
 10109.500   0.075987   2.260045   3.047000   72.31250   72.12500   -999.000   -999.000   -999.000   -999.000   -999.000   -999.000   -999.000   25.31250   72.12500 
 10110.000   0.094000   2.311000   3.047000   -999.000   -999.000   -999.000   -999.000   -999.000   -999.000   -999.000   -999.000   -999.000   23.75000   -999.000 
 10110.500   0.108988   2.339972   3.047000   -999.000   -999.000   -999.000   -999.000   -999.000   -999.000   -999.000   -999.000   -999.000   21.67077   -999.000 
 10111.000   0.124000   2.369000   3.047000   -999.000   -999.000   -999.000   -999.000   -999.000   -999.000   -999.000   -999.000   -999.000   19.59400   -999.000 
 10111.500   0.126502   2.375996   3.047000   -999.000   -999.000   -999.000   -999.000   -999.000   -999.000   -999.000   -999.000   -999.000   21.44562   -999.000 
 10112.000   0.129000   2.383000   3.047000   -999.000   -999.000   -999.000   -999.000   -999.000   -999.000   -999.000   -999.000   -999.000   23.29700   -999.000 
 10112.500   0.120993   2.372996   3.047000   -999.000   -999.000   -999.000   -999.000   -999.000   -999.000   -999.000   -999.000   -999.000   22.35064   -999.000 
 10113.000   0.113000   2.363000   3.047000   -999.000   -999.000   -999.000   -999.000   -999.000   -999.000   -999.000   -999.000   -999.000   21.40600   -999.000 
 10113.500   0.106007   2.357501   3.047000   -999.000   -999.000   -999.000   -999.000   -999.000   -999.000   -999.000   -999.000   -999.000   22.54776   -999.000 
 10114.000   0.099000   2.352000   3.047000   -999.000   -999.000   -999.000   -999.000   -999.000   -999.000   -999.000   -999.000   -999.000   23.68800   -999.000 
 10114.500   0.104001   2.358504   3.047000   -999.000   -999.000   -999.000   -999.000   -999.000   -999.000   -999.000   -999.000   -999.000   23.99272   -999.000 
 10115.000   0.109000   2.365000   3.047000   -999.000   -999.000   -999.000   -999.000   -999.000   -999.000   -999.000   -999.000   -999.000   24.29700   -999.000 
 10115.500   0.115493   2.371003   3.047000   -999.000   -999.000   -999.000   -999.000   -999.000   -999.000   -999.000   -999.000   -999.000   23.10147   -999.000 
 10116.000   0.122000   2.377000   3.047000   -999.000   -999.000   -999.000   -999.000   -999.000   -999.000   -999.000   -999.000   -999.000   21.90600   -999.000 
 10116.500   0.119499   2.374001   3.047000   -999.000   -999.000   -999.000   -999.000   -999.000   -999.000   -999.000   -999.000   -999.000   20.65625   -999.000 
 10117.000   0.117000   2.371000   3.047000   -999.000   -999.000   -999.000   -999.000   -999.000   -999.000   -999.000   -999.000   -999.000   19.40600   -999.000 
 10117.500   0.117500   2.372499   3.047000   -999.000   -999.000   -999.000   -999.000   -999.000   -999.000   -999.000   -999.000   -999.000   19.38249   -999.000 
 10118.000   0.118000   2.374000   3.047000   -999.000   -999.000   -999.000   -999.000   -999.000   -999.000   -999.000   -999.000   -999.000   19.35900   -999.000 
 10118.500   0.122503   2.378499   3.047000   -999.000   -999.000   -999.000   -999.000   -999.000   -999.000   -999.000   -999.000   -999.000   19.35900   -999.000 
