~VERSION INFORMATION
VERS.                               2.00: CWLS LOG ASCII STANDARD VERSION 2.00
WRAP.                               NO  : ONE LINE PER DEPTH STEP               
~WELL INFORMATION
#MNEM.UNIT                     DATA TYPE  INFORMATION
#----------------------------------------------------------------------
STRT.F                           1691.00: START DEPTH
STOP.F                          10167.00: STOP DEPTH
STEP.F                              0.50: STEP VALUE
NULL.                            -999.00: NULL VALUE
COMP.                                   : COMPANY                               
WELL.                        MGS C-22-23: WELL                                  
FLD .                            Unknown: FIELD                                 
LOC .                                   : LOCATION                              
CNTY.                                   : COUNTY                                
STAT.                                   : STATE                                 
CTRY.                                   : COUNTRY                               
SRVC.                                   : SERVICE COMPANY                       
DATE.                                   : LOG DATE                              
API .                   50733203970000  : UNIQUE WELL IDENTIFIER                
~PARAMETER INFORMATION                                                          
#MNEM.UNIT        VALUE   DESCRIPTION                                           
#---------      --------  -----------                                           
~OTHER INFORMATION                                                              
CSG0    .          9.625" @ 6034                                                
FLS0    .          CIRC                                                         
LGD0    .          6/6/1988                                                     
MT0     .          #2                                                           
~CURVE INFORMATION                                                              
#MNEM.UNIT                 DESCRIPTION                                          
#---------                 -----------                                          
DEPTH   .F               :  1 DEPTH
DRHO    .G/C3          00:  2 DENSITY CORRECTN                                
RHOB    .G/C3          00:  3 BULK DENSITY                                    
CALI    .IN            00:  4 CALIPER                                         
DTL     .MS/F          00:  5 INTERV TRANSIT TIME LONG                        
DT_ORIG .MS/F          00:  6 ORIGINAL SONIC CURVE                            
GR      .GAPI          00:  7 GAMMA RAY                                       
IDPH    .OHMM          00:  8 INDUCTION DB PHASOR                             
ILD     .OHMM          00:  9 INDUCTION LOG DEEP                              
ILM     .OHMM          00: 10 INDUCTION LOG MEDIUM                            
IMPH    .OHMM          00: 11 INDUCTION MEDIUM PHASOR                         
SFL     .OHMM          00: 12 SPHER. OR SHAL. FOC. LOG                        
SP      .MV            00: 13 SELF POTENTIAL                                  
PEF     .B/E           00: 14 FOTO ELECTRO. XSCT                              
DT      .MS/F          00: 15 INTERV TRANSIT TIME                             
~A  DEPTH    DRHO       RHOB       CALI       DTL        DT_ORIG    GR         IDPH       ILD        ILM        IMPH       SFL        SP         PEF        DT                                                                                                
# ...
  9531.000   -.010000   2.517000   9.141000   86.00000   76.62500   42.15600   68.68800   64.62500   34.09400   36.65600   48.87500   -60.3440   6.461000   76.62500 
  9531.500   -.014499   2.439550   9.141000   80.25000   71.00000   42.84375   68.37549   64.62500   33.02343   34.82943   46.98568   -60.3910   7.025243   71.00000 
  9532.000   -.019000   2.362000   9.141000   74.50000   65.37500   43.53100   68.06300   64.62500   31.95300   33.00000   45.09400   -60.4380   7.590000   65.37500 
  9532.500   -.016499   2.354502   9.141000   71.31250   65.87500   45.99921   67.43848   64.17245   33.55391   33.21920   43.68829   -60.4065   9.006641   65.87500 
  9533.000   -.014000   2.347000   9.141000   68.12500   66.37500   48.46900   66.81300   63.71900   35.15600   33.43800   42.28100   -60.3750   10.42200   66.37500 
  9533.500   -.014500   2.384015   9.141000   69.06250   68.50000   49.10952   63.87379   60.65625   38.94112   37.22025   45.70494   -60.4065   8.421875   68.50000 
  9534.000   -.015000   2.421000   9.141000   70.00000   70.62500   49.75000   60.93800   57.59400   42.71900   41.00000   49.12500   -60.4380   6.422000   70.62500 
  9534.500   -.009998   2.451484   9.156503   71.43750   72.37500   45.00000   60.32825   56.99978   43.42176   45.63856   42.62500   -60.6410   6.736462   72.37500 
  9535.000   -.005000   2.482000   9.172000   72.87500   74.12500   40.25000   59.71900   56.40600   44.12500   50.28100   36.12500   -60.8440   7.051000   74.12500 
  9535.500   0.000002   2.505015   9.183508   74.35544   75.14551   43.89569   61.92347   58.68822   44.32801   50.37499   38.37500   -60.9690   9.014752   75.14551 
  9536.000   0.005000   2.528000   9.195000   75.83600   76.16700   47.54700   64.12500   60.96900   44.53100   50.46900   40.62500   -61.0940   10.97700   76.16700 
  9536.500   0.003999   2.540500   8.918129   72.77597   73.42700   46.25461   67.40748   64.11072   57.42176   53.87377   44.63806   -61.3127   10.37468   73.42700 
  9537.000   0.003000   2.553000   8.641000   69.71900   70.68800   44.96100   70.68800   67.25000   70.31300   57.28100   48.65600   -61.5310   9.773000   70.68800 
  9537.500   -.000501   2.549998   8.555050   66.98546   72.01671   43.21317   71.06299   67.03152   73.15842   70.36002   50.54630   -61.6405   9.574081   72.01671 
  9538.000   -.004000   2.547000   8.469000   64.25000   73.34400   41.46200   71.43800   66.81300   76.00000   83.43800   52.43800   -61.7500   9.375000   73.34400 
  9538.500   -.004000   2.527500   8.469000   63.87500   70.04771   41.74647   72.43750   67.50098   64.95787   79.40792   49.76769   -61.6250   8.867411   70.04771 
  9539.000   -.004000   2.508000   8.469000   63.50000   66.75000   42.03100   73.43800   68.18800   53.90600   75.37500   47.09400   -61.5000   8.359000   66.75000 
  9539.500   -.002500   2.512002   8.380054   66.68750   67.62500   41.79682   75.84492   70.75000   52.71875   63.45761   44.62617   -61.4530   8.515421   67.62500 
  9540.000   -.001000   2.516000   8.291000   69.87500   68.50000   41.56300   78.25000   73.31300   51.53100   51.53100   42.15600   -61.4060   8.672000   68.50000 
  9540.500   0.001999   2.526506   8.307997   72.18750   70.56250   43.34565   77.18750   72.59441   51.35958   49.54855   40.48409   -61.2971   8.735031   70.56250 
  9541.000   0.005000   2.537000   8.325000   74.50000   72.62500   45.12500   76.12500   71.87500   51.18800   47.56300   38.81300   -61.1880   8.798000   72.62500 
  9541.500   0.005500   2.532996   8.345989   73.50000   72.00000   43.01571   73.59359   69.46859   50.51597   49.82944   38.92201   -61.1095   8.922415   72.00000 
  9542.000   0.006000   2.529000   8.367000   72.50000   71.37500   40.90600   71.06300   67.06300   49.84400   52.09400   39.03100   -61.0310   9.047000   71.37500 
  9542.500   0.007501   2.525002   8.319970   72.25000   71.43750   43.31284   70.90639   66.84389   49.31216   52.67170   42.26580   -61.2971   9.238586   71.43750 
  9543.000   0.009000   2.521000   8.273000   72.00000   71.50000   45.71900   70.75000   66.62500   48.78100   53.25000   45.50000   -61.5630   9.430000   71.50000 
  9543.500   0.009000   2.520001   8.230480   72.68750   71.93750   43.01480   70.96911   66.84411   48.96851   51.82770   46.23480   -61.5470   10.34483   71.93750 
  9544.000   0.009000   2.519000   8.188000   73.37500   72.37500   40.31300   71.18800   67.06300   49.15600   50.40600   46.96900   -61.5310   11.25800   72.37500 
  9544.500   0.006502   2.513999   8.188000   74.56250   73.37500   39.59365   71.81348   67.78185   47.99940   49.18690   44.76505   -61.8124   10.96516   73.37500 
  9545.000   0.004000   2.509000   8.188000   75.75000   74.37500   38.87500   72.43800   68.50000   46.84400   47.96900   42.56300   -62.0940   10.67200   74.37500 
  9545.500   0.003500   2.513999   8.234517   75.12500   74.12500   36.03185   73.37500   69.18750   44.59375   46.50010   43.20345   -62.4219   9.863663   74.12500 
  9546.000   0.003000   2.519000   8.281000   74.50000   73.87500   33.18800   74.31300   69.87500   42.34400   45.03100   43.84400   -62.7500   9.055000   73.87500 
  9546.500   0.001500   2.520999   8.281000   71.81250   71.18750   35.12500   77.50000   72.75000   42.21899   43.65625   46.90625   -62.8595   9.894819   71.18750 
  9547.000   0.000000   2.523000   8.281000   69.12500   68.50000   37.06300   80.68800   75.62500   42.09400   42.28100   49.96900   -62.9690   10.73400   68.50000 
  9547.500   -.002999   2.520000   8.321518   67.68750   67.37500   40.72106   81.62500   76.09368   42.12501   42.10947   53.79935   -63.2344   10.19740   67.37500 
  9548.000   -.006000   2.517000   8.362000   66.25000   66.25000   44.37500   82.56300   76.56300   42.15600   41.93800   57.62500   -63.5000   9.660000   66.25000 
  9548.500   -.003499   2.517500   8.532515   66.56250   66.93750   42.42356   82.65655   76.43799   41.10925   41.96897   60.07644   -63.3904   9.201450   66.93750 
  9549.000   -.001000   2.518000   8.703000   66.87500   67.62500   40.46900   82.75000   76.31300   40.06300   42.00000   62.53100   -63.2810   8.742000   67.62500 
  9549.500   0.000500   2.518500   8.730480   66.31250   66.62500   41.06254   84.31250   77.93750   40.29723   41.79710   65.98627   -63.2345   9.284663   66.62500 
  9550.000   0.002000   2.519000   8.758000   65.75000   65.62500   41.65600   85.87500   79.56300   40.53100   41.59400   69.43800   -63.1880   9.828000   65.62500 
  9550.500   0.000002   2.521000   8.758000   65.81250   65.87500   38.75047   88.21922   81.71828   44.28125   43.56203   69.50049   -63.0630   9.695520   65.87500 
  9551.000   -.002000   2.523000   8.758000   65.87500   66.12500   35.84400   90.56300   83.87500   48.03100   45.53100   69.56300   -62.9380   9.563000   66.12500 
  9551.500   -.001500   2.517002   8.903927   66.37500   66.12500   37.73584   91.37598   84.06250   50.92010   50.49706   66.06512   -62.8594   9.260447   66.12500 
  9552.000   -.001000   2.511000   9.050000   66.87500   66.12500   39.62500   92.18800   84.25000   53.81300   55.46900   62.56300   -62.7810   8.958000   66.12500 
  9552.500   0.003503   2.508502   9.459095   67.12500   66.75000   41.34394   92.46923   83.81250   55.20367   59.12743   67.15606   -62.7970   8.719400   66.75000 
  9553.000   0.008000   2.506000   9.868000   67.37500   67.37500   43.06300   92.75000   83.37500   56.59400   62.78100   71.75000   -62.8130   8.481000   67.37500 
  9553.500   0.020500   2.524498   10.21171   64.50000   65.06250   43.57842   98.12500   88.02932   58.17284   63.57814   101.3125   -63.0630   9.685495   65.06250 
  9554.000   0.033000   2.543000   10.55500   61.62500   62.75000   44.09400   103.5000   92.68800   59.75000   64.37500   130.8750   -63.3130   10.89100   62.75000 
  9554.500   0.046003   2.545998   10.53900   59.86120   59.61120   45.49947   108.1875   96.72018   75.21732   72.27982   142.3125   -63.3285   14.34991   59.61120 
  9555.000   0.059000   2.549000   10.52300   58.10000   56.47500   46.90600   112.8750   100.7500   90.68800   80.18800   153.7500   -63.3440   17.81300   56.47500 
