~VERSION INFORMATION
VERS.                               2.00: CWLS LOG ASCII STANDARD VERSION 2.00
WRAP.                               NO  : ONE LINE PER DEPTH STEP               
~WELL INFORMATION
#MNEM.UNIT                     DATA TYPE  INFORMATION
#----------------------------------------------------------------------
STRT.F                            920.00: START DEPTH
STOP.F                           9532.00: STOP DEPTH
STEP.F                              0.50: STEP VALUE
NULL.                            -999.00: NULL VALUE
COMP.                                   : COMPANY                               
WELL.                       SRS TERN A-1: WELL                                  
FLD .            Granite Pt/Beluga River: FIELD                                 
LOC .      10N  10W   19 0585FNL 0636FWL: LOCATION                              
CNTY.                 GREATER_COOK_INLET: COUNTY                                
STAT.                             Alaska: STATE                                 
CTRY.                                 US: COUNTRY                               
SRVC.                                   : SERVICE COMPANY                       
DATE.                                   : LOG DATE                              
API .                   50733203530000  : UNIQUE WELL IDENTIFIER                
~PARAMETER INFORMATION                                                          
#MNEM.UNIT        VALUE   DESCRIPTION                                           
#---------      --------  -----------                                           
ELEV    .F          171.5: KB ELEVATION                                         
TDD     .F         9519.0: TOTAL DEPTH DRILLED                                  
~OTHER INFORMATION                                                              
FLS0    .          CIRCULATED                                                   
LGD0    .          7/13/82                                                      
MT0     .          DIS GEL H2O                                                  
FLS0    .          CIRCULATED                                                   
LGD0    .          7/24/82                                                      
FLS0    .          FLOWLINE                                                     
LGD0    .          8/2/82                                                       
MT0     .          LOW SOLIDS NONDISPERSED                                      
~CURVE INFORMATION                                                              
#MNEM.UNIT                 DESCRIPTION                                          
#---------                 -----------                                          
DEPTH   .F               :  1 DEPTH
GR      .GAPI          00:  2 GAMMA RAY                                       
SP      .MV            00:  3 SELF POTENTIAL                                  
CALI    .IN            00:  4 CALIPER                                         
SFL     .OHMM          00:  5 SPHER. OR SHAL. FOC. LOG                        
ILD     .OHMM          00:  6 INDUCTION LOG DEEP                              
ILM     .OHMM          00:  7 INDUCTION LOG MEDIUM                            
CNS     .%             00:  8 COMPENSATED NEUT (-S)                           
DRHO    .G/C3          00:  9 DENSITY CORRECTN                                
RHOB    .G/C3          00: 10 BULK DENSITY                                    
DT      .US/F          00: 11 INTERV TRANSIT TIME                             
MNOR    .OHMM          00: 12 NORMAL MICROLOG                                 
MINV    .OHMM          00: 13 INV MICROLOG                                    
PROX    .OHMM          00: 14 PROXIMITY LOG                                   
POTA    .PPM           00: 15 POTASSIUM                                       
URAN    .PPM           00: 16 URANIUM                                         
THOR    .PPM           00: 17 THORIUM                                         
SGR     .GAPI          00: 18 GAMMA RAY                                       
CGR     .GAPI          00: 19 GAMMA RAY                                       
~A  DEPTH    GR         SP         CALI       SFL        ILD        ILM        CNS        DRHO       RHOB       DT         MNOR       MINV       PROX       POTA       URAN       THOR       SGR        CGR                                                   
# ...
  5151.500   37.24070   -52.0073   8.323600   46.09830   14.48670   12.76560   65.57000   0.009800   1.993279   119.8790   -999.000   -999.000   44.70710   0.011880   1.462735   2.916941   36.72474   24.48504 
  5152.000   49.21210   -50.9666   8.344000   12.15380   12.25490   10.28160   69.55000   -.008300   2.222158   114.7145   -999.000   -999.000   5.885800   0.013133   1.671671   4.245770   49.29216   30.86810 
  5152.500   54.41680   -50.4799   8.364400   9.290900   10.36700   8.280900   67.98000   -.018200   2.309066   111.8668   -999.000   -999.000   5.476600   0.013746   2.077453   4.858097   56.33034   37.98116 
  5153.000   58.16870   -50.0152   8.384900   8.697700   8.769800   7.067500   62.89000   -.032200   2.311283   109.0041   -999.000   -999.000   5.160100   0.013955   2.327984   5.413072   63.06443   42.08010 
  5153.500   61.92050   -49.5505   8.405300   7.299300   7.514600   6.697400   53.38000   -.016600   2.261959   113.5599   -999.000   -999.000   4.893800   0.014107   2.429048   5.726880   66.53349   45.13232 
  5154.000   60.94540   -49.0876   8.423100   7.480800   7.380900   6.346700   45.32000   0.009400   2.198071   116.4640   -999.000   -999.000   4.641300   0.014158   2.401330   5.859738   68.92953   47.26778 
  5154.500   59.82290   -49.0955   8.437500   7.819300   7.249500   6.451800   37.25000   0.045000   2.130070   118.1822   -999.000   -999.000   4.401800   0.014183   2.319162   5.719968   68.51782   49.02251 
  5155.000   58.70030   -49.1478   8.451900   8.173100   7.120500   6.619900   37.84000   0.066200   2.083415   120.2023   -999.000   -999.000   5.896900   0.014583   2.159985   5.313156   67.82385   48.97080 
  5155.500   57.27480   -49.2900   8.466300   9.461600   7.055900   6.754600   39.58000   0.072300   2.096634   118.1391   -999.000   -999.000   8.065100   0.014491   1.916322   4.890482   64.61580   48.54366 
  5156.000   54.87450   -49.4846   8.450900   10.50600   7.070900   6.892000   41.31000   0.066300   2.155021   115.3782   -999.000   -999.000   9.738600   0.013674   1.653848   4.563807   59.48696   46.55963 
  5156.500   53.30520   -49.7110   8.388200   11.46010   7.086000   7.032100   43.04000   0.059100   2.222698   112.7746   -999.000   -999.000   8.603800   0.013281   1.494191   4.325602   54.91181   44.55373 
  5157.000   52.87970   -50.1698   8.397400   10.24000   7.178300   7.114700   44.78000   0.041800   2.286303   110.6865   -999.000   -999.000   5.457900   0.013578   1.546531   4.326883   55.26421   42.55179 
  5157.500   52.92170   -50.9210   8.406600   8.512700   7.365800   7.065800   46.51000   0.014900   2.309358   109.2364   -999.000   -999.000   5.095000   0.014174   1.643157   4.328903   56.09872   42.66859 
  5158.000   53.81510   -51.7117   8.435400   7.995500   7.398400   7.017400   46.58000   0.005700   2.323258   108.1777   -999.000   -999.000   5.167400   0.014593   1.761677   4.317097   56.87947   42.91099 
  5158.500   54.22020   -52.7137   8.479500   7.471400   7.431100   7.190000   44.53000   0.012200   2.326202   107.8737   -999.000   -999.000   5.240700   0.014209   1.814946   4.299325   57.26151   42.58520 
  5159.000   54.28820   -53.8997   8.523600   6.981700   7.464000   7.489800   42.48000   0.023600   2.315344   107.9207   -999.000   -999.000   5.162800   0.014002   1.815617   4.273262   57.47401   42.18557 
  5159.500   54.28750   -55.4180   8.576600   6.721800   7.497000   7.802100   40.43000   0.035000   2.298228   107.2742   -999.000   -999.000   4.819400   0.014383   1.888366   4.211836   56.99352   41.78661 
  5160.000   54.32550   -56.7558   8.655300   7.158100   7.599900   8.033400   38.37000   0.051300   2.322646   104.8470   -999.000   -999.000   4.994400   0.014820   1.851277   4.150409   56.21068   41.81824 
  5160.500   53.87850   -57.9306   8.697800   7.951500   7.746400   8.124300   37.50000   0.064400   2.369509   102.4197   -999.000   -999.000   6.629400   0.014749   1.725056   3.966871   55.10158   41.90878 
  5161.000   52.78260   -58.5287   8.654200   9.598200   7.929900   8.216200   37.77000   0.058400   2.423922   101.5536   -999.000   -999.000   8.799500   0.014694   1.564211   3.772782   53.90182   41.67966 
  5161.500   51.68680   -58.9554   8.593400   11.29200   8.173300   8.265400   38.04000   0.041000   2.445572   101.0093   -999.000   -999.000   8.692400   0.014950   1.568196   3.439383   53.18010   41.01043 
  5162.000   51.73960   -59.1215   8.334400   12.38520   8.424300   8.199500   37.80000   0.027300   2.416696   100.7903   -999.000   -999.000   8.271500   0.015440   1.578584   3.186274   52.66930   40.35905 
  5162.500   52.97640   -58.7794   8.341000   13.52850   8.363900   8.134000   36.66000   0.015000   2.379426   101.7377   -999.000   -999.000   8.929300   0.015557   1.683624   3.056936   53.19492   39.47768 
  5163.000   54.13150   -58.1497   8.361100   13.32760   8.218400   8.069100   34.34000   0.005000   2.376427   102.9578   -999.000   -999.000   9.915100   0.015641   1.892783   3.138633   54.00800   39.50263 
  5163.500   55.63000   -57.2122   8.365900   11.56430   8.075400   8.004700   32.47000   0.024100   2.377481   104.5175   -999.000   -999.000   9.200600   0.015721   1.890133   3.124205   55.05073   39.57613 
  5164.000   57.44010   -56.4162   8.373600   8.934400   7.934900   7.940800   31.73000   0.049200   2.364437   106.0091   -999.000   -999.000   7.585000   0.015791   1.886573   3.083026   54.76112   39.96373 
  5164.500   56.01110   -55.5347   8.385800   6.944200   7.847200   8.017800   32.05000   0.045800   2.309180   108.6334   -999.000   -999.000   5.975000   0.015844   1.798596   3.008712   54.09003   40.13678 
  5165.000   50.75170   -54.4358   8.398000   8.512900   8.760400   8.890600   32.33000   0.042300   2.033604   113.3185   -999.000   -999.000   5.338300   0.012742   1.697234   2.682653   50.84644   39.15009 
  5165.500   40.69020   -53.5328   8.448600   10.43590   10.47320   11.16920   32.56000   0.056200   1.660239   117.3149   -999.000   -999.000   6.056600   0.008677   1.603978   2.515709   44.51492   34.74006 
  5166.000   31.85150   -52.7263   8.550600   12.89350   12.52090   14.03180   35.32000   0.071100   1.539430   122.5985   -999.000   -999.000   7.973900   0.006457   1.081789   2.461029   33.87671   29.40648 
  5166.500   21.16200   -51.5689   8.603100   21.80700   14.96900   17.62800   40.88000   0.086000   1.408008   127.7873   -999.000   -999.000   12.06420   0.004967   0.566659   2.354740   25.65098   23.83122 
  5167.000   15.30500   -50.8536   8.630300   101.8777   17.89570   22.14590   46.45000   0.100900   1.369354   129.9492   -999.000   -999.000   74.71770   0.004289   0.153046   2.012497   19.16456   19.35180 
  5167.500   14.01900   -50.4396   8.627100   282.7775   21.39460   27.82170   52.02000   0.097500   1.350749   130.6404   -999.000   -999.000   100.6459   0.004568   -.151606   1.638753   14.82908   15.42422 
  5168.000   12.73300   -50.3867   8.614300   317.0575   25.57760   34.95210   57.58000   0.077100   1.349704   130.1972   -999.000   -999.000   136.1781   0.005001   -.336711   1.611716   15.09022   13.08069 
  5168.500   14.31200   -50.7968   8.596700   235.2816   30.57840   43.67650   59.30000   0.056700   1.364578   128.8586   -999.000   -999.000   204.5205   0.005757   -.390432   1.988878   15.43222   12.69225 
  5169.000   15.92790   -51.2740   8.526600   165.6097   36.55710   36.05920   61.02000   0.036300   1.406401   128.6418   -999.000   -999.000   270.7915   0.007027   -.234219   2.385487   18.42068   12.63403 
  5169.500   26.17000   -52.2860   8.500300   116.5691   36.14380   29.77040   62.75000   0.015900   1.477747   128.2628   -999.000   -999.000   278.2443   0.008694   0.147228   2.804276   26.37907   18.67080 
  5170.000   42.78800   -54.9767   8.474000   55.99360   27.10290   24.57840   65.58000   -.004500   1.629430   125.6650   -999.000   -999.000   119.9836   0.011825   0.641176   3.254311   34.33747   25.01569 
  5170.500   56.99350   -57.5815   8.447700   31.61940   20.32350   20.29180   70.27000   -.024900   1.840539   118.2704   -999.000   -999.000   47.24530   0.015263   0.820922   4.122282   42.29588   32.96458 
