~VERSION INFORMATION
VERS.                               2.00: CWLS LOG ASCII STANDARD VERSION 2.00
WRAP.                               NO  : ONE LINE PER DEPTH STEP               
~WELL INFORMATION
#MNEM.UNIT                     DATA TYPE  INFORMATION
#----------------------------------------------------------------------
STRT.F                             16.00: START DEPTH
STOP.F                          11705.00: STOP DEPTH
STEP.F                              0.50: STEP VALUE
NULL.                            -999.00: NULL VALUE
COMP.                                   : COMPANY                               
WELL.                      S MGS UNIT 16: WELL                                  
FLD .                            Unknown: FIELD                                 
LOC .                                   : LOCATION                              
CNTY.                                   : COUNTY                                
STAT.                                   : STATE                                 
CTRY.                                   : COUNTRY                               
SRVC.                                   : SERVICE COMPANY                       
DATE.                                   : LOG DATE                              
API .                   50733204590000  : UNIQUE WELL IDENTIFIER                
~PARAMETER INFORMATION                                                          
#MNEM.UNIT        VALUE   DESCRIPTION                                           
#---------      --------  -----------                                           
~OTHER INFORMATION                                                              
FLS0    .          CIRC                                                         
LGD0    .          7/2/1969                                                     
MT0     .          FRESH/GEL                                                    
FLS0    .          CIRC                                                         
LGD0    .          8/13/1969                                                    
MT0     .          CYPAN                                                        
CSG0    .          13.375" @ 2555                                               
CSG0    .          9.625" @ 10296                                               
~CURVE INFORMATION                                                              
#MNEM.UNIT                 DESCRIPTION                                          
#---------                 -----------                                          
DEPTH   .F               :  1 DEPTH
DRHO    .G/C3          00:  2 DENSITY CORRECTN                                
DT_ORIG .MS/F          00:  3 ORIGINAL SONIC CURVE                            
ILD     .OHMM          00:  4 INDUCTION LOG DEEP                              
ILM     .OHMM          00:  5 INDUCTION LOG MEDIUM                            
SFL     .OHMM          00:  6 SPHER. OR SHAL. FOC. LOG                        
RHOB    .G/C3          00:  7 BULK DENSITY                                    
CALI    .IN            00:  8 CALIPER                                         
SP      .MV            00:  9 SELF POTENTIAL                                  
RT      .OHMM          00: 10 TRUE RESIST CALC FROM AR                        
AF30    .OHMM          00: 11 ARRAY IND 4 FT RESISTIVI                        
AF90    .OHMM          00: 12 ARRAY IND 4 FT RESISTIVI                        
CNS     .%             00: 13 COMPENSATED NEUT (-S)                           
GR      .GAPI          00: 14 GAMMA RAY                                       
AF20    .OHMM          00: 15 ARRAY IND 4 FT RESISTIVI                        
DT      .MS/F          00: 16 INTERV TRANSIT TIME                             
~A  DEPTH    DRHO       DT_ORIG    ILD        ILM        SFL        RHOB       CALI       SP         RT         AF30       AF90       CNS        GR         AF20       DT                                                                                     
# ...
  7077.000   0.099000   95.81300   7.584000   7.269000   9.038000   2.532000   14.59900   15.36900   -999.000   -999.000   -999.000   40.81200   78.12000   -999.000   95.81300 
  7077.500   0.114994   80.58809   7.013454   7.027443   8.971998   2.562489   14.33041   15.92109   -999.000   -999.000   -999.000   37.10123   82.56007   -999.000   80.58809 
  7078.000   0.131000   65.36400   6.443000   6.786000   8.906000   2.593000   14.06200   16.47300   -999.000   -999.000   -999.000   33.39000   86.99900   -999.000   65.36400 
  7078.500   0.143496   68.40988   6.386503   6.705028   8.681933   2.557490   14.28553   16.96100   -999.000   -999.000   -999.000   33.18056   92.36588   -999.000   68.40988 
  7079.000   0.156000   71.45500   6.330000   6.624000   8.458000   2.522000   14.50900   17.44900   -999.000   -999.000   -999.000   32.97100   97.73400   -999.000   71.45500 
  7079.500   0.221487   92.19293   6.489426   6.850412   8.147117   2.503489   14.34490   17.89605   -999.000   -999.000   -999.000   35.30645   90.04144   -999.000   92.19293 
  7080.000   0.287000   112.9500   6.649000   7.077000   7.836000   2.485000   14.18100   18.34300   -999.000   -999.000   -999.000   37.63800   82.34900   -999.000   112.9500 
  7080.500   0.216001   126.9938   6.590994   7.475794   7.754972   2.548502   14.27049   18.38350   -999.000   -999.000   -999.000   38.34235   81.27608   -999.000   126.9938 
  7081.000   0.145000   141.0340   6.533000   7.875000   7.674000   2.612000   14.36000   18.42400   -999.000   -999.000   -999.000   39.04700   80.20400   -999.000   141.0340 
  7081.500   0.081999   141.8640   6.596002   7.702589   8.113036   2.654516   14.49397   18.35204   -999.000   -999.000   -999.000   35.39297   81.09174   -999.000   141.8640 
  7082.000   0.019000   142.6930   6.659000   7.530000   8.552000   2.697000   14.62800   18.28000   -999.000   -999.000   -999.000   31.74100   81.98000   -999.000   142.6930 
  7082.500   0.018500   136.8627   7.220304   7.688499   8.924580   2.684000   14.83699   18.17053   -999.000   -999.000   -999.000   29.80775   83.11128   -999.000   136.8627 
  7083.000   0.018000   131.0400   7.782000   7.847000   9.297000   2.671000   15.04600   18.06100   -999.000   -999.000   -999.000   27.87300   84.24200   -999.000   131.0400 
  7083.500   0.032006   116.7409   8.531778   9.065664   9.145023   2.669500   14.74770   17.74533   -999.000   -999.000   -999.000   27.64202   80.63936   -999.000   116.7409 
  7084.000   0.046000   102.4470   9.282000   10.28400   8.993000   2.668000   14.44900   17.43000   -999.000   -999.000   -999.000   27.41100   77.03500   -999.000   102.4470 
  7084.500   0.057501   93.74424   9.194998   10.44891   8.899557   2.660999   14.30002   17.31548   -999.000   -999.000   -999.000   27.10828   74.29688   -999.000   93.74424 
  7085.000   0.069000   85.04400   9.108000   10.61400   8.806000   2.654000   14.15100   17.20100   -999.000   -999.000   -999.000   26.80600   71.56200   -999.000   85.04400 
  7085.500   0.059493   81.38614   8.418843   8.257146   9.318865   2.545959   14.21097   17.19900   -999.000   -999.000   -999.000   25.08109   67.99178   -999.000   81.38614 
  7086.000   0.050000   77.72900   7.729000   5.903000   9.832000   2.438000   14.27100   17.19700   -999.000   -999.000   -999.000   23.35800   64.42100   -999.000   77.72900 
  7086.500   0.093004   81.17709   7.552472   5.924498   9.998922   2.408995   14.19604   17.33853   -999.000   -999.000   -999.000   28.41977   70.06459   -999.000   81.17709 
  7087.000   0.136000   84.62200   7.376000   5.946000   10.16600   2.380000   14.12100   17.48000   -999.000   -999.000   -999.000   33.48300   75.70500   -999.000   84.62200 
  7087.500   0.092490   83.23110   7.085990   6.162014   9.138985   2.449482   14.22546   17.64541   -999.000   -999.000   -999.000   36.46883   83.74584   -999.000   83.23110 
  7088.000   0.049000   81.83900   6.796000   6.378000   8.112000   2.519000   14.33000   17.81100   -999.000   -999.000   -999.000   39.45500   91.78900   -999.000   81.83900 
  7088.500   0.031006   74.89844   6.362543   6.344499   7.820778   2.550493   14.21103   17.87397   -999.000   -999.000   -999.000   38.18865   91.68044   -999.000   74.89844 
  7089.000   0.013000   67.96400   5.929000   6.311000   7.530000   2.582000   14.09200   17.93700   -999.000   -999.000   -999.000   36.92300   91.57200   -999.000   67.96400 
  7089.500   0.011499   66.73427   5.836946   6.376470   7.602487   2.594499   14.44964   18.42761   -999.000   -999.000   -999.000   34.97823   94.51138   -999.000   66.73427 
  7090.000   0.010000   65.50600   5.745000   6.442000   7.675000   2.607000   14.80700   18.91800   -999.000   -999.000   -999.000   33.03300   97.44800   -999.000   65.50600 
  7090.500   0.011499   69.33058   5.778515   6.336506   7.876396   2.611500   14.25542   18.81505   -999.000   -999.000   -999.000   32.05768   96.72752   -999.000   69.33058 
  7091.000   0.013000   73.15400   5.812000   6.231000   8.078000   2.616000   13.70400   18.71200   -999.000   -999.000   -999.000   31.08300   96.00800   -999.000   73.15400 
  7091.500   0.011500   75.30862   5.828497   5.856777   7.916938   2.612501   13.86803   18.51253   -999.000   -999.000   -999.000   31.36104   97.04524   -999.000   75.30862 
  7092.000   0.010000   77.46400   5.845000   5.483000   7.756000   2.609000   14.03200   18.31300   -999.000   -999.000   -999.000   31.63900   98.08200   -999.000   77.46400 
  7092.500   -999.000   77.71011   5.782990   5.426513   7.410056   2.611501   14.31549   17.91011   -999.000   -999.000   -999.000   32.29901   100.9975   -999.000   77.71011 
  7093.000   -999.000   77.95600   5.721000   5.370000   7.064000   2.614000   14.59900   17.50700   -999.000   -999.000   -999.000   32.95900   103.9100   -999.000   77.95600 
  7093.500   -999.000   78.30070   5.603457   5.575550   6.965443   2.603497   14.24090   17.13598   -999.000   -999.000   -999.000   33.41543   103.0651   -999.000   78.30070 
  7094.000   -999.000   78.64500   5.486000   5.781000   6.867000   2.593000   13.88300   16.76500   -999.000   -999.000   -999.000   33.87200   102.2210   -999.000   78.64500 
  7094.500   -999.000   79.24292   5.583983   5.918954   6.974021   2.587996   13.95749   16.64295   -999.000   -999.000   -999.000   34.29736   99.22406   -999.000   79.24292 
  7095.000   0.013000   79.84100   5.682000   6.057000   7.081000   2.583000   14.03200   16.52100   -999.000   -999.000   -999.000   34.72300   96.22800   -999.000   79.84100 
  7095.500   -999.000   79.47388   5.834031   6.230934   7.181513   2.585000   13.98752   16.52150   -999.000   -999.000   -999.000   34.29557   97.50743   -999.000   79.47388 
  7096.000   -999.000   79.10700   5.986000   6.405000   7.282000   2.587000   13.94300   16.52200   -999.000   -999.000   -999.000   33.86800   98.78600   -999.000   79.10700 
  7096.500   -999.000   79.06400   6.028515   6.496953   7.321471   2.591500   13.97251   16.42453   -999.000   -999.000   -999.000   33.83601   103.0057   -999.000   79.06400 
  7097.000   0.016000   79.02100   6.071000   6.589000   7.361000   2.596000   14.00200   16.32700   -999.000   -999.000   -999.000   33.80400   107.2290   -999.000   79.02100 
  7097.500   -999.000   78.91904   6.108998   6.483441   7.377007   2.597000   14.30065   16.14349   -999.000   -999.000   -999.000   33.89005   107.8442   -999.000   78.91904 
  7098.000   -999.000   78.81700   6.147000   6.378000   7.393000   2.598000   14.59900   15.96000   -999.000   -999.000   -999.000   33.97600   108.4600   -999.000   78.81700 
  7098.500   -999.000   78.44153   6.245510   6.450995   7.426996   2.595501   14.10676   15.83653   -999.000   -999.000   -999.000   32.84265   103.9426   -999.000   78.44153 
  7099.000   0.019000   78.06600   6.344000   6.524000   7.461000   2.593000   13.61500   15.71300   -999.000   -999.000   -999.000   31.71000   99.42800   -999.000   78.06600 
  7099.500   -999.000   76.30440   6.396013   6.654006   7.582050   2.568002   13.88310   15.84654   -999.000   -999.000   -999.000   30.92170   95.87303   -999.000   76.30440 
