~VERSION INFORMATION
VERS.                               2.00: CWLS LOG ASCII STANDARD VERSION 2.00
WRAP.                               NO  : ONE LINE PER DEPTH STEP               
~WELL INFORMATION
#MNEM.UNIT                     DATA TYPE  INFORMATION
#----------------------------------------------------------------------
STRT.F                            920.00: START DEPTH
STOP.F                           9532.00: STOP DEPTH
STEP.F                              0.50: STEP VALUE
NULL.                            -999.00: NULL VALUE
COMP.                                   : COMPANY                               
WELL.                       SRS TERN A-1: WELL                                  
FLD .            Granite Pt/Beluga River: FIELD                                 
LOC .      10N  10W   19 0585FNL 0636FWL: LOCATION                              
CNTY.                 GREATER_COOK_INLET: COUNTY                                
STAT.                             Alaska: STATE                                 
CTRY.                                 US: COUNTRY                               
SRVC.                                   : SERVICE COMPANY                       
DATE.                                   : LOG DATE                              
API .                   50733203530000  : UNIQUE WELL IDENTIFIER                
~PARAMETER INFORMATION                                                          
#MNEM.UNIT        VALUE   DESCRIPTION                                           
#---------      --------  -----------                                           
ELEV    .F          171.5: KB ELEVATION                                         
TDD     .F         9519.0: TOTAL DEPTH DRILLED                                  
~OTHER INFORMATION                                                              
FLS0    .          CIRCULATED                                                   
LGD0    .          7/13/82                                                      
MT0     .          DIS GEL H2O                                                  
FLS0    .          CIRCULATED                                                   
LGD0    .          7/24/82                                                      
FLS0    .          FLOWLINE                                                     
LGD0    .          8/2/82                                                       
MT0     .          LOW SOLIDS NONDISPERSED                                      
~CURVE INFORMATION                                                              
#MNEM.UNIT                 DESCRIPTION                                          
#---------                 -----------                                          
DEPTH   .F               :  1 DEPTH
GR      .GAPI          00:  2 GAMMA RAY                                       
SP      .MV            00:  3 SELF POTENTIAL                                  
CALI    .IN            00:  4 CALIPER                                         
SFL     .OHMM          00:  5 SPHER. OR SHAL. FOC. LOG                        
ILD     .OHMM          00:  6 INDUCTION LOG DEEP                              
ILM     .OHMM          00:  7 INDUCTION LOG MEDIUM                            
CNS     .%             00:  8 COMPENSATED NEUT (-S)                           
DRHO    .G/C3          00:  9 DENSITY CORRECTN                                
RHOB    .G/C3          00: 10 BULK DENSITY                                    
DT      .US/F          00: 11 INTERV TRANSIT TIME                             
MNOR    .OHMM          00: 12 NORMAL MICROLOG                                 
MINV    .OHMM          00: 13 INV MICROLOG                                    
PROX    .OHMM          00: 14 PROXIMITY LOG                                   
POTA    .PPM           00: 15 POTASSIUM                                       
URAN    .PPM           00: 16 URANIUM                                         
THOR    .PPM           00: 17 THORIUM                                         
SGR     .GAPI          00: 18 GAMMA RAY                                       
CGR     .GAPI          00: 19 GAMMA RAY                                       
~A  DEPTH    GR         SP         CALI       SFL        ILD        ILM        CNS        DRHO       RHOB       DT         MNOR       MINV       PROX       POTA       URAN       THOR       SGR        CGR                                                   
# ...
  7667.000   70.27180   -32.3448   8.545200   7.495600   7.404600   7.441300   29.36000   0.032000   2.392100   89.54250   -999.000   -999.000   5.836800   0.021861   1.060771   7.293913   74.60724   64.82239 
  7667.500   70.50140   -32.8377   8.584500   7.328800   7.222500   7.289900   30.14000   0.033200   2.404100   89.59530   -999.000   -999.000   5.032600   0.021899   1.095222   7.396669   75.49005   65.30270 
  7668.000   71.76910   -34.1033   8.615600   7.251000   7.118000   7.141500   30.92000   0.036500   2.410500   90.64680   -999.000   -999.000   6.687800   0.021883   1.206890   7.505300   76.73094   65.73029 
  7668.500   75.97250   -35.6810   8.634700   7.096700   7.001900   7.040900   31.70000   0.042800   2.402000   91.56470   -999.000   -999.000   8.153600   0.021905   1.408979   7.641856   78.90710   66.22353 
  7669.000   79.33640   -36.7820   8.637100   6.945800   6.862100   6.969400   31.49000   0.054500   2.387800   91.77020   -999.000   -999.000   6.542100   0.022049   1.617954   7.801652   81.26704   66.82251 
  7669.500   82.11060   -37.4958   8.639700   6.811800   6.713700   6.898700   31.10000   0.066200   2.373600   91.29780   -999.000   -999.000   5.249100   0.022249   1.796786   7.943506   83.06647   67.57021 
  7670.000   83.86060   -38.4739   8.646300   7.396000   7.011500   6.861700   31.56000   0.078000   2.368200   90.82550   -999.000   -999.000   7.512800   0.022512   1.936077   8.077147   84.86902   68.47604 
  7670.500   84.57230   -39.5007   8.652900   8.030300   7.329500   7.116500   32.02000   0.089700   2.380400   90.35310   -999.000   -999.000   10.01990   0.022789   2.035613   8.266926   86.81120   69.90762 
  7671.000   85.28400   -40.3313   8.659400   8.214400   7.671400   7.380700   32.23000   0.087900   2.373500   89.88080   -999.000   -999.000   9.475900   0.022907   2.191058   8.498755   89.51717   71.62560 
  7671.500   85.61690   -40.3325   8.666000   7.476100   8.085400   7.745000   30.72000   0.084400   2.365000   89.56750   4.825900   3.911300   9.286100   0.021845   2.345672   8.795786   92.92151   72.21446 
  7672.000   83.88350   -40.2179   8.674500   7.413500   8.521600   8.128100   29.21000   0.081000   2.355800   89.58260   4.925100   4.091500   11.09290   0.021032   2.420178   9.021221   90.24916   71.53908 
  7672.500   79.76650   -40.0287   8.690800   8.234000   8.981400   8.530200   29.51000   0.077500   2.358200   89.89220   5.024300   4.271700   13.25130   0.020467   2.250217   8.698910   86.12553   70.27484 
  7673.000   73.95180   -39.6764   8.707100   9.145300   9.466000   8.952100   31.38000   0.070500   2.373900   90.74720   5.123500   5.118700   10.73510   0.020391   2.017267   8.381699   82.06938   68.09940 
  7673.500   69.90650   -39.3943   8.723400   10.15740   9.966300   9.394900   33.25000   0.056000   2.363800   92.03620   5.222800   6.844200   10.44760   0.020141   1.710077   8.141245   77.53046   66.28586 
  7674.000   68.80430   -39.1946   8.759900   11.50240   10.47230   9.859600   31.73000   0.041400   2.341000   90.90370   5.322000   6.145400   9.727800   0.019740   1.366440   7.976163   74.04768   64.98781 
  7674.500   68.08380   -38.9950   8.986100   12.27640   11.00410   10.34720   29.57000   0.026900   2.311800   89.97110   5.421200   5.446600   8.097600   0.019347   1.031826   7.779316   70.97060   63.79984 
  7675.000   65.87250   -38.8117   9.092600   13.96590   11.56280   10.85900   28.32000   0.012400   2.297900   88.19280   4.943700   4.747800   6.633900   0.019011   0.835683   7.503461   69.19548   63.10738 
  7675.500   67.31000   -38.6646   8.991700   15.28460   11.61840   11.09380   27.10000   0.032600   2.360000   87.02500   4.377800   4.049000   6.637100   0.019187   0.954497   7.687274   70.38538   63.83308 
  7676.000   69.42690   -38.5750   8.890900   14.87220   11.42090   11.20460   26.16000   0.053300   2.401700   87.41990   3.811900   3.350200   7.800900   0.019460   1.135060   8.091099   72.96472   65.06029 
  7676.500   73.38890   -38.4854   8.832800   13.36540   11.22670   11.11920   26.48000   0.074000   2.426900   88.05620   3.796400   3.169000   9.168800   0.019846   1.340360   8.508173   76.23189   66.27914 
  7677.000   78.88450   -38.4441   8.825000   12.35570   11.03590   10.92330   26.81000   0.094500   2.443600   88.51720   3.891100   3.126300   10.77650   0.020459   1.553334   8.389359   79.29753   67.19247 
  7677.500   81.40110   -38.3646   8.777800   11.49810   11.10450   11.03070   27.14000   0.091000   2.453500   88.01220   3.985900   3.083500   11.13910   0.021139   1.450222   8.127655   78.23831   67.82791 
  7678.000   83.63580   -38.2520   8.730500   11.47750   11.39340   11.33430   26.72000   0.087500   2.440500   87.40270   4.080700   3.040800   11.62710   0.021634   1.255636   7.839380   76.05504   67.69019 
  7678.500   79.87540   -38.0906   8.776200   11.77100   11.69730   11.64620   25.97000   0.084000   2.432400   86.91320   4.199200   2.998000   12.25000   0.021879   1.020617   7.699879   73.19577   67.54106 
  7679.000   76.44460   -37.9292   9.300600   13.92460   12.00940   11.96680   25.22000   0.093100   2.413300   86.53880   4.447200   2.955300   11.15990   0.022105   0.837525   7.584048   71.34578   67.19434 
  7679.500   70.82770   -37.7080   9.716600   15.96380   12.40060   12.29610   24.47000   0.115000   2.421900   85.88420   4.536000   2.912500   10.16670   0.021613   0.670795   7.716306   70.67912   66.88397 
  7680.000   66.90070   -37.4610   9.890500   16.42150   12.85460   12.63460   24.63000   0.136800   2.431600   85.61810   4.624800   2.869800   9.262000   0.021195   0.558349   7.912354   70.63437   66.83034 
  7680.500   64.14620   -37.2490   10.05890   16.20520   13.32530   12.98230   24.98000   0.151100   2.441200   85.78480   4.713600   2.921700   8.437800   0.021061   0.586723   8.219309   72.59514   66.79022 
  7681.000   62.52840   -37.0458   10.17900   15.99180   13.81320   13.33960   25.34000   0.147100   2.450800   85.95450   4.802400   3.020900   8.707000   0.021341   0.622546   8.064024   73.28058   67.64488 
  7681.500   62.86380   -36.8425   10.15530   14.61490   13.61320   13.38090   25.69000   0.143000   2.449000   86.13560   4.891200   3.120100   9.289100   0.021757   0.594123   7.942550   73.55205   67.63228 
  7682.000   63.90230   -36.9064   10.16010   13.43110   13.30910   13.28210   26.04000   0.139000   2.443100   86.11850   4.980000   3.144000   8.748900   0.022096   0.550456   7.835027   73.74606   67.61391 
  7682.500   66.04540   -37.0448   10.16700   12.93950   13.01190   13.14400   26.39000   0.135400   2.436700   85.83600   4.618100   2.910800   7.579500   0.022386   0.511275   7.880965   73.91678   67.93428 
  7683.000   67.36330   -37.4414   10.16970   12.46590   12.74600   12.74600   26.75000   0.134000   2.440000   85.27620   4.142700   2.677500   7.511900   0.022339   0.492514   7.956680   74.11415   68.44682 
  7683.500   68.27360   -37.9788   10.17250   12.29450   12.68010   12.68010   27.10000   0.132600   2.445400   84.78720   3.667300   2.561500   8.477600   0.021980   0.479592   8.116278   74.33113   69.17697 
  7684.000   69.12100   -38.1512   10.17350   12.44440   12.63170   12.63170   27.45000   0.130900   2.432400   84.68210   3.325600   2.749400   8.923900   0.021410   0.508258   8.371929   74.62512   69.54446 
  7684.500   69.96360   -38.1662   10.16510   12.47640   12.47640   12.47640   27.37000   0.117600   2.419700   85.32630   3.567300   2.936600   9.172000   0.021161   0.564451   8.625765   75.37650   69.68529 
  7685.000   70.71950   -38.0270   9.598800   12.16060   12.16060   12.16060   27.23000   0.098600   2.393500   86.09030   3.809000   2.789600   8.334200   0.021180   0.677910   8.693224   76.45415   70.11974 
  7685.500   70.89950   -37.7774   9.614900   11.66170   11.66170   11.66170   27.09000   0.102500   2.394400   86.85790   3.965100   2.642500   7.040800   0.021697   0.766672   8.571505   77.51237   70.58963 
  7686.000   71.07960   -37.1106   9.643300   11.23430   11.23430   11.23430   26.95000   0.112700   2.411700   87.39380   3.964600   2.495500   6.660000   0.022951   0.806596   8.442728   78.55772   71.32257 
