~VERSION INFORMATION
VERS.                               2.00: CWLS LOG ASCII STANDARD VERSION 2.00
WRAP.                               NO  : ONE LINE PER DEPTH STEP               
~WELL INFORMATION
#MNEM.UNIT                     DATA TYPE  INFORMATION
#----------------------------------------------------------------------
STRT.F                           1691.00: START DEPTH
STOP.F                          10167.00: STOP DEPTH
STEP.F                              0.50: STEP VALUE
NULL.                            -999.00: NULL VALUE
COMP.                                   : COMPANY                               
WELL.                        MGS C-22-23: WELL                                  
FLD .                            Unknown: FIELD                                 
LOC .                                   : LOCATION                              
CNTY.                                   : COUNTY                                
STAT.                                   : STATE                                 
CTRY.                                   : COUNTRY                               
SRVC.                                   : SERVICE COMPANY                       
DATE.                                   : LOG DATE                              
API .                   50733203970000  : UNIQUE WELL IDENTIFIER                
~PARAMETER INFORMATION                                                          
#MNEM.UNIT        VALUE   DESCRIPTION                                           
#---------      --------  -----------                                           
~OTHER INFORMATION                                                              
CSG0    .          9.625" @ 6034                                                
FLS0    .          CIRC                                                         
LGD0    .          6/6/1988                                                     
MT0     .          #2                                                           
~CURVE INFORMATION                                                              
#MNEM.UNIT                 DESCRIPTION                                          
#---------                 -----------                                          
DEPTH   .F               :  1 DEPTH
DRHO    .G/C3          00:  2 DENSITY CORRECTN                                
RHOB    .G/C3          00:  3 BULK DENSITY                                    
CALI    .IN            00:  4 CALIPER                                         
DTL     .MS/F          00:  5 INTERV TRANSIT TIME LONG                        
DT_ORIG .MS/F          00:  6 ORIGINAL SONIC CURVE                            
GR      .GAPI          00:  7 GAMMA RAY                                       
IDPH    .OHMM          00:  8 INDUCTION DB PHASOR                             
ILD     .OHMM          00:  9 INDUCTION LOG DEEP                              
ILM     .OHMM          00: 10 INDUCTION LOG MEDIUM                            
IMPH    .OHMM          00: 11 INDUCTION MEDIUM PHASOR                         
SFL     .OHMM          00: 12 SPHER. OR SHAL. FOC. LOG                        
SP      .MV            00: 13 SELF POTENTIAL                                  
PEF     .B/E           00: 14 FOTO ELECTRO. XSCT                              
DT      .MS/F          00: 15 INTERV TRANSIT TIME                             
~A  DEPTH    DRHO       RHOB       CALI       DTL        DT_ORIG    GR         IDPH       ILD        ILM        IMPH       SFL        SP         PEF        DT                                                                                                
# ...
  7301.500   -.001000   2.627519   10.25001   70.87500   72.18750   72.03043   10.65200   10.43398   8.961006   8.898000   10.76532   -40.0470   5.650726   72.18750 
  7302.000   -.005000   2.564000   10.27300   67.87500   69.75000   75.12500   10.60900   10.39100   8.945000   8.898000   11.85900   -39.8440   5.117000   69.75000 
  7302.500   -.002500   2.553000   10.12105   74.06250   74.68750   81.56250   10.80053   10.57044   9.308388   9.250075   10.35538   -40.4222   5.560300   74.68750 
  7303.000   0.000000   2.542000   9.969000   80.25000   79.62500   88.00000   10.99200   10.75000   9.672000   9.602000   8.852000   -41.0000   6.004000   79.62500 
  7303.500   -.003000   2.520005   9.859454   79.75000   79.56250   83.18750   11.37513   11.10172   10.26914   10.23854   9.090018   -41.4532   5.183038   79.56250 
  7304.000   -.006000   2.498000   9.750000   79.25000   79.50000   78.37500   11.75800   11.45300   10.86700   10.87500   9.328000   -41.9060   4.363000   79.50000 
  7304.500   -.008001   2.498000   9.469091   80.06250   80.56250   72.65467   12.24260   11.96499   11.10541   11.35930   12.11118   -42.6879   4.124900   80.56250 
  7305.000   -.010000   2.498000   9.188000   80.87500   81.62500   66.93800   12.72700   12.47700   11.34400   11.84400   14.89100   -43.4690   3.887000   81.62500 
  7305.500   -.007501   2.519991   9.020041   78.75000   78.62500   60.69976   12.53955   12.35954   10.90674   11.48469   16.82923   -43.8285   4.381238   78.62500 
  7306.000   -.005000   2.542000   8.852000   76.62500   75.62500   54.46900   12.35200   12.24200   10.46900   11.12500   18.76600   -44.1880   4.875000   75.62500 
  7306.500   -.006500   2.544000   9.762341   74.75000   75.25000   57.38981   11.39090   11.31278   9.570587   10.11336   18.19503   -44.1255   4.634988   75.25000 
  7307.000   -.008000   2.546000   10.67200   72.87500   74.87500   60.31300   10.43000   10.38300   8.672000   9.102000   17.62500   -44.0630   4.395000   74.87500 
  7307.500   -.006499   2.540998   10.83609   76.56250   77.20934   61.20881   9.641451   9.632813   7.738544   8.132858   12.20802   -43.1885   4.467036   77.20934 
  7308.000   -.005000   2.536000   11.00000   80.25000   79.54300   62.10400   8.852000   8.883000   6.805000   7.164000   6.789000   -42.3130   4.539000   79.54300 
  7308.500   -.007001   2.526997   11.02350   80.62500   79.77159   61.20820   8.236335   8.244173   6.740470   6.732399   5.929738   -41.2659   4.708986   79.77159 
  7309.000   -.009000   2.518000   11.04700   81.00000   80.00000   60.31300   7.621000   7.605000   6.676000   6.301000   5.070000   -40.2190   4.879000   80.00000 
  7309.500   -.005998   2.514999   11.09401   79.62500   79.87500   60.62549   7.189711   7.138691   6.619521   6.339988   5.718850   -40.3440   5.152443   79.87500 
  7310.000   -.003000   2.512000   11.14100   78.25000   79.75000   60.93800   6.758000   6.672000   6.563000   6.379000   6.367000   -40.4690   5.426000   79.75000 
  7310.500   -.002500   2.510500   11.41940   78.91640   79.64644   61.67595   6.672017   6.587991   6.363423   6.402507   6.919934   -40.2660   5.875990   79.64644 
  7311.000   -.002000   2.509000   11.69800   79.58300   79.54300   62.41400   6.586000   6.504000   6.164000   6.426000   7.473000   -40.0630   6.326000   79.54300 
  7311.500   -.003000   2.479512   11.98210   81.16565   80.83351   62.20700   6.605508   6.542978   6.043005   6.238525   7.861309   -39.9536   6.512513   80.83351 
  7312.000   -.004000   2.450000   12.26600   82.75000   82.12500   62.00000   6.625000   6.582000   5.922000   6.051000   8.250000   -39.8440   6.699000   82.12500 
  7312.500   -.014494   2.311520   11.57084   84.25000   84.81250   60.43750   6.717031   6.683486   5.885020   5.935449   7.736691   -39.7345   7.384376   84.81250 
  7313.000   -.025000   2.173000   10.87500   85.75000   87.50000   58.87500   6.809000   6.785000   5.848000   5.820000   7.223000   -39.6250   8.070000   87.50000 
  7313.500   -.024000   2.153998   10.49610   88.43750   89.18750   55.18750   7.101862   7.023407   6.006074   5.966424   6.834221   -40.1094   6.539088   89.18750 
  7314.000   -.023000   2.135000   10.11700   91.12500   90.87500   51.50000   7.395000   7.262000   6.164000   6.113000   6.445000   -40.5940   5.008000   90.87500 
  7314.500   -.065514   1.877575   10.48472   97.72371   97.87500   45.45530   8.322444   8.107474   7.097058   6.806840   6.507507   -40.8286   5.329895   97.87500 
  7315.000   -.108000   1.620000   10.85200   104.3200   104.8750   39.40600   9.250000   8.953000   8.031000   7.500000   6.570000   -41.0630   5.652000   104.8750 
  7315.500   -.111998   1.536971   10.79700   110.5445   111.5101   34.69500   11.23937   10.76892   9.710300   9.430069   8.500898   -41.5938   4.623001   111.5101 
  7316.000   -.116000   1.454000   10.74200   116.7730   118.1480   29.98800   13.22700   12.58600   11.39100   11.35900   10.43000   -42.1250   3.594000   118.1480 
  7316.500   -.107007   1.421993   10.99194   122.2013   122.0099   30.56423   19.14495   17.91839   14.72656   15.78905   23.35757   -42.5942   3.228455   122.0099 
  7317.000   -.098000   1.390000   11.24200   127.6250   125.8750   31.14100   25.06300   23.25000   18.06300   20.21900   36.28100   -43.0630   2.863000   125.8750 
  7317.500   -.088502   1.366987   11.27349   126.0625   126.1875   30.32078   38.17281   33.37500   27.34326   30.92163   46.82670   -44.3433   2.754544   126.1875 
  7318.000   -.079000   1.344000   11.30500   124.5000   126.5000   29.50000   51.28100   43.50000   36.62500   41.62500   57.37500   -45.6250   2.646000   126.5000 
  7318.500   -.067507   1.392989   10.75394   123.8337   124.6875   30.92266   43.74766   37.07022   58.46641   73.37500   112.7500   -44.8750   2.832909   124.6875 
  7319.000   -.056000   1.442000   10.20300   123.1670   122.8750   32.34400   36.21900   30.64100   80.31300   105.1250   168.1250   -44.1250   3.020000   122.8750 
  7319.500   -.036991   1.736288   11.02358   119.6448   119.0625   43.62684   26.24339   22.54539   57.32904   78.18750   187.6875   -44.3281   9.739922   119.0625 
  7320.000   -.018000   2.031000   11.84400   116.1250   115.2500   54.90600   16.26600   14.45300   34.34400   51.25000   207.2500   -44.5310   16.45300   115.2500 
  7320.500   -.007493   2.235950   11.18746   101.0625   100.4111   64.38995   14.96859   13.76139   22.08253   32.55701   115.8750   -44.2970   13.82306   100.4111 
  7321.000   0.003000   2.441000   10.53100   86.00000   85.57800   73.87500   13.67200   13.07000   9.836000   13.89100   24.50000   -44.0630   11.19500   85.57800 
  7321.500   -.006004   2.438501   9.746258   83.25000   84.10077   73.43750   12.30878   11.85875   9.262359   10.86394   15.73921   -44.1880   8.622856   84.10077 
  7322.000   -.015000   2.436000   8.961000   80.50000   82.62500   73.00000   10.94500   10.64800   8.688000   7.840000   6.977000   -44.3130   6.047000   82.62500 
  7322.500   -.016999   2.427004   8.828055   81.43750   82.50000   64.14079   10.12498   9.793276   8.812988   7.775526   9.322765   -44.4689   5.458860   82.50000 
  7323.000   -.019000   2.418000   8.695000   82.37500   82.37500   55.28100   9.305000   8.938000   8.938000   7.711000   11.67200   -44.6250   4.871000   82.37500 
  7323.500   -.027995   2.389993   8.679494   83.81250   84.56250   48.34375   9.281507   8.921998   8.758091   8.445666   12.10139   -45.0313   5.407935   84.56250 
  7324.000   -.037000   2.362000   8.664000   85.25000   86.75000   41.40600   9.258000   8.906000   8.578000   9.180000   12.53100   -45.4380   5.945000   86.75000 
  7324.500   -.035499   2.348996   8.613509   86.25000   86.62500   41.28101   9.390495   9.081934   8.142556   8.976534   10.95317   -45.3285   6.099469   86.62500 
  7325.000   -.034000   2.336000   8.563000   87.25000   86.50000   41.15600   9.523000   9.258000   7.707000   8.773000   9.375000   -45.2190   6.254000   86.50000 
  7325.500   -.030501   2.347507   8.516006   85.04282   85.14738   40.17207   9.527000   9.324484   7.697493   8.218285   8.221805   -45.6248   7.408150   85.14738 
