~VERSION INFORMATION
VERS.                               2.00: CWLS LOG ASCII STANDARD VERSION 2.00
WRAP.                               NO  : ONE LINE PER DEPTH STEP               
~WELL INFORMATION
#MNEM.UNIT                     DATA TYPE  INFORMATION
#----------------------------------------------------------------------
STRT.F                            920.00: START DEPTH
STOP.F                           9532.00: STOP DEPTH
STEP.F                              0.50: STEP VALUE
NULL.                            -999.00: NULL VALUE
COMP.                                   : COMPANY                               
WELL.                       SRS TERN A-1: WELL                                  
FLD .            Granite Pt/Beluga River: FIELD                                 
LOC .      10N  10W   19 0585FNL 0636FWL: LOCATION                              
CNTY.                 GREATER_COOK_INLET: COUNTY                                
STAT.                             Alaska: STATE                                 
CTRY.                                 US: COUNTRY                               
SRVC.                                   : SERVICE COMPANY                       
DATE.                                   : LOG DATE                              
API .                   50733203530000  : UNIQUE WELL IDENTIFIER                
~PARAMETER INFORMATION                                                          
#MNEM.UNIT        VALUE   DESCRIPTION                                           
#---------      --------  -----------                                           
ELEV    .F          171.5: KB ELEVATION                                         
TDD     .F         9519.0: TOTAL DEPTH DRILLED                                  
~OTHER INFORMATION                                                              
FLS0    .          CIRCULATED                                                   
LGD0    .          7/13/82                                                      
MT0     .          DIS GEL H2O                                                  
FLS0    .          CIRCULATED                                                   
LGD0    .          7/24/82                                                      
FLS0    .          FLOWLINE                                                     
LGD0    .          8/2/82                                                       
MT0     .          LOW SOLIDS NONDISPERSED                                      
~CURVE INFORMATION                                                              
#MNEM.UNIT                 DESCRIPTION                                          
#---------                 -----------                                          
DEPTH   .F               :  1 DEPTH
GR      .GAPI          00:  2 GAMMA RAY                                       
SP      .MV            00:  3 SELF POTENTIAL                                  
CALI    .IN            00:  4 CALIPER                                         
SFL     .OHMM          00:  5 SPHER. OR SHAL. FOC. LOG                        
ILD     .OHMM          00:  6 INDUCTION LOG DEEP                              
ILM     .OHMM          00:  7 INDUCTION LOG MEDIUM                            
CNS     .%             00:  8 COMPENSATED NEUT (-S)                           
DRHO    .G/C3          00:  9 DENSITY CORRECTN                                
RHOB    .G/C3          00: 10 BULK DENSITY                                    
DT      .US/F          00: 11 INTERV TRANSIT TIME                             
MNOR    .OHMM          00: 12 NORMAL MICROLOG                                 
MINV    .OHMM          00: 13 INV MICROLOG                                    
PROX    .OHMM          00: 14 PROXIMITY LOG                                   
POTA    .PPM           00: 15 POTASSIUM                                       
URAN    .PPM           00: 16 URANIUM                                         
THOR    .PPM           00: 17 THORIUM                                         
SGR     .GAPI          00: 18 GAMMA RAY                                       
CGR     .GAPI          00: 19 GAMMA RAY                                       
~A  DEPTH    GR         SP         CALI       SFL        ILD        ILM        CNS        DRHO       RHOB       DT         MNOR       MINV       PROX       POTA       URAN       THOR       SGR        CGR                                                   
# ...
  6594.500   61.66550   -33.0174   9.112500   6.406900   6.670500   6.623400   33.76000   0.049700   2.307367   100.0982   -999.000   -999.000   5.235400   0.017033   1.581186   4.933821   62.20837   49.51394 
  6595.000   61.48420   -33.9980   8.996300   6.840100   6.884100   6.625500   32.77000   0.040700   2.308356   99.39360   -999.000   -999.000   5.695900   0.016850   1.619122   4.831361   62.42449   49.26369 
  6595.500   61.30300   -34.7655   8.946300   7.316500   7.104500   6.849700   32.29000   0.031500   2.317824   98.98450   -999.000   -999.000   6.306000   0.017769   1.662905   4.807011   63.38905   49.85759 
  6596.000   61.12170   -35.5320   8.906600   7.862700   7.332000   7.125800   31.78000   0.034800   2.314221   98.15750   -999.000   -999.000   7.075400   0.018509   1.746963   5.092252   64.54472   50.82104 
  6596.500   61.16050   -35.8159   8.899100   8.449700   7.566700   7.412900   31.79000   0.037500   2.276798   98.82030   -999.000   -999.000   7.938700   0.017987   1.723975   4.949335   64.49437   49.98176 
  6597.000   61.34570   -35.6848   8.927700   8.696700   7.574500   7.711700   32.84000   0.038700   2.232049   100.0047   -999.000   -999.000   8.907300   0.017295   1.603851   4.957627   64.42416   50.12373 
  6597.500   62.77040   -35.4598   8.974800   8.561600   7.363900   7.626500   34.70000   0.038600   2.211625   101.6043   -999.000   -999.000   8.733800   0.017444   1.619221   5.090980   64.89082   50.55987 
  6598.000   64.31240   -35.2347   9.004600   7.755700   7.159200   7.350700   35.38000   0.040900   2.233014   101.7076   -999.000   -999.000   5.728200   0.017708   1.676286   5.340066   65.72192   51.29506 
  6598.500   65.36380   -34.9531   9.131100   6.972100   6.960200   6.901500   35.32000   0.046600   2.274529   100.6429   -999.000   -999.000   4.345300   0.017582   1.809094   5.591036   67.37807   52.03025 
  6599.000   63.63630   -34.6497   9.156200   6.267700   6.766800   6.479800   35.20000   0.067900   2.306818   99.75870   -999.000   -999.000   4.222500   0.017222   1.967129   5.836855   68.53310   52.68187 
  6599.500   61.90890   -34.2718   9.159500   5.654500   6.578700   6.083900   33.48000   0.077400   2.325187   98.12530   -999.000   -999.000   4.105500   0.016667   2.067097   5.751409   69.45605   53.27617 
  6600.000   62.07370   -34.0173   9.142100   5.593700   6.395800   5.712100   33.72000   0.083700   2.329895   97.50720   -999.000   -999.000   4.142300   0.016628   2.196380   5.614444   69.88306   52.48318 
  6600.500   62.27620   -34.3871   9.124600   5.533500   6.218000   5.680800   34.19000   0.090100   2.332391   97.07070   -999.000   -999.000   4.179500   0.016875   2.289647   5.608124   69.80962   52.39975 
  6601.000   61.79450   -35.0369   9.097400   5.544100   6.045200   5.657100   34.76000   0.099500   2.333828   97.31730   -999.000   -999.000   4.126900   0.017207   2.119386   5.253042   69.29524   52.34244 
  6601.500   60.50010   -35.8882   9.071700   5.603700   5.877200   5.633500   35.05000   0.101800   2.323443   98.14120   -999.000   -999.000   4.051900   0.016831   2.103830   5.270290   69.40862   52.66210 
  6602.000   59.47680   -36.6670   9.059900   5.624900   5.801600   5.646400   35.34000   0.093000   2.302434   98.95560   -999.000   -999.000   3.933100   0.016591   2.220616   5.599598   69.73846   52.97262 
  6602.500   58.91500   -37.6770   9.048000   5.769200   5.801100   5.792300   35.63000   0.085400   2.289951   99.35900   -999.000   -999.000   3.867900   0.016589   2.311825   5.800318   70.48259   52.73317 
  6603.000   58.57320   -38.5798   9.036100   5.936400   6.020500   5.981100   35.60000   0.081400   2.286103   99.35490   -999.000   -999.000   3.907700   0.016568   2.388615   5.784911   70.96898   52.50137 
  6603.500   58.34960   -39.0798   9.018800   6.234700   6.370200   6.201100   35.35000   0.073200   2.278784   99.21990   -999.000   -999.000   4.034200   0.015729   2.362611   5.764004   70.13087   52.26958 
  6604.000   57.97530   -39.2562   8.995300   6.456100   6.740200   6.445200   35.21000   0.040500   2.276405   99.17190   -999.000   -999.000   5.624700   0.014805   2.232230   5.724058   67.64990   50.61759 
  6604.500   57.46740   -38.9135   8.971800   6.662400   7.131600   6.918200   33.84000   0.024800   2.302318   99.50400   -999.000   -999.000   6.609000   0.014477   2.055068   5.626465   65.84587   49.48918 
  6605.000   57.13540   -38.5188   8.948300   6.988800   7.545800   7.426000   31.85000   0.026800   2.339767   100.3901   -999.000   -999.000   5.589100   0.014452   2.086661   5.454579   64.82268   48.41388 
  6605.500   56.60490   -38.2044   8.920900   6.914000   7.984000   7.918400   30.89000   0.028700   2.354184   101.4309   -999.000   -999.000   5.486000   0.014424   2.118145   5.292162   64.26921   47.83279 
  6606.000   55.37110   -38.1232   8.888600   6.536100   8.447700   8.435300   32.63000   0.030600   2.353683   101.7266   -999.000   -999.000   5.342200   0.014368   1.901394   5.097375   63.20965   47.68215 
  6606.500   54.13730   -38.5578   8.852200   6.893100   8.938400   8.986000   34.37000   0.029400   2.356510   97.01760   -999.000   -999.000   6.981400   0.014112   1.681861   4.754007   59.90928   47.97505 
  6607.000   50.22800   -39.0285   8.815000   9.750100   9.457500   9.572600   33.20000   0.017700   2.377392   89.15350   -999.000   -999.000   19.55230   0.013839   1.399673   4.096626   54.12232   46.77328 
  6607.500   46.31410   -39.8253   8.777800   14.13960   10.00680   10.98540   28.18000   0.010200   2.427778   79.12360   -999.000   -999.000   96.26310   0.013371   1.187550   3.641131   48.41517   42.19476 
  6608.000   43.03110   -40.6220   8.763600   22.43810   10.58790   13.30460   21.47000   0.019100   2.486953   76.25840   -999.000   -999.000   85.56860   0.013083   1.094619   3.487992   46.04116   36.18127 
  6608.500   44.62070   -40.6084   8.759000   30.83400   11.20290   12.53380   20.56000   0.027900   2.470197   72.38230   -999.000   -999.000   27.39850   0.012959   1.133056   3.985190   45.57077   36.52104 
  6609.000   51.08470   -39.5019   8.754500   22.17010   10.65600   11.51500   19.65000   0.036800   2.377675   76.81440   -999.000   -999.000   13.88880   0.013846   1.292818   4.377969   47.33743   38.63217 
  6609.500   57.09090   -38.3953   8.781800   15.55300   9.426300   9.883700   18.74000   0.045700   2.309774   85.67760   -999.000   -999.000   8.879900   0.015770   1.445495   4.505951   52.49162   42.68830 
  6610.000   63.09710   -37.6912   8.886500   10.54400   8.338500   8.424800   21.15000   0.054500   2.302913   90.23370   -999.000   -999.000   5.715700   0.017164   1.586440   4.613672   57.96803   46.38834 
  6610.500   65.46290   -37.4055   8.991200   7.148200   7.376200   7.181200   26.27000   0.066500   2.317204   95.74060   -999.000   -999.000   3.679000   0.017842   1.730814   4.741790   62.33047   49.03791 
  6611.000   66.21230   -37.3027   9.098200   4.846000   6.525000   6.121200   31.39000   0.078700   2.338294   99.75670   -999.000   -999.000   3.867800   0.017902   1.876835   4.913617   64.93286   50.39505 
  6611.500   69.19890   -37.4649   9.237500   4.679800   5.772000   5.572900   33.75000   0.093100   2.351574   98.41860   -999.000   -999.000   4.096000   0.017145   1.994854   5.204916   66.57973   50.29507 
  6612.000   65.75540   -37.6550   9.381300   4.999100   5.777000   5.726300   34.04000   0.106200   2.347459   97.09350   -999.000   -999.000   4.243900   0.016399   2.091775   5.699880   67.37323   50.15505 
  6612.500   62.45820   -37.8749   9.386900   5.571300   5.909500   5.883900   34.17000   0.113400   2.322947   96.36530   -999.000   -999.000   4.091000   0.015696   2.084695   5.825496   66.36864   49.79353 
  6613.000   60.96140   -38.1205   9.298100   5.936000   6.045100   6.045000   33.96000   0.112600   2.289794   96.23300   -999.000   -999.000   4.126300   0.015201   1.915842   5.745449   64.78766   49.42255 
  6613.500   60.69820   -38.3885   9.227500   6.231100   6.183700   6.183700   33.42000   0.080300   2.272345   96.60030   -999.000   -999.000   4.261500   0.016117   1.771842   5.600550   62.28970   49.05158 
