~VERSION INFORMATION
VERS.                               2.00: CWLS LOG ASCII STANDARD VERSION 2.00
WRAP.                               NO  : ONE LINE PER DEPTH STEP               
~WELL INFORMATION
#MNEM.UNIT                     DATA TYPE  INFORMATION
#----------------------------------------------------------------------
STRT.F                            920.00: START DEPTH
STOP.F                           9532.00: STOP DEPTH
STEP.F                              0.50: STEP VALUE
NULL.                            -999.00: NULL VALUE
COMP.                                   : COMPANY                               
WELL.                       SRS TERN A-1: WELL                                  
FLD .            Granite Pt/Beluga River: FIELD                                 
LOC .      10N  10W   19 0585FNL 0636FWL: LOCATION                              
CNTY.                 GREATER_COOK_INLET: COUNTY                                
STAT.                             Alaska: STATE                                 
CTRY.                                 US: COUNTRY                               
SRVC.                                   : SERVICE COMPANY                       
DATE.                                   : LOG DATE                              
API .                   50733203530000  : UNIQUE WELL IDENTIFIER                
~PARAMETER INFORMATION                                                          
#MNEM.UNIT        VALUE   DESCRIPTION                                           
#---------      --------  -----------                                           
ELEV    .F          171.5: KB ELEVATION                                         
TDD     .F         9519.0: TOTAL DEPTH DRILLED                                  
~OTHER INFORMATION                                                              
FLS0    .          CIRCULATED                                                   
LGD0    .          7/13/82                                                      
MT0     .          DIS GEL H2O                                                  
FLS0    .          CIRCULATED                                                   
LGD0    .          7/24/82                                                      
FLS0    .          FLOWLINE                                                     
LGD0    .          8/2/82                                                       
MT0     .          LOW SOLIDS NONDISPERSED                                      
~CURVE INFORMATION                                                              
#MNEM.UNIT                 DESCRIPTION                                          
#---------                 -----------                                          
DEPTH   .F               :  1 DEPTH
GR      .GAPI          00:  2 GAMMA RAY                                       
SP      .MV            00:  3 SELF POTENTIAL                                  
CALI    .IN            00:  4 CALIPER                                         
SFL     .OHMM          00:  5 SPHER. OR SHAL. FOC. LOG                        
ILD     .OHMM          00:  6 INDUCTION LOG DEEP                              
ILM     .OHMM          00:  7 INDUCTION LOG MEDIUM                            
CNS     .%             00:  8 COMPENSATED NEUT (-S)                           
DRHO    .G/C3          00:  9 DENSITY CORRECTN                                
RHOB    .G/C3          00: 10 BULK DENSITY                                    
DT      .US/F          00: 11 INTERV TRANSIT TIME                             
MNOR    .OHMM          00: 12 NORMAL MICROLOG                                 
MINV    .OHMM          00: 13 INV MICROLOG                                    
PROX    .OHMM          00: 14 PROXIMITY LOG                                   
POTA    .PPM           00: 15 POTASSIUM                                       
URAN    .PPM           00: 16 URANIUM                                         
THOR    .PPM           00: 17 THORIUM                                         
SGR     .GAPI          00: 18 GAMMA RAY                                       
CGR     .GAPI          00: 19 GAMMA RAY                                       
~A  DEPTH    GR         SP         CALI       SFL        ILD        ILM        CNS        DRHO       RHOB       DT         MNOR       MINV       PROX       POTA       URAN       THOR       SGR        CGR                                                   
# ...
  9461.000   25.39700   -64.5641   13.61290   1399.575   94.22180   96.76320   57.98000   -.022600   1.385000   122.7893   -999.000   -999.000   -999.000   -999.000   -999.000   -999.000   -999.000   -999.000 
  9461.500   27.31750   -64.7921   13.25650   1749.330   82.82660   141.8941   57.42000   -.018900   1.396900   122.7422   -999.000   -999.000   -999.000   -999.000   -999.000   -999.000   -999.000   -999.000 
  9462.000   29.81180   -64.5205   12.90010   1846.395   72.80950   122.4561   57.36000   -.015200   1.421100   122.6952   -999.000   -999.000   -999.000   -999.000   -999.000   -999.000   -999.000   -999.000 
  9462.500   33.29140   -64.1667   12.00200   1757.760   64.00380   101.1609   57.39000   -.011600   1.498900   122.7257   -999.000   -999.000   -999.000   -999.000   -999.000   -999.000   -999.000   -999.000 
  9463.000   37.35710   -63.8130   10.88620   1131.858   56.26320   83.56900   57.44000   -.007900   1.533900   122.7840   -999.000   -999.000   -999.000   -999.000   -999.000   -999.000   -999.000   -999.000 
  9463.500   41.42280   -63.4592   10.33680   831.7538   49.45860   69.03630   57.59000   -.004200   1.550400   122.5949   -999.000   -999.000   -999.000   -999.000   -999.000   -999.000   -999.000   -999.000 
  9464.000   45.48840   -63.1054   9.697700   347.5365   43.47710   57.03080   58.05000   -.000500   1.556500   121.7190   -999.000   -999.000   -999.000   -999.000   -999.000   -999.000   -999.000   -999.000 
  9464.500   49.55410   -62.7717   9.164100   126.5465   38.75790   47.11310   58.56000   0.003100   1.598200   120.0447   -999.000   -999.000   -999.000   -999.000   -999.000   -999.000   -999.000   -999.000 
  9465.000   53.61980   -62.9965   9.714600   95.11780   34.78190   38.92010   58.44000   0.014200   1.676800   116.8336   -999.000   -999.000   -999.000   -999.000   -999.000   -999.000   -999.000   -999.000 
  9465.500   55.75430   -62.5053   10.26520   83.13260   31.21370   32.15190   55.18000   0.038700   1.762800   115.4252   -999.000   -999.000   -999.000   -999.000   -999.000   -999.000   -999.000   -999.000 
  9466.000   55.15620   -61.9163   10.79240   68.65410   28.68180   26.56070   50.15000   0.063900   1.848800   115.1355   -999.000   -999.000   -999.000   -999.000   -999.000   -999.000   -999.000   -999.000 
  9466.500   49.97870   -61.2547   11.13360   52.99020   27.12440   21.94180   45.12000   0.064900   1.788300   117.0755   -999.000   -999.000   -999.000   -999.000   -999.000   -999.000   -999.000   -999.000 
  9467.000   43.44470   -60.5932   11.47470   52.61500   26.31810   19.43940   48.60000   0.049400   1.677300   120.8026   -999.000   -999.000   -999.000   -999.000   -999.000   -999.000   -999.000   -999.000 
  9467.500   39.62450   -60.1025   11.71170   58.60220   25.66300   22.30540   52.44000   0.033900   1.591800   122.7917   -999.000   -999.000   -999.000   -999.000   -999.000   -999.000   -999.000   -999.000 
  9468.000   40.60090   -59.6665   11.90670   69.10300   26.07320   25.59400   56.28000   0.018400   1.559200   122.7661   -999.000   -999.000   -999.000   -999.000   -999.000   -999.000   -999.000   -999.000 
  9468.500   41.57730   -59.0490   12.10180   74.59550   28.22770   29.36750   59.45000   0.020200   1.511100   122.1105   -999.000   -999.000   -999.000   -999.000   -999.000   -999.000   -999.000   -999.000 
  9469.000   42.55370   -58.1750   12.29680   78.28360   30.56030   33.69730   62.61000   0.023700   1.469900   121.4385   -999.000   -999.000   -999.000   -999.000   -999.000   -999.000   -999.000   -999.000 
  9469.500   43.53010   -57.6083   12.49190   93.06630   33.08560   39.60130   65.77000   0.013500   1.473300   120.7665   -999.000   -999.000   -999.000   -999.000   -999.000   -999.000   -999.000   -999.000 
  9470.000   43.27900   -57.0957   12.68690   129.2474   35.81960   52.57070   73.00999   -.000500   1.590300   120.0945   -999.000   -999.000   -999.000   -999.000   -999.000   -999.000   -999.000   -999.000 
  9470.500   42.78350   -56.4759   12.55570   254.1385   36.89460   45.41340   68.78000   -.014400   1.714300   114.7931   -999.000   -999.000   -999.000   -999.000   -999.000   -999.000   -999.000   -999.000 
  9471.000   42.28790   -55.2560   11.47640   302.3062   32.87510   37.33180   63.68000   -.028400   1.838400   105.9737   -999.000   -999.000   -999.000   -999.000   -999.000   -999.000   -999.000   -999.000 
  9471.500   41.79240   -54.4516   10.50410   235.7456   29.29360   30.68830   56.06000   -.026400   1.971300   103.3295   -999.000   -999.000   -999.000   -999.000   -999.000   -999.000   -999.000   -999.000 
  9472.000   42.13900   -53.8054   9.531700   129.4702   26.10220   25.22710   51.08000   0.009700   2.104200   100.6395   -999.000   -999.000   -999.000   -999.000   -999.000   -999.000   -999.000   -999.000 
  9472.500   43.74680   -53.1325   8.729900   58.64400   23.25850   20.73780   43.31000   0.045800   2.242300   102.2777   -999.000   -999.000   -999.000   -999.000   -999.000   -999.000   -999.000   -999.000 
  9473.000   44.32530   -52.4597   8.503900   23.06760   20.72460   17.04730   44.57000   0.064900   2.191800   105.1017   -999.000   -999.000   -999.000   -999.000   -999.000   -999.000   -999.000   -999.000 
  9473.500   43.94910   -52.1216   8.413500   20.85040   18.46680   15.50500   45.84000   0.058200   2.160700   106.5901   -999.000   -999.000   -999.000   -999.000   -999.000   -999.000   -999.000   -999.000 
  9474.000   43.30380   -52.0034   8.401400   22.19390   16.45490   14.82930   46.28000   0.050500   2.156200   105.4026   -999.000   -999.000   -999.000   -999.000   -999.000   -999.000   -999.000   -999.000 
  9474.500   42.65840   -51.8852   8.409100   23.53520   15.01610   14.18300   46.08000   0.038200   2.165400   104.2496   -999.000   -999.000   -999.000   -999.000   -999.000   -999.000   -999.000   -999.000 
  9475.000   41.76980   -51.8342   8.429300   24.73310   13.81590   13.56490   45.36000   0.025900   2.220300   102.4340   -999.000   -999.000   -999.000   -999.000   -999.000   -999.000   -999.000   -999.000 
  9475.500   40.73860   -51.8433   8.456700   25.38550   12.71160   12.97370   44.04000   0.014700   2.257400   100.4968   -999.000   -999.000   -999.000   -999.000   -999.000   -999.000   -999.000   -999.000 
  9476.000   39.95650   -51.8825   8.484100   23.69590   11.80450   12.40830   42.72000   0.020700   2.264300   99.06330   -999.000   -999.000   -999.000   -999.000   -999.000   -999.000   -999.000   -999.000 
  9476.500   39.52560   -51.9217   8.511500   20.42750   11.50810   11.86750   41.40000   0.023200   2.274800   95.84500   -999.000   -999.000   -999.000   -999.000   -999.000   -999.000   -999.000   -999.000 
  9477.000   39.47450   -52.0267   8.530500   18.19840   11.21920   11.35030   40.08000   0.013900   2.294600   92.62490   -999.000   -999.000   -999.000   -999.000   -999.000   -999.000   -999.000   -999.000 
  9477.500   39.30240   -52.1773   8.548700   16.92440   10.93750   10.85560   38.47000   0.004200   2.355200   90.62200   -999.000   -999.000   -999.000   -999.000   -999.000   -999.000   -999.000   -999.000 
  9478.000   38.89690   -52.4010   8.562800   16.51220   10.66290   10.38250   36.75000   0.005700   2.401400   92.62520   -999.000   -999.000   -999.000   -999.000   -999.000   -999.000   -999.000   -999.000 
  9478.500   38.46540   -52.6676   8.547900   16.18780   10.39520   10.10820   35.02000   0.007900   2.425000   96.41640   -999.000   -999.000   -999.000   -999.000   -999.000   -999.000   -999.000   -999.000 
  9479.000   38.28170   -52.9342   8.533000   15.39440   10.13420   9.900300   34.49000   0.028800   2.383100   100.2076   -999.000   -999.000   -999.000   -999.000   -999.000   -999.000   -999.000   -999.000 
  9479.500   38.16510   -53.1580   8.518200   14.72720   10.17670   10.32330   35.45000   0.038600   2.341200   102.8333   -999.000   -999.000   -999.000   -999.000   -999.000   -999.000   -999.000   -999.000 
  9480.000   38.03170   -53.3220   8.503400   14.83800   10.38910   10.81300   38.07000   0.038200   2.299300   105.0414   -999.000   -999.000   -999.000   -999.000   -999.000   -999.000   -999.000   -999.000 
