~VERSION INFORMATION
VERS.                               2.00: CWLS LOG ASCII STANDARD VERSION 2.00
WRAP.                               NO  : ONE LINE PER DEPTH STEP               
~WELL INFORMATION
#MNEM.UNIT                     DATA TYPE  INFORMATION
#----------------------------------------------------------------------
STRT.F                           1691.00: START DEPTH
STOP.F                          10167.00: STOP DEPTH
STEP.F                              0.50: STEP VALUE
NULL.                            -999.00: NULL VALUE
COMP.                                   : COMPANY                               
WELL.                        MGS C-22-23: WELL                                  
FLD .                            Unknown: FIELD                                 
LOC .                                   : LOCATION                              
CNTY.                                   : COUNTY                                
STAT.                                   : STATE                                 
CTRY.                                   : COUNTRY                               
SRVC.                                   : SERVICE COMPANY                       
DATE.                                   : LOG DATE                              
API .                   50733203970000  : UNIQUE WELL IDENTIFIER                
~PARAMETER INFORMATION                                                          
#MNEM.UNIT        VALUE   DESCRIPTION                                           
#---------      --------  -----------                                           
~OTHER INFORMATION                                                              
CSG0    .          9.625" @ 6034                                                
FLS0    .          CIRC                                                         
LGD0    .          6/6/1988                                                     
MT0     .          #2                                                           
~CURVE INFORMATION                                                              
#MNEM.UNIT                 DESCRIPTION                                          
#---------                 -----------                                          
DEPTH   .F               :  1 DEPTH
DRHO    .G/C3          00:  2 DENSITY CORRECTN                                
RHOB    .G/C3          00:  3 BULK DENSITY                                    
CALI    .IN            00:  4 CALIPER                                         
DTL     .MS/F          00:  5 INTERV TRANSIT TIME LONG                        
DT_ORIG .MS/F          00:  6 ORIGINAL SONIC CURVE                            
GR      .GAPI          00:  7 GAMMA RAY                                       
IDPH    .OHMM          00:  8 INDUCTION DB PHASOR                             
ILD     .OHMM          00:  9 INDUCTION LOG DEEP                              
ILM     .OHMM          00: 10 INDUCTION LOG MEDIUM                            
IMPH    .OHMM          00: 11 INDUCTION MEDIUM PHASOR                         
SFL     .OHMM          00: 12 SPHER. OR SHAL. FOC. LOG                        
SP      .MV            00: 13 SELF POTENTIAL                                  
PEF     .B/E           00: 14 FOTO ELECTRO. XSCT                              
DT      .MS/F          00: 15 INTERV TRANSIT TIME                             
~A  DEPTH    DRHO       RHOB       CALI       DTL        DT_ORIG    GR         IDPH       ILD        ILM        IMPH       SFL        SP         PEF        DT                                                                                                
# ...
  7865.000   -.010000   2.448000   8.250000   82.50000   84.62500   42.03100   16.15600   15.55500   14.53900   14.29700   13.81300   -15.6800   12.26600   84.62500 
  7865.500   -.016997   2.427999   8.219011   82.62500   83.87500   43.57795   16.03504   15.37901   14.39449   14.95662   14.65632   -16.0041   10.60536   83.87500 
  7866.000   -.024000   2.408000   8.188000   82.75000   83.12500   45.12500   15.91400   15.20300   14.25000   15.61700   15.50000   -16.3280   8.945000   83.12500 
  7866.500   -.021501   2.389489   8.188000   84.06250   84.37500   48.56250   15.61373   14.89851   13.57039   14.78518   14.43750   -16.5859   8.769488   84.37500 
  7867.000   -.019000   2.371000   8.188000   85.37500   85.62500   52.00000   15.31300   14.59400   12.89100   13.95300   13.37500   -16.8440   8.594000   85.62500 
  7867.500   -.017500   2.372499   8.141017   85.50000   85.31250   51.79696   15.26602   14.55851   12.66454   13.21139   12.67631   -17.3830   8.570509   85.31250 
  7868.000   -.016000   2.374000   8.094000   85.62500   85.00000   51.59400   15.21900   14.52300   12.43800   12.46900   11.97700   -17.9220   8.547000   85.00000 
  7868.500   -.014000   2.385503   8.125010   85.56250   84.81250   49.51549   15.74955   14.95687   12.92218   12.78899   11.45749   -18.2890   8.808599   84.81250 
  7869.000   -.012000   2.397000   8.156000   85.50000   84.62500   47.43800   16.28100   15.39100   13.40600   13.10900   10.93800   -18.6560   9.070000   84.62500 
  7869.500   -.016499   2.388003   8.172000   84.71455   82.75000   47.20810   17.89785   16.64032   16.10982   15.35324   12.12083   -19.6875   8.521644   82.75000 
  7870.000   -.021000   2.379000   8.188000   83.93000   80.87500   46.97800   19.51600   17.89100   18.81300   17.59400   13.30500   -20.7190   7.973000   80.87500 
  7870.500   -.022499   2.373502   8.188000   76.13564   74.69231   48.57358   23.13252   20.52955   24.25582   24.61578   21.27215   -21.5701   8.006012   74.69231 
  7871.000   -.024000   2.368000   8.188000   68.33600   68.51600   50.17000   26.75000   23.17200   29.70300   31.64100   29.23400   -22.4220   8.039000   68.51600 
  7871.500   -.017997   2.394490   8.203494   63.13025   65.60028   49.58500   35.95569   29.50653   34.68097   45.06574   58.80987   -23.1800   7.769053   65.60028 
  7872.000   -.012000   2.421000   8.219000   57.93000   62.68800   49.00000   45.15600   35.84400   39.65600   58.50000   88.37500   -23.9380   7.499000   62.68800 
  7872.500   -.001507   2.496459   8.315056   58.02755   61.34325   49.20300   55.60243   41.98669   42.95472   59.79651   97.52662   -24.1955   8.232115   61.34325 
  7873.000   0.009000   2.572000   8.411000   58.12500   60.00000   49.40600   66.06300   48.12500   46.25000   61.09400   106.6880   -24.4530   8.965000   60.00000 
  7873.500   0.028512   2.499018   8.896965   57.71245   60.11252   53.98428   57.34788   42.91981   43.04872   53.38978   104.1250   -24.3595   11.83108   60.11252 
  7874.000   0.048000   2.426000   9.383000   57.30000   60.22500   58.57000   48.62500   37.71900   39.84400   45.68800   101.5630   -24.2660   14.69500   60.22500 
  7874.500   0.079993   2.455012   9.412999   58.30279   60.26501   56.93517   39.78216   32.09768   32.45252   37.72686   76.84737   -24.4611   14.51856   60.26501 
  7875.000   0.112000   2.484000   9.443000   59.30500   60.30500   55.30100   30.95300   26.48400   25.06300   29.76600   52.12500   -24.6560   14.34200   60.30500 
  7875.500   0.081009   2.480004   8.911093   65.27478   66.77478   54.81040   27.29826   24.02369   21.22674   24.41389   34.93637   -24.7265   11.95203   66.77478 
  7876.000   0.050000   2.476000   8.380000   71.25000   73.25000   54.32000   23.64100   21.56300   17.39100   19.06300   17.76600   -24.7970   9.563000   73.25000 
  7876.500   0.017509   2.427513   8.236986   79.50000   80.43750   52.95664   21.32167   19.75793   16.01240   16.76956   15.63417   -24.4998   9.422042   80.43750 
  7877.000   -.015000   2.379000   8.094000   87.75000   87.62500   51.59400   19.00000   17.95300   14.63300   14.47700   13.50000   -24.2030   9.281000   87.62500 
  7877.500   -.019498   2.363497   8.094000   89.25000   88.98798   52.20538   17.28588   16.48512   13.62129   13.51585   13.57048   -23.6796   9.049015   88.98798 
  7878.000   -.024000   2.348000   8.094000   90.75000   90.35000   52.81600   15.57000   15.01600   12.60900   12.55500   13.64100   -23.1560   8.817000   90.35000 
  7878.500   -.021499   2.355000   8.095500   95.58673   90.49904   55.86037   14.08975   13.66006   10.89771   11.39525   15.01533   -22.5394   8.533430   90.49904 
  7879.000   -.019000   2.362000   8.097000   100.4220   90.64800   58.90600   12.60900   12.30500   9.188000   10.23400   16.39100   -21.9220   8.250000   90.64800 
  7879.500   -.017000   2.338990   8.255548   103.2100   98.75864   68.20258   11.50783   11.31648   8.648287   9.179752   13.97688   -21.6800   8.339993   98.75864 
  7880.000   -.015000   2.316000   8.414000   106.0000   106.8750   77.50000   10.40600   10.32800   8.109000   8.125000   11.56300   -21.4380   8.430000   106.8750 
  7880.500   -.006498   2.269529   8.664063   108.0625   109.3750   85.78065   9.437109   9.390625   7.845692   7.702832   9.581810   -21.2581   10.38252   109.3750 
  7881.000   0.002000   2.223000   8.914000   110.1250   111.8750   94.06300   8.469000   8.453000   7.582000   7.281000   7.602000   -21.0780   12.33600   111.8750 
  7881.500   0.035013   2.314533   9.010509   101.0139   104.4621   95.53745   7.763937   7.724751   7.023696   7.045052   7.109632   -21.2030   11.45990   104.4621 
  7882.000   0.068000   2.406000   9.107000   91.89800   97.04700   97.01200   7.059000   6.996000   6.465000   6.809000   6.617000   -21.3280   10.58300   97.04700 
  7882.500   0.068500   2.419993   9.209991   87.38493   90.32410   96.41296   6.898603   6.865002   6.415977   6.576483   6.232567   -21.4220   10.23711   90.32410 
  7883.000   0.069000   2.434000   9.313000   82.87500   83.59800   95.81300   6.738000   6.734000   6.367000   6.344000   5.848000   -21.5160   9.891000   83.59800 
  7883.500   0.050485   2.424007   9.398451   81.12500   82.92427   92.90534   6.849504   6.856982   6.597428   6.439542   6.339892   -21.6095   9.617643   82.92427 
  7884.000   0.032000   2.414000   9.484000   79.37500   82.25000   90.00000   6.961000   6.980000   6.828000   6.535000   6.832000   -21.7030   9.344000   82.25000 
  7884.500   0.030501   2.379995   9.488001   79.75000   81.06250   91.40571   7.337813   7.347322   7.122805   6.976408   7.333907   -21.7970   9.984059   81.06250 
  7885.000   0.029000   2.346000   9.492000   80.12500   79.87500   92.81300   7.715000   7.715000   7.418000   7.418000   7.836000   -21.8910   10.62500   79.87500 
  7885.500   0.046994   2.367502   9.105579   78.06250   79.06250   93.21879   8.380739   8.357508   7.990269   8.040657   8.652524   -22.3832   12.66033   79.06250 
  7886.000   0.065000   2.389000   8.719000   76.00000   78.25000   93.62500   9.047000   9.000000   8.563000   8.664000   9.469000   -22.8750   14.69500   78.25000 
  7886.500   0.081994   2.407996   8.788977   77.00000   78.35402   83.42308   10.03109   9.976643   9.508215   9.523962   10.41791   -23.2028   15.44123   78.35402 
  7887.000   0.099000   2.427000   8.859000   78.00000   78.45800   73.21900   11.01600   10.95300   10.45300   10.38300   11.36700   -23.5310   16.18800   78.45800 
  7887.500   0.091003   2.401000   8.859000   78.41245   78.39205   67.84543   11.78116   11.70744   11.58509   11.53590   12.49553   -24.2264   16.24849   78.39205 
  7888.000   0.083000   2.375000   8.859000   78.82500   78.32600   62.47700   12.54700   12.46100   12.71900   12.68800   13.62500   -24.9220   16.30900   78.32600 
  7888.500   0.078999   2.379504   8.916994   77.61230   74.07852   63.12125   12.56651   12.41803   12.85145   13.26979   16.05545   -25.1096   16.72670   74.07852 
  7889.000   0.075000   2.384000   8.975000   76.39800   69.82800   63.76600   12.58600   12.37500   12.98400   13.85200   18.48400   -25.2970   17.14400   69.82800 
