~VERSION INFORMATION
VERS.                               2.00: CWLS LOG ASCII STANDARD VERSION 2.00
WRAP.                               NO  : ONE LINE PER DEPTH STEP               
~WELL INFORMATION
#MNEM.UNIT                     DATA TYPE  INFORMATION
#----------------------------------------------------------------------
STRT.F                            920.00: START DEPTH
STOP.F                           9532.00: STOP DEPTH
STEP.F                              0.50: STEP VALUE
NULL.                            -999.00: NULL VALUE
COMP.                                   : COMPANY                               
WELL.                       SRS TERN A-1: WELL                                  
FLD .            Granite Pt/Beluga River: FIELD                                 
LOC .      10N  10W   19 0585FNL 0636FWL: LOCATION                              
CNTY.                 GREATER_COOK_INLET: COUNTY                                
STAT.                             Alaska: STATE                                 
CTRY.                                 US: COUNTRY                               
SRVC.                                   : SERVICE COMPANY                       
DATE.                                   : LOG DATE                              
API .                   50733203530000  : UNIQUE WELL IDENTIFIER                
~PARAMETER INFORMATION                                                          
#MNEM.UNIT        VALUE   DESCRIPTION                                           
#---------      --------  -----------                                           
ELEV    .F          171.5: KB ELEVATION                                         
TDD     .F         9519.0: TOTAL DEPTH DRILLED                                  
~OTHER INFORMATION                                                              
FLS0    .          CIRCULATED                                                   
LGD0    .          7/13/82                                                      
MT0     .          DIS GEL H2O                                                  
FLS0    .          CIRCULATED                                                   
LGD0    .          7/24/82                                                      
FLS0    .          FLOWLINE                                                     
LGD0    .          8/2/82                                                       
MT0     .          LOW SOLIDS NONDISPERSED                                      
~CURVE INFORMATION                                                              
#MNEM.UNIT                 DESCRIPTION                                          
#---------                 -----------                                          
DEPTH   .F               :  1 DEPTH
GR      .GAPI          00:  2 GAMMA RAY                                       
SP      .MV            00:  3 SELF POTENTIAL                                  
CALI    .IN            00:  4 CALIPER                                         
SFL     .OHMM          00:  5 SPHER. OR SHAL. FOC. LOG                        
ILD     .OHMM          00:  6 INDUCTION LOG DEEP                              
ILM     .OHMM          00:  7 INDUCTION LOG MEDIUM                            
CNS     .%             00:  8 COMPENSATED NEUT (-S)                           
DRHO    .G/C3          00:  9 DENSITY CORRECTN                                
RHOB    .G/C3          00: 10 BULK DENSITY                                    
DT      .US/F          00: 11 INTERV TRANSIT TIME                             
MNOR    .OHMM          00: 12 NORMAL MICROLOG                                 
MINV    .OHMM          00: 13 INV MICROLOG                                    
PROX    .OHMM          00: 14 PROXIMITY LOG                                   
POTA    .PPM           00: 15 POTASSIUM                                       
URAN    .PPM           00: 16 URANIUM                                         
THOR    .PPM           00: 17 THORIUM                                         
SGR     .GAPI          00: 18 GAMMA RAY                                       
CGR     .GAPI          00: 19 GAMMA RAY                                       
~A  DEPTH    GR         SP         CALI       SFL        ILD        ILM        CNS        DRHO       RHOB       DT         MNOR       MINV       PROX       POTA       URAN       THOR       SGR        CGR                                                   
# ...
  6224.000   57.42200   -30.9183   8.435400   6.593600   6.563800   6.587300   42.65000   0.002000   2.026565   98.12490   -999.000   -999.000   4.573100   0.017930   1.900959   4.441130   63.41169   48.19784 
  6224.500   57.37030   -31.3032   8.486300   6.119700   6.565700   6.583700   37.15000   0.010400   2.111622   99.27400   -999.000   -999.000   4.330100   0.016912   2.013490   4.520501   63.14705   47.40388 
  6225.000   57.04810   -31.7728   8.587500   5.981300   6.567600   6.580100   30.46000   0.070400   2.245055   101.3791   -999.000   -999.000   4.358600   0.016002   2.081463   4.657249   62.84518   46.42495 
  6225.500   56.43100   -32.3204   8.666900   6.155200   6.569400   6.576500   31.32000   0.097400   2.353994   104.0430   -999.000   -999.000   4.387200   0.015450   2.110783   4.786786   62.15813   45.17531 
  6226.000   55.18930   -32.8680   8.657600   6.947400   6.571300   6.572800   33.19000   0.115600   2.386167   105.0300   -999.000   -999.000   4.456500   0.015208   1.934432   4.674155   60.98723   44.03761 
  6226.500   53.14860   -33.6811   8.620700   7.872700   6.569200   6.569200   35.07000   0.107700   2.376711   103.0254   -999.000   -999.000   4.701000   0.014941   1.793601   4.527741   59.40442   43.17637 
  6227.000   51.30750   -34.4740   8.583900   8.921200   6.565600   6.565600   36.94000   0.086000   2.352338   100.0496   -999.000   -999.000   6.543700   0.014416   1.797108   4.388825   57.79453   42.24751 
  6227.500   49.78170   -34.9735   8.546600   10.16270   6.562000   6.562000   37.17000   0.043900   2.310252   98.49810   -999.000   -999.000   7.911800   0.014534   1.833488   4.571132   56.88791   42.29716 
  6228.000   52.50000   -34.3195   8.473600   10.64180   6.558400   6.558400   35.23000   0.028300   2.283191   96.74120   -999.000   -999.000   8.324600   0.015045   1.899782   4.709302   58.52866   42.54161 
  6228.500   55.26010   -32.4858   8.426700   9.099600   6.531100   6.539300   33.29000   0.023100   2.267787   98.27900   -999.000   -999.000   6.471800   0.016356   1.980590   4.903048   62.17883   44.57056 
  6229.000   58.77770   -30.8496   8.395900   6.133900   6.255000   6.062100   31.35000   0.030000   2.275063   100.1538   -999.000   -999.000   5.031300   0.017798   2.079813   5.082761   67.72812   48.24793 
  6229.500   60.64050   -30.1909   8.379300   6.243800   5.990600   5.844900   33.16000   0.042900   2.288439   103.4862   -999.000   -999.000   4.250900   0.018782   2.159726   5.309158   69.85287   50.54102 
  6230.000   62.35730   -29.5322   8.406900   4.619100   5.737400   5.635400   35.61000   0.050200   2.297148   103.2451   -999.000   -999.000   4.369900   0.018578   2.131009   5.260544   69.61841   51.77431 
  6230.500   64.07400   -28.8735   8.434500   4.709200   5.494900   5.433400   38.06000   0.057300   2.303972   100.7511   -999.000   -999.000   4.492200   0.018320   1.997268   5.154307   69.30499   52.33543 
  6231.000   65.64760   -28.3796   8.462100   4.801100   5.262600   5.238600   37.68000   0.064300   2.313322   99.11290   -999.000   -999.000   4.504100   0.018386   1.874376   5.039528   68.13631   52.21963 
  6231.500   66.99180   -28.4360   8.489600   4.894800   5.092000   5.092000   36.55000   0.068700   2.337986   99.61990   -999.000   -999.000   4.405200   0.018765   1.897567   4.847332   67.57848   52.09792 
  6232.000   67.29260   -28.4775   8.494000   4.990300   5.036400   5.036400   35.62000   0.078300   2.357374   100.5227   -999.000   -999.000   4.308400   0.019027   1.948791   4.951397   68.17017   52.58682 
  6232.500   67.16390   -28.5043   8.495700   5.001700   4.981500   4.981500   35.05000   0.087900   2.379601   101.2990   -999.000   -999.000   4.213800   0.019140   2.150499   5.226173   69.51299   53.10924 
  6233.000   67.18060   -28.5312   8.497300   4.928400   4.927200   4.927200   35.56000   0.078100   2.379415   101.6316   -999.000   -999.000   4.121200   0.018952   2.311395   5.518069   72.10701   54.36762 
  6233.500   67.24010   -28.5580   8.476600   4.856200   4.857300   4.856100   36.14000   0.068300   2.369840   101.9642   -999.000   -999.000   4.030700   0.018814   2.432326   5.561603   74.60229   55.64261 
  6234.000   66.82450   -28.6134   8.455900   4.785000   4.794400   4.778700   36.86000   0.058500   2.357529   101.5720   -999.000   -999.000   3.941000   0.018677   2.455001   5.468083   74.44423   55.28226 
  6234.500   65.28920   -28.7732   8.439500   4.680200   4.732300   4.697400   37.15000   0.053200   2.341217   101.0259   -999.000   -999.000   3.852900   0.018451   2.362324   5.402253   73.62059   54.93024 
  6235.000   63.29980   -28.9885   8.433200   4.494500   4.671000   4.617400   37.44000   0.058400   2.342987   100.7577   -999.000   -999.000   3.699600   0.018172   2.273714   5.402015   72.70522   54.43476 
  6235.500   64.73460   -29.4086   8.432800   4.316300   4.610400   4.538800   37.19000   0.063900   2.358598   100.5618   -999.000   -999.000   3.627300   0.017957   2.218492   5.385963   71.83763   53.78013 
  6236.000   68.43730   -29.9031   8.432400   4.145000   4.550700   4.461500   36.91000   0.078400   2.370614   100.1527   -999.000   -999.000   3.493600   0.017791   2.191665   5.422183   71.31108   53.51962 
  6236.500   70.04200   -30.6459   8.428300   4.395100   4.739200   4.559500   36.74000   0.086800   2.391902   97.15070   -999.000   -999.000   3.577400   0.017771   2.164758   5.448995   70.78452   53.47586 
  6237.000   68.20750   -32.0296   8.413900   4.887200   4.946600   4.869800   36.51000   0.078000   2.398320   92.32680   3.605900   1.986700   3.852600   0.017753   2.137578   5.418033   70.15332   53.43211 
  6237.500   64.42700   -33.6374   8.399500   5.193100   5.176700   5.201100   35.51000   0.069300   2.397380   90.50220   3.926000   2.358400   4.239600   0.018343   2.100171   5.273555   69.45824   53.27662 
  6238.000   60.95840   -34.7483   8.388800   5.930300   5.629300   5.629300   35.20000   0.060500   2.395621   90.45750   3.941300   2.730200   4.961200   0.019251   1.985452   4.965204   68.72997   53.11813 
  6238.500   59.12040   -35.1865   8.379000   6.772100   6.106900   6.106900   35.63000   0.052300   2.409352   92.90210   3.956500   3.101900   6.122200   0.019544   1.848123   4.646429   67.29770   52.75955 
  6239.000   57.29010   -35.2879   8.372200   7.733400   6.494600   6.598200   36.06000   0.037500   2.402648   95.11880   3.971700   3.243700   7.592400   0.019500   1.696817   4.525957   65.46519   52.02121 
  6239.500   57.10350   -35.5209   8.362200   8.551000   6.908500   6.756400   34.58000   0.031600   2.376868   97.17190   3.987000   3.254500   8.073800   0.018952   1.622888   4.677065   63.75767   51.30053 
  6240.000   56.99240   -36.0680   8.350100   8.111900   7.348700   6.875300   31.82000   0.035600   2.341981   99.61010   3.979400   2.953700   7.323000   0.018543   1.696001   4.928289   64.21367   50.55829 
  6240.500   56.84680   -36.9144   8.364900   7.695300   7.043500   6.996200   29.75000   0.039600   2.332837   102.0483   3.877200   2.653000   6.642100   0.018301   1.749875   5.335692   65.26930   50.74954 
  6241.000   56.66480   -38.5211   8.447900   7.596600   6.871700   7.119200   30.67000   0.041600   2.336523   101.5961   3.839000   2.599200   6.024500   0.018074   1.774248   5.262124   65.86136   50.95730 
  6241.500   56.35820   -40.4427   8.537700   7.719000   7.169700   7.244400   32.04000   0.038800   2.337636   100.2550   3.856000   2.889200   5.464300   0.017861   1.623544   5.080650   65.14442   51.08869 
  6242.000   55.89700   -41.5926   8.552600   8.082100   7.480600   7.371800   33.02000   0.033300   2.331439   98.74110   3.873000   3.008100   6.140700   0.017503   1.509147   5.017194   63.14953   51.22311 
  6242.500   55.72560   -42.1389   8.468400   8.519000   7.805000   7.501500   33.24000   0.021100   2.324160   97.10680   3.889900   3.048900   8.019400   0.016800   1.423080   5.080556   61.65147   50.03967 
  6243.000   55.84730   -42.3500   8.384100   8.979600   7.784700   7.633400   32.25000   0.016600   2.319374   96.32300   3.906900   3.089700   8.245700   0.016057   1.368985   5.177991   60.53017   48.66103 
