~VERSION INFORMATION
VERS.                               2.00: CWLS LOG ASCII STANDARD VERSION 2.00
WRAP.                               NO  : ONE LINE PER DEPTH STEP               
~WELL INFORMATION
#MNEM.UNIT                     DATA TYPE  INFORMATION
#----------------------------------------------------------------------
STRT.F                           1691.00: START DEPTH
STOP.F                          10167.00: STOP DEPTH
STEP.F                              0.50: STEP VALUE
NULL.                            -999.00: NULL VALUE
COMP.                                   : COMPANY                               
WELL.                        MGS C-22-23: WELL                                  
FLD .                            Unknown: FIELD                                 
LOC .                                   : LOCATION                              
CNTY.                                   : COUNTY                                
STAT.                                   : STATE                                 
CTRY.                                   : COUNTRY                               
SRVC.                                   : SERVICE COMPANY                       
DATE.                                   : LOG DATE                              
API .                   50733203970000  : UNIQUE WELL IDENTIFIER                
~PARAMETER INFORMATION                                                          
#MNEM.UNIT        VALUE   DESCRIPTION                                           
#---------      --------  -----------                                           
~OTHER INFORMATION                                                              
CSG0    .          9.625" @ 6034                                                
FLS0    .          CIRC                                                         
LGD0    .          6/6/1988                                                     
MT0     .          #2                                                           
~CURVE INFORMATION                                                              
#MNEM.UNIT                 DESCRIPTION                                          
#---------                 -----------                                          
DEPTH   .F               :  1 DEPTH
DRHO    .G/C3          00:  2 DENSITY CORRECTN                                
RHOB    .G/C3          00:  3 BULK DENSITY                                    
CALI    .IN            00:  4 CALIPER                                         
DTL     .MS/F          00:  5 INTERV TRANSIT TIME LONG                        
DT_ORIG .MS/F          00:  6 ORIGINAL SONIC CURVE                            
GR      .GAPI          00:  7 GAMMA RAY                                       
IDPH    .OHMM          00:  8 INDUCTION DB PHASOR                             
ILD     .OHMM          00:  9 INDUCTION LOG DEEP                              
ILM     .OHMM          00: 10 INDUCTION LOG MEDIUM                            
IMPH    .OHMM          00: 11 INDUCTION MEDIUM PHASOR                         
SFL     .OHMM          00: 12 SPHER. OR SHAL. FOC. LOG                        
SP      .MV            00: 13 SELF POTENTIAL                                  
PEF     .B/E           00: 14 FOTO ELECTRO. XSCT                              
DT      .MS/F          00: 15 INTERV TRANSIT TIME                             
~A  DEPTH    DRHO       RHOB       CALI       DTL        DT_ORIG    GR         IDPH       ILD        ILM        IMPH       SFL        SP         PEF        DT                                                                                                
# ...
  3945.000   -999.000   -999.000   -999.000   150.0000   101.8750   32.59400   16.78100   15.96100   17.17200   17.84400   17.12500   -122.437   -999.000   101.8750 
  3945.500   -999.000   -999.000   -999.000   129.0000   102.3125   32.96899   16.46102   15.66012   16.64044   17.43003   17.51539   -122.219   -999.000   102.3125 
  3946.000   -999.000   -999.000   -999.000   108.0000   102.7500   33.34400   16.14100   15.35900   16.10900   17.01600   17.90600   -122.000   -999.000   102.7500 
  3946.500   -999.000   -999.000   -999.000   108.7500   104.6250   35.46875   15.84000   15.10901   15.28086   16.16457   16.54712   -121.156   -999.000   104.6250 
  3947.000   -999.000   -999.000   -999.000   109.5000   106.5000   37.59400   15.53900   14.85900   14.45300   15.31300   15.18800   -120.312   -999.000   106.5000 
  3947.500   -999.000   -999.000   -999.000   112.3750   105.6875   38.56257   15.37498   14.72247   14.43750   14.83592   13.74651   -119.719   -999.000   105.6875 
  3948.000   -999.000   -999.000   -999.000   115.2500   104.8750   39.53100   15.21100   14.58600   14.42200   14.35900   12.30500   -119.125   -999.000   104.8750 
  3948.500   -999.000   -999.000   -999.000   128.5000   102.0000   38.32810   15.13301   14.50001   14.54297   14.55849   13.69152   -118.563   -999.000   102.0000 
  3949.000   -999.000   -999.000   -999.000   141.7500   99.12500   37.12500   15.05500   14.41400   14.66400   14.75800   15.07800   -118.000   -999.000   99.12500 
  3949.500   -999.000   -999.000   -999.000   136.8750   101.1250   36.87500   15.33193   14.65598   14.74999   15.16061   15.49605   -117.750   -999.000   101.1250 
  3950.000   -999.000   -999.000   -999.000   132.0000   103.1250   36.62500   15.60900   14.89800   14.83600   15.56300   15.91400   -117.500   -999.000   103.1250 
  3950.500   -999.000   -999.000   -999.000   121.3750   104.5625   37.50000   16.32020   15.62115   15.56653   15.99238   15.52357   -117.188   -999.000   104.5625 
  3951.000   -999.000   -999.000   -999.000   110.7500   106.0000   38.37500   17.03100   16.34400   16.29700   16.42200   15.13300   -116.875   -999.000   106.0000 
  3951.500   -999.000   -999.000   -999.000   110.5000   105.0625   38.62500   16.98449   16.32050   16.99237   17.03916   15.71501   -115.563   -999.000   105.0625 
  3952.000   -999.000   -999.000   -999.000   110.2500   104.1250   38.87500   16.93800   16.29700   17.68800   17.65600   16.29700   -114.250   -999.000   104.1250 
  3952.500   -999.000   -999.000   -999.000   106.6250   103.3750   39.37500   15.98452   15.39463   16.10191   16.99197   19.04688   -111.719   -999.000   103.3750 
  3953.000   -999.000   -999.000   -999.000   103.0000   102.6250   39.87500   15.03100   14.49200   14.51600   16.32800   21.79700   -109.188   -999.000   102.6250 
  3953.500   -999.000   -999.000   -999.000   101.1250   101.6875   50.56250   14.12095   13.69130   12.83608   14.28520   16.50059   -104.283   -999.000   101.6875 
  3954.000   -999.000   -999.000   -999.000   99.25000   100.7500   61.25000   13.21100   12.89100   11.15600   12.24200   11.20300   -99.3750   -999.000   100.7500 
  3954.500   -999.000   -999.000   -999.000   97.87500   99.87500   66.12500   12.40644   12.14845   10.69899   11.08171   9.343949   -96.3750   -999.000   99.87500 
  3955.000   -999.000   -999.000   -999.000   96.50000   99.00000   71.00000   11.60200   11.40600   10.24200   9.922000   7.484000   -93.3750   -999.000   99.00000 
  3955.500   -999.000   -999.000   -999.000   98.75000   101.0000   70.34380   11.08260   10.89043   10.13252   9.805008   7.642543   -92.8438   -999.000   101.0000 
  3956.000   -999.000   -999.000   -999.000   101.0000   103.0000   69.68800   10.56300   10.37500   10.02300   9.688000   7.801000   -92.3130   -999.000   103.0000 
  3956.500   -999.000   -999.000   -999.000   103.1250   104.0000   63.82809   10.49647   10.31650   10.13651   10.02361   8.372996   -94.8750   -999.000   104.0000 
  3957.000   -999.000   -999.000   -999.000   105.2500   105.0000   57.96900   10.43000   10.25800   10.25000   10.35900   8.945000   -97.4380   -999.000   105.0000 
  3957.500   -999.000   -999.000   -999.000   107.5000   106.9375   55.81193   10.63701   10.47304   10.44151   10.65607   9.991761   -100.938   -999.000   106.9375 
  3958.000   -999.000   -999.000   -999.000   109.7500   108.8750   53.65600   10.84400   10.68800   10.63300   10.95300   11.03900   -104.438   -999.000   108.8750 
  3958.500   -999.000   -999.000   -999.000   111.6250   110.0625   52.46875   11.13710   10.99245   10.84403   11.10555   10.64047   -106.469   -999.000   110.0625 
  3959.000   -999.000   -999.000   -999.000   113.5000   111.2500   51.28100   11.43000   11.29700   11.05500   11.25800   10.24200   -108.500   -999.000   111.2500 
  3959.500   -999.000   -999.000   -999.000   112.2500   110.1250   48.07891   11.59396   11.44547   11.18745   11.39045   10.49194   -109.344   -999.000   110.1250 
  3960.000   -999.000   -999.000   -999.000   111.0000   109.0000   44.87500   11.75800   11.59400   11.32000   11.52300   10.74200   -110.188   -999.000   109.0000 
  3960.500   -999.000   -999.000   -999.000   111.7500   109.2500   43.18750   11.80501   11.62100   11.48805   11.67155   10.71850   -110.782   -999.000   109.2500 
  3961.000   -999.000   -999.000   -999.000   112.5000   109.5000   41.50000   11.85200   11.64800   11.65600   11.82000   10.69500   -111.375   -999.000   109.5000 
  3961.500   -999.000   -999.000   -999.000   111.5000   108.6250   42.43750   11.84400   11.64450   11.66800   11.89447   11.07007   -111.594   -999.000   108.6250 
  3962.000   -999.000   -999.000   -999.000   110.5000   107.7500   43.37500   11.83600   11.64100   11.68000   11.96900   11.44500   -111.813   -999.000   107.7500 
  3962.500   -999.000   -999.000   -999.000   109.6250   107.6250   46.62500   11.87101   11.69151   11.65649   11.92200   10.97662   -111.500   -999.000   107.6250 
  3963.000   -999.000   -999.000   -999.000   108.7500   107.5000   49.87500   11.90600   11.74200   11.63300   11.87500   10.50800   -111.188   -999.000   107.5000 
  3963.500   -999.000   -999.000   -999.000   108.8750   107.2500   48.10922   11.95701   11.78900   11.72650   11.87900   10.38300   -110.813   -999.000   107.2500 
  3964.000   -999.000   -999.000   -999.000   109.0000   107.0000   46.34400   12.00800   11.83600   11.82000   11.88300   10.25800   -110.438   -999.000   107.0000 
  3964.500   -999.000   -999.000   -999.000   115.6250   108.2500   44.37481   11.99250   11.79699   11.88251   11.99247   10.43747   -110.719   -999.000   108.2500 
  3965.000   -999.000   -999.000   -999.000   122.2500   109.5000   42.40600   11.97700   11.75800   11.94500   12.10200   10.61700   -111.000   -999.000   109.5000 
  3965.500   -999.000   -999.000   -999.000   119.1250   110.6250   41.01597   11.92200   11.68752   11.82798   12.10550   11.62921   -111.250   -999.000   110.6250 
  3966.000   -999.000   -999.000   -999.000   116.0000   111.7500   39.62500   11.86700   11.61700   11.71100   12.10900   12.64100   -111.500   -999.000   111.7500 
  3966.500   -999.000   -999.000   -999.000   115.3750   110.5000   42.09349   11.86300   11.61700   11.59398   11.94500   11.40239   -110.656   -999.000   110.5000 
  3967.000   -999.000   -999.000   -999.000   114.7500   109.2500   44.56300   11.85900   11.61700   11.47700   11.78100   10.16400   -109.813   -999.000   109.2500 
  3967.500   -999.000   -999.000   -999.000   114.7500   110.1250   45.71851   11.87850   11.64050   11.48850   11.69149   10.07401   -109.594   -999.000   110.1250 
  3968.000   -999.000   -999.000   -999.000   114.7500   111.0000   46.87500   11.89800   11.66400   11.50000   11.60200   9.984000   -109.375   -999.000   111.0000 
  3968.500   -999.000   -999.000   -999.000   113.7500   110.8750   44.09449   11.95301   11.70300   11.72250   11.77755   10.22651   -110.906   -999.000   110.8750 
  3969.000   -999.000   -999.000   -999.000   112.7500   110.7500   41.31300   12.00800   11.74200   11.94500   11.95300   10.46900   -112.437   -999.000   110.7500 
