~VERSION INFORMATION
VERS.                               2.00: CWLS LOG ASCII STANDARD VERSION 2.00
WRAP.                               NO  : ONE LINE PER DEPTH STEP               
~WELL INFORMATION
#MNEM.UNIT                     DATA TYPE  INFORMATION
#----------------------------------------------------------------------
STRT.F                             16.00: START DEPTH
STOP.F                          11705.00: STOP DEPTH
STEP.F                              0.50: STEP VALUE
NULL.                            -999.00: NULL VALUE
COMP.                                   : COMPANY                               
WELL.                      S MGS UNIT 16: WELL                                  
FLD .                            Unknown: FIELD                                 
LOC .                                   : LOCATION                              
CNTY.                                   : COUNTY                                
STAT.                                   : STATE                                 
CTRY.                                   : COUNTRY                               
SRVC.                                   : SERVICE COMPANY                       
DATE.                                   : LOG DATE                              
API .                   50733204590000  : UNIQUE WELL IDENTIFIER                
~PARAMETER INFORMATION                                                          
#MNEM.UNIT        VALUE   DESCRIPTION                                           
#---------      --------  -----------                                           
~OTHER INFORMATION                                                              
FLS0    .          CIRC                                                         
LGD0    .          7/2/1969                                                     
MT0     .          FRESH/GEL                                                    
FLS0    .          CIRC                                                         
LGD0    .          8/13/1969                                                    
MT0     .          CYPAN                                                        
CSG0    .          13.375" @ 2555                                               
CSG0    .          9.625" @ 10296                                               
~CURVE INFORMATION                                                              
#MNEM.UNIT                 DESCRIPTION                                          
#---------                 -----------                                          
DEPTH   .F               :  1 DEPTH
DRHO    .G/C3          00:  2 DENSITY CORRECTN                                
DT_ORIG .MS/F          00:  3 ORIGINAL SONIC CURVE                            
ILD     .OHMM          00:  4 INDUCTION LOG DEEP                              
ILM     .OHMM          00:  5 INDUCTION LOG MEDIUM                            
SFL     .OHMM          00:  6 SPHER. OR SHAL. FOC. LOG                        
RHOB    .G/C3          00:  7 BULK DENSITY                                    
CALI    .IN            00:  8 CALIPER                                         
SP      .MV            00:  9 SELF POTENTIAL                                  
RT      .OHMM          00: 10 TRUE RESIST CALC FROM AR                        
AF30    .OHMM          00: 11 ARRAY IND 4 FT RESISTIVI                        
AF90    .OHMM          00: 12 ARRAY IND 4 FT RESISTIVI                        
CNS     .%             00: 13 COMPENSATED NEUT (-S)                           
GR      .GAPI          00: 14 GAMMA RAY                                       
AF20    .OHMM          00: 15 ARRAY IND 4 FT RESISTIVI                        
DT      .MS/F          00: 16 INTERV TRANSIT TIME                             
~A  DEPTH    DRHO       DT_ORIG    ILD        ILM        SFL        RHOB       CALI       SP         RT         AF30       AF90       CNS        GR         AF20       DT                                                                                     
# ...
  6663.000   0.042000   90.69500   5.888000   4.616000   5.534000   2.310000   11.31900   23.81700   -999.000   -999.000   -999.000   30.19800   49.13200   -999.000   90.69500 
  6663.500   0.091026   89.94399   5.833983   4.407410   5.620497   2.269996   11.36348   23.69503   -999.000   -999.000   -999.000   30.16148   49.47810   -999.000   89.94399 
  6664.000   0.140000   89.19300   5.780000   4.199000   5.707000   2.230000   11.40800   23.57300   -999.000   -999.000   -999.000   30.12500   49.82400   -999.000   89.19300 
  6664.500   0.154000   88.89899   5.692552   4.030078   5.568031   2.219496   11.31847   23.70045   -999.000   -999.000   -999.000   30.77982   51.20481   -999.000   88.89899 
  6665.000   0.168000   88.60500   5.605000   3.861000   5.429000   2.209000   11.22900   23.82800   -999.000   -999.000   -999.000   31.43400   52.58500   -999.000   88.60500 
  6665.500   0.164499   89.14449   5.663503   4.113419   5.368973   2.239502   11.48252   23.68452   -999.000   -999.000   -999.000   30.56705   53.35046   -999.000   89.14449 
  6666.000   0.161000   89.68400   5.722000   4.366000   5.309000   2.270000   11.73600   23.54100   -999.000   -999.000   -999.000   29.70000   54.11500   -999.000   89.68400 
  6666.500   0.128007   90.75030   5.783501   4.523070   5.357001   2.292508   11.69148   23.78145   -999.000   -999.000   -999.000   29.12078   54.93411   -999.000   90.75030 
  6667.000   0.095000   91.81600   5.845000   4.680000   5.405000   2.315000   11.64700   24.02200   -999.000   -999.000   -999.000   28.54200   55.75400   -999.000   91.81600 
  6667.500   0.103497   91.98851   5.834007   4.855083   5.504954   2.314500   11.70651   24.05701   -999.000   -999.000   -999.000   28.45802   55.27909   -999.000   91.98851 
  6668.000   0.112000   92.16100   5.823000   5.030000   5.605000   2.314000   11.76600   24.09200   -999.000   -999.000   -999.000   28.37400   54.80400   -999.000   92.16100 
  6668.500   0.105502   91.10779   5.708544   4.603367   5.533483   2.292995   11.88503   23.90240   -999.000   -999.000   -999.000   28.59749   53.74493   -999.000   91.10779 
  6669.000   0.099000   90.05400   5.594000   4.177000   5.462000   2.272000   12.00400   23.71300   -999.000   -999.000   -999.000   28.82100   52.68500   -999.000   90.05400 
  6669.500   0.113996   89.03120   5.658993   4.081534   5.365012   2.268499   11.66169   23.73800   -999.000   -999.000   -999.000   27.26983   49.52154   -999.000   89.03120 
  6670.000   0.129000   88.00900   5.724000   3.986000   5.268000   2.265000   11.31900   23.76300   -999.000   -999.000   -999.000   25.71700   46.35500   -999.000   88.00900 
  6670.500   0.117493   88.09901   5.672981   4.112467   5.145493   2.271999   11.67658   23.66600   -999.000   -999.000   -999.000   26.00810   44.28610   -999.000   88.09901 
  6671.000   0.106000   88.18900   5.622000   4.239000   5.023000   2.279000   12.03400   23.56900   -999.000   -999.000   -999.000   26.29900   42.21700   -999.000   88.18900 
  6671.500   0.100500   89.34247   5.520007   4.371052   4.975986   2.283998   11.89995   23.69603   -999.000   -999.000   -999.000   26.75903   41.65943   -999.000   89.34247 
  6672.000   0.095000   90.49600   5.418000   4.503000   4.929000   2.289000   11.76600   23.82300   -999.000   -999.000   -999.000   27.21900   41.10200   -999.000   90.49600 
  6672.500   0.097000   90.57597   5.270946   4.554991   4.965993   2.272501   11.78101   23.79700   -999.000   -999.000   -999.000   26.29181   41.97168   -999.000   90.57597 
  6673.000   0.099000   90.65600   5.124000   4.607000   5.003000   2.256000   11.79600   23.77100   -999.000   -999.000   -999.000   25.36500   42.84200   -999.000   90.65600 
  6673.500   0.109504   90.03636   5.226537   4.726982   4.974490   2.229513   12.01953   23.47094   -999.000   -999.000   -999.000   25.58290   44.74393   -999.000   90.03636 
  6674.000   0.120000   89.41600   5.329000   4.847000   4.946000   2.203000   12.24300   23.17100   -999.000   -999.000   -999.000   25.80100   46.64500   -999.000   89.41600 
  6674.500   0.117001   89.20100   5.427027   4.867013   4.916002   2.218503   11.98940   23.19450   -999.000   -999.000   -999.000   26.25896   47.01608   -999.000   89.20100 
  6675.000   0.114000   88.98600   5.525000   4.887000   4.886000   2.234000   11.73600   23.21800   -999.000   -999.000   -999.000   26.71700   47.38700   -999.000   88.98600 
  6675.500   0.082996   89.36084   5.482514   4.612610   4.873506   2.263507   11.49757   23.46891   -999.000   -999.000   -999.000   26.02103   45.02282   -999.000   89.36084 
  6676.000   0.052000   89.73600   5.440000   4.338000   4.861000   2.293000   11.25900   23.72000   -999.000   -999.000   -999.000   25.32600   42.65700   -999.000   89.73600 
  6676.500   0.045502   89.89002   5.442000   4.182608   4.788008   2.284998   11.73621   23.46903   -999.000   -999.000   -999.000   25.32850   43.27212   -999.000   89.89002 
  6677.000   0.039000   90.04400   5.444000   4.027000   4.715000   2.277000   12.21300   23.21800   -999.000   -999.000   -999.000   25.33100   43.88700   -999.000   90.04400 
  6677.500   0.049507   89.94901   5.471005   4.218385   4.699494   2.264505   12.03394   23.02748   -999.000   -999.000   -999.000   26.12239   43.61802   -999.000   89.94901 
  6678.000   0.060000   89.85400   5.498000   4.410000   4.684000   2.252000   11.85500   22.83700   -999.000   -999.000   -999.000   26.91400   43.34900   -999.000   89.85400 
  6678.500   0.065999   89.56853   5.543473   4.574619   4.733016   2.245001   12.16802   22.74144   -999.000   -999.000   -999.000   27.29965   43.24247   -999.000   89.56853 
  6679.000   0.072000   89.28300   5.589000   4.739000   4.782000   2.238000   12.48100   22.64600   -999.000   -999.000   -999.000   27.68500   43.13600   -999.000   89.28300 
  6679.500   0.073500   89.15099   5.544481   4.691028   4.807511   2.244997   12.37701   22.57403   -999.000   -999.000   -999.000   27.61197   43.52011   -999.000   89.15099 
  6680.000   0.075000   89.01900   5.500000   4.643000   4.833000   2.252000   12.27300   22.50200   -999.000   -999.000   -999.000   27.53900   43.90400   -999.000   89.01900 
  6680.500   0.054510   89.08598   5.496500   4.504517   4.781488   2.268004   12.15355   22.35950   -999.000   -999.000   -999.000   27.09450   44.34540   -999.000   89.08598 
  6681.000   0.034000   89.15300   5.493000   4.366000   4.730000   2.284000   12.03400   22.21700   -999.000   -999.000   -999.000   26.65000   44.78700   -999.000   89.15300 
  6681.500   0.025000   89.29706   5.500501   4.332506   4.684029   2.285000   11.94451   22.10946   -999.000   -999.000   -999.000   25.97052   44.60442   -999.000   89.29706 
  6682.000   0.016000   89.44100   5.508000   4.299000   4.638000   2.286000   11.85500   22.00200   -999.000   -999.000   -999.000   25.29100   44.42200   -999.000   89.44100 
  6682.500   0.016500   89.32654   5.481487   4.298000   4.558475   2.272005   11.85500   22.14604   -999.000   -999.000   -999.000   24.48376   43.38069   -999.000   89.32654 
  6683.000   0.017000   89.21200   5.455000   4.297000   4.479000   2.258000   11.85500   22.29000   -999.000   -999.000   -999.000   23.67600   42.34000   -999.000   89.21200 
  6683.500   0.030496   89.19301   5.444996   4.502458   4.519488   2.253500   12.13841   22.54958   -999.000   -999.000   -999.000   24.66997   44.61826   -999.000   89.19301 
  6684.000   0.044000   89.17400   5.435000   4.708000   4.560000   2.249000   12.42200   22.80900   -999.000   -999.000   -999.000   25.66400   46.89700   -999.000   89.17400 
  6684.500   0.053497   89.05495   5.661479   4.871071   4.658446   2.257502   12.43699   22.18343   -999.000   -999.000   -999.000   26.11609   46.18875   -999.000   89.05495 
  6685.000   0.063000   88.93600   5.888000   5.034000   4.757000   2.266000   12.45200   21.55800   -999.000   -999.000   -999.000   26.56800   45.48000   -999.000   88.93600 
  6685.500   0.061500   88.00926   6.039452   5.069003   4.721507   2.287512   12.12407   21.05492   -999.000   -999.000   -999.000   26.15656   45.79162   -999.000   88.00926 
