~VERSION INFORMATION
VERS.                               2.00: CWLS LOG ASCII STANDARD VERSION 2.00
WRAP.                               NO  : ONE LINE PER DEPTH STEP               
~WELL INFORMATION
#MNEM.UNIT                     DATA TYPE  INFORMATION
#----------------------------------------------------------------------
STRT.F                           1691.00: START DEPTH
STOP.F                          10167.00: STOP DEPTH
STEP.F                              0.50: STEP VALUE
NULL.                            -999.00: NULL VALUE
COMP.                                   : COMPANY                               
WELL.                        MGS C-22-23: WELL                                  
FLD .                            Unknown: FIELD                                 
LOC .                                   : LOCATION                              
CNTY.                                   : COUNTY                                
STAT.                                   : STATE                                 
CTRY.                                   : COUNTRY                               
SRVC.                                   : SERVICE COMPANY                       
DATE.                                   : LOG DATE                              
API .                   50733203970000  : UNIQUE WELL IDENTIFIER                
~PARAMETER INFORMATION                                                          
#MNEM.UNIT        VALUE   DESCRIPTION                                           
#---------      --------  -----------                                           
~OTHER INFORMATION                                                              
CSG0    .          9.625" @ 6034                                                
FLS0    .          CIRC                                                         
LGD0    .          6/6/1988                                                     
MT0     .          #2                                                           
~CURVE INFORMATION                                                              
#MNEM.UNIT                 DESCRIPTION                                          
#---------                 -----------                                          
DEPTH   .F               :  1 DEPTH
DRHO    .G/C3          00:  2 DENSITY CORRECTN                                
RHOB    .G/C3          00:  3 BULK DENSITY                                    
CALI    .IN            00:  4 CALIPER                                         
DTL     .MS/F          00:  5 INTERV TRANSIT TIME LONG                        
DT_ORIG .MS/F          00:  6 ORIGINAL SONIC CURVE                            
GR      .GAPI          00:  7 GAMMA RAY                                       
IDPH    .OHMM          00:  8 INDUCTION DB PHASOR                             
ILD     .OHMM          00:  9 INDUCTION LOG DEEP                              
ILM     .OHMM          00: 10 INDUCTION LOG MEDIUM                            
IMPH    .OHMM          00: 11 INDUCTION MEDIUM PHASOR                         
SFL     .OHMM          00: 12 SPHER. OR SHAL. FOC. LOG                        
SP      .MV            00: 13 SELF POTENTIAL                                  
PEF     .B/E           00: 14 FOTO ELECTRO. XSCT                              
DT      .MS/F          00: 15 INTERV TRANSIT TIME                             
~A  DEPTH    DRHO       RHOB       CALI       DTL        DT_ORIG    GR         IDPH       ILD        ILM        IMPH       SFL        SP         PEF        DT                                                                                                
# ...
  8967.500   -.034973   1.814448   13.64006   72.43750   70.75000   59.70319   7.484487   7.378996   7.650982   7.349445   5.428000   -27.5000   24.83597   70.75000 
  8968.000   -.065000   1.719000   13.00000   75.12500   73.00000   53.03100   7.504000   7.473000   8.664000   7.273000   5.430000   -27.0000   27.50000   73.00000 
  8968.500   -.058503   1.744505   13.01151   90.00000   87.93750   50.65625   7.499998   7.480503   9.452795   8.460938   5.894184   -26.4451   24.55589   87.93750 
  8969.000   -.052000   1.770000   13.02300   104.8750   102.8750   48.28100   7.496000   7.488000   10.24200   9.648000   6.359000   -25.8910   21.60900   102.8750 
  8969.500   -.044999   1.821487   12.48103   111.3750   111.1250   47.99990   7.228537   7.144279   9.500152   10.13274   9.114080   -25.5234   18.06401   111.1250 
  8970.000   -.038000   1.873000   11.94000   117.8750   119.3750   47.71900   6.961000   6.801000   8.758000   10.61700   11.86700   -25.1560   14.51600   119.3750 
  8970.500   -.026493   1.957514   11.40024   113.6250   112.3125   52.06112   6.949497   6.799002   7.504131   8.919767   10.11230   -24.6724   13.61367   112.3125 
  8971.000   -.015000   2.042000   10.86100   109.3750   105.2500   56.40600   6.938000   6.797000   6.250000   7.223000   8.359000   -24.1880   12.71100   105.2500 
  8971.500   -.007005   2.106485   10.40866   101.2500   99.06250   56.68743   7.117389   7.072463   6.234502   6.424391   7.148856   -24.0704   13.44604   99.06250 
  8972.000   0.001000   2.171000   9.956000   93.12500   92.87500   56.96900   7.297000   7.348000   6.219000   5.625000   5.938000   -23.9530   14.18200   92.87500 
  8972.500   0.004501   2.182504   9.664104   90.21246   89.28320   57.85796   7.010182   7.027413   6.228498   5.736475   6.306786   -24.5002   13.13540   89.28320 
  8973.000   0.008000   2.194000   9.372000   87.29700   85.69500   58.74600   6.723000   6.707000   6.238000   5.848000   6.676000   -25.0470   12.09000   85.69500 
  8973.500   0.010501   2.199502   9.246517   87.26099   85.78499   61.52859   6.572607   6.502111   6.195019   6.185616   6.693506   -25.6245   10.90698   85.78499 
  8974.000   0.013000   2.205000   9.121000   87.22500   85.87500   64.31300   6.422000   6.297000   6.152000   6.523000   6.711000   -26.2030   9.725000   85.87500 
  8974.500   0.014999   2.220498   9.029475   86.86252   85.62500   62.54764   6.703203   6.580047   6.455212   6.692942   6.156931   -27.2343   9.495615   85.62500 
  8975.000   0.017000   2.236000   8.938000   86.50000   85.37500   60.78100   6.984000   6.863000   6.758000   6.863000   5.602000   -28.2660   9.266000   85.37500 
  8975.500   0.011497   2.332440   8.625488   85.68750   85.18750   59.86028   7.419564   7.306363   7.854900   7.435984   6.134816   -30.4135   8.680437   85.18750 
  8976.000   0.006000   2.429000   8.313000   84.87500   85.00000   58.93800   7.855000   7.750000   8.953000   8.008000   6.668000   -32.5630   8.094000   85.00000 
  8976.500   0.002999   2.438501   8.214973   82.75000   82.56250   54.21734   8.278988   8.175924   9.066549   8.996087   9.070668   -35.1414   8.870735   82.56250 
  8977.000   0.000000   2.448000   8.117000   80.62500   80.12500   49.50000   8.703000   8.602000   9.180000   9.984000   11.47700   -37.7190   9.648000   80.12500 
  8977.500   -.002501   2.440001   8.105499   77.68750   78.87500   47.12500   9.019646   8.891125   9.004059   9.918028   11.84803   -38.8276   8.828331   78.87500 
  8978.000   -.005000   2.432000   8.094000   74.75000   77.62500   44.75000   9.336000   9.180000   8.828000   9.852000   12.21900   -39.9380   8.008000   77.62500 
  8978.500   -.008499   2.427998   8.094000   76.00182   76.39523   42.71229   9.234489   9.035570   8.746019   9.226563   11.94941   -40.6885   7.718977   76.39523 
  8979.000   -.012000   2.424000   8.094000   77.25200   75.16600   40.67200   9.133000   8.891000   8.664000   8.602000   11.68000   -41.4380   7.430000   75.16600 
  8979.500   -.010501   2.430502   8.094000   78.37508   77.70831   44.75539   8.878904   8.621345   8.472429   8.383059   10.30127   -41.8755   7.665916   77.70831 
  8980.000   -.009000   2.437000   8.094000   79.50000   80.25000   48.84400   8.625000   8.352000   8.281000   8.164000   8.922000   -42.3130   7.902000   80.25000 
  8980.500   -.012501   2.417000   8.094000   81.25000   81.43750   46.06390   8.644492   8.359497   8.308506   8.289063   8.633177   -42.7505   7.245972   81.43750 
  8981.000   -.016000   2.397000   8.094000   83.00000   82.62500   43.28100   8.664000   8.367000   8.336000   8.414000   8.344000   -43.1880   6.590000   82.62500 
  8981.500   -.012003   2.390498   8.124998   81.68750   80.75000   44.46875   9.117187   8.800669   9.015847   8.886606   8.746202   -43.2505   6.839844   80.75000 
  8982.000   -.008000   2.384000   8.156000   80.37500   78.87500   45.65600   9.570000   9.234000   9.695000   9.359000   9.148000   -43.3130   7.090000   78.87500 
  8982.500   -.004502   2.398503   8.132504   73.43750   73.43750   44.53125   10.34786   9.976213   10.13631   10.10520   12.42696   -42.7966   7.505884   73.43750 
  8983.000   -.001000   2.413000   8.109000   66.50000   68.00000   43.40600   11.12500   10.71900   10.57800   10.85200   15.70300   -42.2810   7.922000   68.00000 
  8983.500   0.001499   2.462974   8.175535   66.75000   67.87500   44.61044   11.76952   11.27783   10.55051   11.09398   16.39821   -41.8282   9.351788   67.87500 
  8984.000   0.004000   2.513000   8.242000   67.00000   67.75000   45.81300   12.41400   11.83600   10.52300   11.33600   17.09400   -41.3750   10.78100   67.75000 
  8984.500   0.002001   2.505498   8.167952   71.68750   73.50000   45.54702   12.43351   11.80451   10.42152   10.95320   14.54808   -40.7028   10.87504   73.50000 
  8985.000   0.000000   2.498000   8.094000   76.37500   79.25000   45.28100   12.45300   11.77300   10.32000   10.57000   12.00000   -40.0310   10.96900   79.25000 
  8985.500   -.001500   2.466499   8.094000   80.43750   80.62500   43.35803   11.89062   11.25784   9.644719   10.03077   11.26939   -39.0617   10.04783   80.62500 
  8986.000   -.003000   2.435000   8.094000   84.50000   82.00000   41.43800   11.32800   10.74200   8.969000   9.492000   10.53900   -38.0940   9.125000   82.00000 
  8986.500   -.002500   2.352477   9.343750   83.44855   83.16211   51.50000   10.91420   10.40611   8.913988   9.140274   9.839970   -35.7673   12.83439   83.16211 
  8987.000   -.002000   2.270000   10.59400   82.39900   84.32400   61.56300   10.50000   10.07000   8.859000   8.789000   9.141000   -33.4380   16.54700   84.32400 
  8987.500   0.002001   2.206999   11.23088   81.78995   82.65086   71.48751   10.19914   9.804723   9.253640   8.996098   9.679914   -32.1650   17.90580   82.65086 
  8988.000   0.006000   2.144000   11.86700   81.18000   80.97700   81.41400   9.898000   9.539000   9.648000   9.203000   10.21900   -30.8910   19.26600   80.97700 
  8988.500   0.039513   2.213030   11.84348   77.60849   77.19876   81.14350   9.765388   9.409956   9.628503   9.628931   10.36347   -30.6876   18.72668   77.19876 
  8989.000   0.073000   2.282000   11.82000   74.03900   73.41400   80.87300   9.633000   9.281000   9.609000   10.05500   10.50800   -30.4840   18.18800   73.41400 
  8989.500   0.081001   2.307506   11.38232   73.51938   73.20688   87.81287   9.523485   9.163889   9.273602   9.851395   10.05522   -30.2183   18.22699   73.20688 
  8990.000   0.089000   2.333000   10.94500   73.00000   73.00000   94.75000   9.414000   9.047000   8.938000   9.648000   9.602000   -29.9530   18.26600   73.00000 
  8990.500   0.086500   2.322500   11.42173   74.68750   74.81250   93.15598   9.277512   8.922119   8.590113   9.093218   8.708878   -30.1484   16.41068   74.81250 
  8991.000   0.084000   2.312000   11.89800   76.37500   76.62500   91.56300   9.141000   8.797000   8.242000   8.539000   7.816000   -30.3440   14.55500   76.62500 
  8991.500   0.079997   2.304505   11.98800   76.06250   75.75000   90.37500   8.902472   8.558722   8.109550   8.238320   7.634594   -30.5624   14.30518   75.75000 
