~VERSION INFORMATION
VERS.                               2.00: CWLS LOG ASCII STANDARD VERSION 2.00
WRAP.                               NO  : ONE LINE PER DEPTH STEP               
~WELL INFORMATION
#MNEM.UNIT                     DATA TYPE  INFORMATION
#----------------------------------------------------------------------
STRT.F                           1691.00: START DEPTH
STOP.F                          10167.00: STOP DEPTH
STEP.F                              0.50: STEP VALUE
NULL.                            -999.00: NULL VALUE
COMP.                                   : COMPANY                               
WELL.                        MGS C-22-23: WELL                                  
FLD .                            Unknown: FIELD                                 
LOC .                                   : LOCATION                              
CNTY.                                   : COUNTY                                
STAT.                                   : STATE                                 
CTRY.                                   : COUNTRY                               
SRVC.                                   : SERVICE COMPANY                       
DATE.                                   : LOG DATE                              
API .                   50733203970000  : UNIQUE WELL IDENTIFIER                
~PARAMETER INFORMATION                                                          
#MNEM.UNIT        VALUE   DESCRIPTION                                           
#---------      --------  -----------                                           
~OTHER INFORMATION                                                              
CSG0    .          9.625" @ 6034                                                
FLS0    .          CIRC                                                         
LGD0    .          6/6/1988                                                     
MT0     .          #2                                                           
~CURVE INFORMATION                                                              
#MNEM.UNIT                 DESCRIPTION                                          
#---------                 -----------                                          
DEPTH   .F               :  1 DEPTH
DRHO    .G/C3          00:  2 DENSITY CORRECTN                                
RHOB    .G/C3          00:  3 BULK DENSITY                                    
CALI    .IN            00:  4 CALIPER                                         
DTL     .MS/F          00:  5 INTERV TRANSIT TIME LONG                        
DT_ORIG .MS/F          00:  6 ORIGINAL SONIC CURVE                            
GR      .GAPI          00:  7 GAMMA RAY                                       
IDPH    .OHMM          00:  8 INDUCTION DB PHASOR                             
ILD     .OHMM          00:  9 INDUCTION LOG DEEP                              
ILM     .OHMM          00: 10 INDUCTION LOG MEDIUM                            
IMPH    .OHMM          00: 11 INDUCTION MEDIUM PHASOR                         
SFL     .OHMM          00: 12 SPHER. OR SHAL. FOC. LOG                        
SP      .MV            00: 13 SELF POTENTIAL                                  
PEF     .B/E           00: 14 FOTO ELECTRO. XSCT                              
DT      .MS/F          00: 15 INTERV TRANSIT TIME                             
~A  DEPTH    DRHO       RHOB       CALI       DTL        DT_ORIG    GR         IDPH       ILD        ILM        IMPH       SFL        SP         PEF        DT                                                                                                
# ...
  3381.500   -999.000   -999.000   -999.000   106.2500   107.0000   82.25000   7.057001   6.968510   6.107500   6.197491   5.892433   -51.6410   -999.000   107.0000 
  3382.000   -999.000   -999.000   -999.000   109.0000   108.7500   84.68800   7.094000   7.023000   6.125000   6.141000   5.508000   -51.5630   -999.000   108.7500 
  3382.500   -999.000   -999.000   -999.000   109.7500   110.0625   85.18799   7.215007   7.148010   6.351468   6.295038   5.577991   -51.7035   -999.000   110.0625 
  3383.000   -999.000   -999.000   -999.000   110.5000   111.3750   85.68800   7.336000   7.273000   6.578000   6.449000   5.648000   -51.8440   -999.000   111.3750 
  3383.500   -999.000   -999.000   -999.000   111.0000   111.3125   84.50049   7.513536   7.443007   6.871020   6.808450   6.250005   -52.1721   -999.000   111.3125 
  3384.000   -999.000   -999.000   -999.000   111.5000   111.2500   83.31300   7.691000   7.613000   7.164000   7.168000   6.852000   -52.5000   -999.000   111.2500 
  3384.500   -999.000   -999.000   -999.000   110.8750   110.7500   83.34400   7.935525   7.872946   7.336017   7.470560   7.589791   -52.7344   -999.000   110.7500 
  3385.000   -999.000   -999.000   -999.000   110.2500   110.2500   83.37500   8.180000   8.133000   7.508000   7.773000   8.328000   -52.9690   -999.000   110.2500 
  3385.500   -999.000   -999.000   -999.000   110.7500   111.1250   85.37500   8.296998   8.257996   7.578008   7.810502   8.148504   -53.1720   -999.000   111.1250 
  3386.000   -999.000   -999.000   -999.000   111.2500   112.0000   87.37500   8.414000   8.383000   7.648000   7.848000   7.969000   -53.3750   -999.000   112.0000 
  3386.500   -999.000   -999.000   -999.000   115.0000   114.2500   88.31250   8.351501   8.316494   7.579999   7.728470   7.595949   -53.5470   -999.000   114.2500 
  3387.000   -999.000   -999.000   -999.000   118.7500   116.5000   89.25000   8.289000   8.250000   7.512000   7.609000   7.223000   -53.7190   -999.000   116.5000 
  3387.500   -999.000   -999.000   -999.000   117.7500   117.2500   87.90691   8.172015   8.119003   7.287559   7.429527   7.011976   -54.0626   -999.000   117.2500 
  3388.000   -999.000   -999.000   -999.000   116.7500   118.0000   86.56300   8.055000   7.988000   7.063000   7.250000   6.801000   -54.4060   -999.000   118.0000 
  3388.500   -999.000   -999.000   -999.000   116.0000   115.7500   87.59405   8.012000   7.931510   7.037494   7.119027   6.794999   -54.7810   -999.000   115.7500 
  3389.000   -999.000   -999.000   -999.000   115.2500   113.5000   88.62500   7.969000   7.875000   7.012000   6.988000   6.789000   -55.1560   -999.000   113.5000 
  3389.500   -999.000   -999.000   -999.000   114.1250   114.0000   88.96896   7.949505   7.842002   7.068513   7.025496   6.956966   -55.2345   -999.000   114.0000 
  3390.000   -999.000   -999.000   -999.000   113.0000   114.5000   89.31300   7.930000   7.809000   7.125000   7.063000   7.125000   -55.3130   -999.000   114.5000 
  3390.500   -999.000   -999.000   -999.000   114.6250   114.5000   89.84402   7.965007   7.839999   7.166002   7.189501   7.238479   -55.4535   -999.000   114.5000 
  3391.000   -999.000   -999.000   -999.000   116.2500   114.5000   90.37500   8.000000   7.871000   7.207000   7.316000   7.352000   -55.5940   -999.000   114.5000 
  3391.500   -999.000   -999.000   -999.000   115.0000   113.6875   87.84447   8.132992   8.006021   7.316495   7.429530   7.074497   -55.4535   -999.000   113.6875 
  3392.000   -999.000   -999.000   -999.000   113.7500   112.8750   85.31300   8.266000   8.141000   7.426000   7.543000   6.797000   -55.3130   -999.000   112.8750 
  3392.500   -999.000   -999.000   -999.000   111.2500   110.1875   84.90649   8.402491   8.246491   7.603556   7.702969   7.306558   -55.1565   -999.000   110.1875 
  3393.000   -999.000   -999.000   -999.000   108.7500   107.5000   84.50000   8.539000   8.352000   7.781000   7.863000   7.816000   -55.0000   -999.000   107.5000 
  3393.500   -999.000   -999.000   -999.000   104.8750   104.3750   81.25000   8.836008   8.605471   8.082016   8.173566   7.908019   -54.9690   -999.000   104.3750 
  3394.000   -999.000   -999.000   -999.000   101.0000   101.2500   78.00000   9.133000   8.859000   8.383000   8.484000   8.000000   -54.9380   -999.000   101.2500 
  3394.500   -999.000   -999.000   -999.000   98.00000   97.68750   74.46903   9.840053   9.511705   9.058286   9.140654   8.695578   -54.9690   -999.000   97.68750 
  3395.000   -999.000   -999.000   -999.000   95.00000   94.12500   70.93800   10.54700   10.16400   9.734000   9.797000   9.391000   -55.0000   -999.000   94.12500 
  3395.500   -999.000   -999.000   -999.000   92.37500   91.75000   73.15644   12.08556   11.61741   11.57354   11.39490   9.559058   -54.8280   -999.000   91.75000 
  3396.000   -999.000   -999.000   -999.000   89.75000   89.37500   75.37500   13.62500   13.07000   13.41400   12.99200   9.727000   -54.6560   -999.000   89.37500 
  3396.500   -999.000   -999.000   -999.000   80.37500   80.93750   71.00000   15.50000   14.69140   17.69928   17.19168   12.13678   -54.2810   -999.000   80.93750 
  3397.000   -999.000   -999.000   -999.000   71.00000   72.50000   66.62500   17.37500   16.31300   21.98400   21.39100   14.54700   -53.9060   -999.000   72.50000 
  3397.500   -999.000   -999.000   -999.000   69.87500   69.37500   61.48429   18.15631   16.83588   22.36694   25.96945   27.56832   -53.6405   -999.000   69.37500 
  3398.000   -999.000   -999.000   -999.000   68.75000   66.25000   56.34400   18.93800   17.35900   22.75000   30.54700   40.59400   -53.3750   -999.000   66.25000 
  3398.500   -999.000   -999.000   -999.000   72.87500   71.93750   58.45303   18.48451   17.00000   19.13735   25.24983   33.93583   -53.2189   -999.000   71.93750 
  3399.000   -999.000   -999.000   -999.000   77.00000   77.62500   60.56300   18.03100   16.64100   15.52300   19.95300   27.28100   -53.0630   -999.000   77.62500 
  3399.500   -999.000   -999.000   -999.000   87.25000   86.00000   63.75125   16.73817   15.61746   13.86710   16.23069   19.01867   -53.1880   -999.000   86.00000 
  3400.000   -999.000   -999.000   -999.000   97.50000   94.37500   66.93800   15.44500   14.59400   12.21100   12.50800   10.75800   -53.3130   -999.000   94.37500 
  3400.500   -999.000   -999.000   -999.000   100.6250   98.81250   69.46935   14.08230   13.35523   11.73440   11.57031   9.664141   -53.4690   -999.000   98.81250 
  3401.000   -999.000   -999.000   -999.000   103.7500   103.2500   72.00000   12.71900   12.11700   11.25800   10.63300   8.570000   -53.6250   -999.000   103.2500 
  3401.500   -999.000   -999.000   -999.000   103.5000   102.8750   71.81250   12.07842   11.52362   10.86344   10.67600   9.125084   -53.4845   -999.000   102.8750 
  3402.000   -999.000   -999.000   -999.000   103.2500   102.5000   71.62500   11.43800   10.93000   10.46900   10.71900   9.680000   -53.3440   -999.000   102.5000 
  3402.500   -999.000   -999.000   -999.000   103.3750   102.6875   74.78165   11.37549   10.91050   10.40249   10.75000   9.855542   -53.2190   -999.000   102.6875 
  3403.000   -999.000   -999.000   -999.000   103.5000   102.8750   77.93800   11.31300   10.89100   10.33600   10.78100   10.03100   -53.0940   -999.000   102.8750 
  3403.500   -999.000   -999.000   -999.000   103.5000   103.0625   80.43750   11.40648   11.03149   10.41798   10.72651   9.964514   -53.3285   -999.000   103.0625 
  3404.000   -999.000   -999.000   -999.000   103.5000   103.2500   82.93800   11.50000   11.17200   10.50000   10.67200   9.898000   -53.5630   -999.000   103.2500 
  3404.500   -999.000   -999.000   -999.000   103.6250   102.9375   83.15655   11.41403   11.10149   10.44900   10.64450   10.09349   -53.5005   -999.000   102.9375 
  3405.000   -999.000   -999.000   -999.000   103.7500   102.6250   83.37500   11.32800   11.03100   10.39800   10.61700   10.28900   -53.4380   -999.000   102.6250 
  3405.500   -999.000   -999.000   -999.000   103.0000   102.2500   82.43750   10.98054   10.68741   9.918112   10.31257   10.10944   -53.0630   -999.000   102.2500 
