~VERSION INFORMATION
VERS.                               2.00: CWLS LOG ASCII STANDARD VERSION 2.00
WRAP.                               NO  : ONE LINE PER DEPTH STEP               
~WELL INFORMATION
#MNEM.UNIT                     DATA TYPE  INFORMATION
#----------------------------------------------------------------------
STRT.F                            920.00: START DEPTH
STOP.F                           9532.00: STOP DEPTH
STEP.F                              0.50: STEP VALUE
NULL.                            -999.00: NULL VALUE
COMP.                                   : COMPANY                               
WELL.                       SRS TERN A-1: WELL                                  
FLD .            Granite Pt/Beluga River: FIELD                                 
LOC .      10N  10W   19 0585FNL 0636FWL: LOCATION                              
CNTY.                 GREATER_COOK_INLET: COUNTY                                
STAT.                             Alaska: STATE                                 
CTRY.                                 US: COUNTRY                               
SRVC.                                   : SERVICE COMPANY                       
DATE.                                   : LOG DATE                              
API .                   50733203530000  : UNIQUE WELL IDENTIFIER                
~PARAMETER INFORMATION                                                          
#MNEM.UNIT        VALUE   DESCRIPTION                                           
#---------      --------  -----------                                           
ELEV    .F          171.5: KB ELEVATION                                         
TDD     .F         9519.0: TOTAL DEPTH DRILLED                                  
~OTHER INFORMATION                                                              
FLS0    .          CIRCULATED                                                   
LGD0    .          7/13/82                                                      
MT0     .          DIS GEL H2O                                                  
FLS0    .          CIRCULATED                                                   
LGD0    .          7/24/82                                                      
FLS0    .          FLOWLINE                                                     
LGD0    .          8/2/82                                                       
MT0     .          LOW SOLIDS NONDISPERSED                                      
~CURVE INFORMATION                                                              
#MNEM.UNIT                 DESCRIPTION                                          
#---------                 -----------                                          
DEPTH   .F               :  1 DEPTH
GR      .GAPI          00:  2 GAMMA RAY                                       
SP      .MV            00:  3 SELF POTENTIAL                                  
CALI    .IN            00:  4 CALIPER                                         
SFL     .OHMM          00:  5 SPHER. OR SHAL. FOC. LOG                        
ILD     .OHMM          00:  6 INDUCTION LOG DEEP                              
ILM     .OHMM          00:  7 INDUCTION LOG MEDIUM                            
CNS     .%             00:  8 COMPENSATED NEUT (-S)                           
DRHO    .G/C3          00:  9 DENSITY CORRECTN                                
RHOB    .G/C3          00: 10 BULK DENSITY                                    
DT      .US/F          00: 11 INTERV TRANSIT TIME                             
MNOR    .OHMM          00: 12 NORMAL MICROLOG                                 
MINV    .OHMM          00: 13 INV MICROLOG                                    
PROX    .OHMM          00: 14 PROXIMITY LOG                                   
POTA    .PPM           00: 15 POTASSIUM                                       
URAN    .PPM           00: 16 URANIUM                                         
THOR    .PPM           00: 17 THORIUM                                         
SGR     .GAPI          00: 18 GAMMA RAY                                       
CGR     .GAPI          00: 19 GAMMA RAY                                       
~A  DEPTH    GR         SP         CALI       SFL        ILD        ILM        CNS        DRHO       RHOB       DT         MNOR       MINV       PROX       POTA       URAN       THOR       SGR        CGR                                                   
# ...
  8388.500   73.29940   107.1477   10.59430   13.24160   10.22650   10.22650   26.33000   0.080000   2.465100   85.64230   -999.000   -999.000   -999.000   -999.000   -999.000   -999.000   -999.000   -999.000 
  8389.000   72.17480   105.4049   10.68020   14.74150   10.30450   10.30450   26.09000   0.107100   2.505500   84.57400   -999.000   -999.000   -999.000   -999.000   -999.000   -999.000   -999.000   -999.000 
  8389.500   71.36750   104.4841   10.76400   15.48160   10.38220   10.38220   25.86000   0.116800   2.480500   85.32260   -999.000   -999.000   -999.000   -999.000   -999.000   -999.000   -999.000   -999.000 
  8390.000   70.60410   -999.000   10.84780   16.30310   10.60560   10.60560   25.47000   0.093300   2.455500   86.07130   -999.000   -999.000   -999.000   -999.000   -999.000   -999.000   -999.000   -999.000 
  8390.500   69.93390   -999.000   10.82570   17.20910   10.87720   10.87720   25.15000   0.069700   2.430500   86.81990   -999.000   -999.000   -999.000   -999.000   -999.000   -999.000   -999.000   -999.000 
  8391.000   69.26380   -999.000   10.72640   18.16550   11.15570   11.15570   25.57000   0.024100   2.423600   86.38350   -999.000   -999.000   -999.000   -999.000   -999.000   -999.000   -999.000   -999.000 
  8391.500   68.59360   -999.000   10.70370   18.37040   11.59460   11.59460   26.00000   -.000500   2.419200   85.88630   -999.000   -999.000   -999.000   -999.000   -999.000   -999.000   -999.000   -999.000 
  8392.000   67.92340   -999.000   10.68730   16.66770   12.39000   12.39000   26.42000   0.015000   2.444300   84.05430   -999.000   -999.000   -999.000   -999.000   -999.000   -999.000   -999.000   -999.000 
  8392.500   67.25320   99.15560   10.59890   16.60610   13.29250   12.98950   26.12000   0.051500   2.523800   80.58020   -999.000   -999.000   -999.000   -999.000   -999.000   -999.000   -999.000   -999.000 
  8393.000   66.63570   98.72490   10.46500   18.23070   14.05190   13.12180   25.40000   0.087900   2.556600   78.24390   -999.000   -999.000   -999.000   -999.000   -999.000   -999.000   -999.000   -999.000 
  8393.500   66.44670   98.47980   10.31040   22.82720   13.97600   12.96280   23.43000   0.146400   2.599400   77.48290   -999.000   -999.000   -999.000   -999.000   -999.000   -999.000   -999.000   -999.000 
  8394.000   66.32580   98.25570   10.27310   26.39740   13.76350   12.72410   22.67000   0.201000   2.559300   81.60690   -999.000   -999.000   -999.000   -999.000   -999.000   -999.000   -999.000   -999.000 
  8394.500   66.61440   98.05920   10.41590   24.32340   13.54670   12.48990   24.00000   0.161700   2.486200   85.31170   -999.000   -999.000   -999.000   -999.000   -999.000   -999.000   -999.000   -999.000 
  8395.000   67.85270   97.84800   10.61600   22.11830   13.33340   12.25990   25.34000   0.122300   2.384500   87.61970   -999.000   -999.000   -999.000   -999.000   -999.000   -999.000   -999.000   -999.000 
  8395.500   70.80610   97.52120   10.75590   21.62410   13.12340   12.03420   28.45000   0.083000   2.413300   86.22700   -999.000   -999.000   -999.000   -999.000   -999.000   -999.000   -999.000   -999.000 
  8396.000   72.51290   97.08490   10.94650   21.81960   12.91670   11.81270   27.53000   0.056700   2.442200   84.83440   -999.000   -999.000   -999.000   -999.000   -999.000   -999.000   -999.000   -999.000 
  8396.500   73.85000   96.58660   10.87150   21.58870   12.71320   11.65290   26.62000   0.054400   2.457200   85.13510   -999.000   -999.000   -999.000   -999.000   -999.000   -999.000   -999.000   -999.000 
  8397.000   74.16950   96.08840   10.72330   21.08590   12.51300   11.55930   25.71000   0.052100   2.465400   86.86490   -999.000   -999.000   -999.000   -999.000   -999.000   -999.000   -999.000   -999.000 
  8397.500   73.07700   95.77380   10.65660   20.00060   12.95990   11.77330   25.11000   0.053400   2.459500   89.63150   -999.000   -999.000   -999.000   -999.000   -999.000   -999.000   -999.000   -999.000 
  8398.000   70.16960   95.60540   10.39450   19.13410   13.55950   12.21000   25.20000   0.057200   2.449700   100.4342   -999.000   -999.000   -999.000   -999.000   -999.000   -999.000   -999.000   -999.000 
  8398.500   64.24010   95.78130   10.22770   21.20110   14.20230   12.66300   25.29000   0.087300   2.309800   109.7974   -999.000   -999.000   -999.000   -999.000   -999.000   -999.000   -999.000   -999.000 
  8399.000   61.30140   96.12100   9.864500   25.25880   15.07140   13.06340   27.23000   0.116200   2.175600   114.2672   -999.000   -999.000   -999.000   -999.000   -999.000   -999.000   -999.000   -999.000 
  8399.500   56.86630   97.26860   9.566600   29.89020   15.21820   13.20630   31.71000   0.088500   1.894700   121.6157   -999.000   -999.000   -999.000   -999.000   -999.000   -999.000   -999.000   -999.000 
  8400.000   53.32320   98.66010   9.340000   39.49920   15.13430   13.10430   36.19000   0.060800   1.777200   119.9834   -999.000   -999.000   -999.000   -999.000   -999.000   -999.000   -999.000   -999.000 
  8400.500   49.78020   99.41710   9.335500   52.19740   15.05090   12.59060   40.68000   0.033200   1.659700   118.3668   -999.000   -999.000   -999.000   -999.000   -999.000   -999.000   -999.000   -999.000 
  8401.000   51.79990   100.1741   9.371200   53.92890   14.96180   11.88800   45.16000   0.005500   1.690500   114.9559   -999.000   -999.000   -999.000   -999.000   -999.000   -999.000   -999.000   -999.000 
  8401.500   61.71100   100.9311   9.493000   45.43910   14.89600   11.52930   49.64000   -.015400   1.768600   114.2799   -999.000   -999.000   -999.000   -999.000   -999.000   -999.000   -999.000   -999.000 
  8402.000   70.53650   101.6881   9.624500   29.72280   14.85900   11.42270   54.13000   -.024700   1.846700   114.1261   -999.000   -999.000   -999.000   -999.000   -999.000   -999.000   -999.000   -999.000 
  8402.500   72.58730   102.7192   9.409600   25.57570   14.57940   12.04130   50.52000   -.011300   1.968400   114.5067   -999.000   -999.000   -999.000   -999.000   -999.000   -999.000   -999.000   -999.000 
  8403.000   72.02820   103.5750   9.406000   24.59610   14.30500   12.77140   46.39000   0.008600   2.016400   115.3519   -999.000   -999.000   -999.000   -999.000   -999.000   -999.000   -999.000   -999.000 
  8403.500   69.51830   104.2225   9.793300   24.79510   14.20760   13.46190   42.26000   0.028500   1.969200   114.0365   -999.000   -999.000   -999.000   -999.000   -999.000   -999.000   -999.000   -999.000 
  8404.000   65.61450   104.7016   10.07740   25.57320   14.26930   13.33860   41.49000   0.046000   1.940800   111.7308   -999.000   -999.000   -999.000   -999.000   -999.000   -999.000   -999.000   -999.000 
  8404.500   63.81710   105.1737   10.21340   23.80640   14.33130   13.21640   44.14000   0.031900   1.892800   108.9665   -999.000   -999.000   -999.000   -999.000   -999.000   -999.000   -999.000   -999.000 
  8405.000   66.26100   105.6337   10.27630   19.88750   14.39350   13.09530   46.79000   0.017900   1.848800   105.1757   -999.000   -999.000   -999.000   -999.000   -999.000   -999.000   -999.000   -999.000 
  8405.500   70.27190   105.9508   10.27250   16.40820   14.45600   12.97540   49.44000   0.003800   1.813700   99.87090   -999.000   -999.000   -999.000   -999.000   -999.000   -999.000   -999.000   -999.000 
  8406.000   73.13170   106.1597   10.25870   14.36580   14.30700   12.76380   45.33000   -.010300   1.904500   96.08450   -999.000   -999.000   -999.000   -999.000   -999.000   -999.000   -999.000   -999.000 
  8406.500   74.07770   106.2975   10.23430   13.27890   13.73980   12.51810   39.72000   -.007900   2.072100   91.55880   -999.000   -999.000   -999.000   -999.000   -999.000   -999.000   -999.000   -999.000 
  8407.000   73.89410   106.2953   10.22330   13.31820   13.19510   12.24940   34.12000   0.032700   2.284100   89.25780   -999.000   -999.000   -999.000   -999.000   -999.000   -999.000   -999.000   -999.000 
  8407.500   73.45450   106.2052   10.21430   13.38990   12.67200   11.95150   28.51000   0.073200   2.361900   87.30090   -999.000   -999.000   -999.000   -999.000   -999.000   -999.000   -999.000   -999.000 
