~VERSION INFORMATION
VERS.                               2.00: CWLS LOG ASCII STANDARD VERSION 2.00
WRAP.                               NO  : ONE LINE PER DEPTH STEP               
~WELL INFORMATION
#MNEM.UNIT                     DATA TYPE  INFORMATION
#----------------------------------------------------------------------
STRT.F                            920.00: START DEPTH
STOP.F                           9532.00: STOP DEPTH
STEP.F                              0.50: STEP VALUE
NULL.                            -999.00: NULL VALUE
COMP.                                   : COMPANY                               
WELL.                       SRS TERN A-1: WELL                                  
FLD .            Granite Pt/Beluga River: FIELD                                 
LOC .      10N  10W   19 0585FNL 0636FWL: LOCATION                              
CNTY.                 GREATER_COOK_INLET: COUNTY                                
STAT.                             Alaska: STATE                                 
CTRY.                                 US: COUNTRY                               
SRVC.                                   : SERVICE COMPANY                       
DATE.                                   : LOG DATE                              
API .                   50733203530000  : UNIQUE WELL IDENTIFIER                
~PARAMETER INFORMATION                                                          
#MNEM.UNIT        VALUE   DESCRIPTION                                           
#---------      --------  -----------                                           
ELEV    .F          171.5: KB ELEVATION                                         
TDD     .F         9519.0: TOTAL DEPTH DRILLED                                  
~OTHER INFORMATION                                                              
FLS0    .          CIRCULATED                                                   
LGD0    .          7/13/82                                                      
MT0     .          DIS GEL H2O                                                  
FLS0    .          CIRCULATED                                                   
LGD0    .          7/24/82                                                      
FLS0    .          FLOWLINE                                                     
LGD0    .          8/2/82                                                       
MT0     .          LOW SOLIDS NONDISPERSED                                      
~CURVE INFORMATION                                                              
#MNEM.UNIT                 DESCRIPTION                                          
#---------                 -----------                                          
DEPTH   .F               :  1 DEPTH
GR      .GAPI          00:  2 GAMMA RAY                                       
SP      .MV            00:  3 SELF POTENTIAL                                  
CALI    .IN            00:  4 CALIPER                                         
SFL     .OHMM          00:  5 SPHER. OR SHAL. FOC. LOG                        
ILD     .OHMM          00:  6 INDUCTION LOG DEEP                              
ILM     .OHMM          00:  7 INDUCTION LOG MEDIUM                            
CNS     .%             00:  8 COMPENSATED NEUT (-S)                           
DRHO    .G/C3          00:  9 DENSITY CORRECTN                                
RHOB    .G/C3          00: 10 BULK DENSITY                                    
DT      .US/F          00: 11 INTERV TRANSIT TIME                             
MNOR    .OHMM          00: 12 NORMAL MICROLOG                                 
MINV    .OHMM          00: 13 INV MICROLOG                                    
PROX    .OHMM          00: 14 PROXIMITY LOG                                   
POTA    .PPM           00: 15 POTASSIUM                                       
URAN    .PPM           00: 16 URANIUM                                         
THOR    .PPM           00: 17 THORIUM                                         
SGR     .GAPI          00: 18 GAMMA RAY                                       
CGR     .GAPI          00: 19 GAMMA RAY                                       
~A  DEPTH    GR         SP         CALI       SFL        ILD        ILM        CNS        DRHO       RHOB       DT         MNOR       MINV       PROX       POTA       URAN       THOR       SGR        CGR                                                   
# ...
  6945.500   58.73450   -12.9890   8.451000   14.90940   7.917700   7.756100   53.51000   0.030700   1.905646   116.8829   -999.000   -999.000   6.254900   0.012875   2.378534   4.882514   62.68325   42.69444 
  6946.000   60.04900   -12.3667   8.425800   14.27860   7.842800   7.730800   51.83000   0.016600   1.864864   115.5144   -999.000   -999.000   6.742900   0.013216   2.264821   4.818985   60.91389   42.07506 
  6946.500   62.14980   -11.4731   8.400600   12.36170   7.769100   7.705600   45.78000   0.002600   1.939689   112.9953   -999.000   -999.000   6.599600   0.013936   2.442270   4.772595   61.44870   42.33983 
  6947.000   64.43950   -10.7157   8.394000   10.33730   7.696100   7.680400   39.72000   -.004300   2.059079   107.9501   -999.000   -999.000   6.081100   0.015445   2.634239   4.650998   63.41702   43.63946 
  6947.500   65.07750   -10.6577   8.407600   8.988000   7.623800   7.626400   33.67000   0.013400   2.216269   103.0009   -999.000   -999.000   5.603300   0.017495   2.793260   4.536239   67.31900   45.16056 
  6948.000   64.90910   -10.5996   8.461100   8.374200   7.552200   7.554700   33.16000   0.064700   2.353690   96.69870   -999.000   -999.000   6.242700   0.017371   2.833253   4.398801   68.36856   46.58810 
  6948.500   64.88750   -10.5416   8.556600   8.412500   7.481300   7.483700   32.69000   0.066100   2.412800   93.56720   -999.000   -999.000   8.052400   0.017142   2.802511   4.469160   69.10689   47.91576 
  6949.000   64.86590   -10.4835   8.486900   8.601600   7.411000   7.413400   32.21000   0.061300   2.414165   91.55670   -999.000   -999.000   6.888100   0.016926   2.754813   4.589464   70.34076   47.91464 
  6949.500   64.73940   -10.4255   8.417300   8.648800   7.341400   7.343700   31.33000   0.056500   2.399301   92.29890   -999.000   -999.000   5.887300   0.017417   2.695665   4.728324   70.26877   47.91133 
  6950.000   64.61200   -10.3674   8.420800   8.912900   7.272400   7.274700   30.84000   0.051700   2.383012   93.20630   -999.000   -999.000   5.032000   0.018515   2.713130   4.610528   70.09943   47.90675 
  6950.500   64.48460   -10.3094   8.460500   9.208000   7.204100   7.206300   32.26000   0.048800   2.389886   94.11370   -999.000   -999.000   6.236200   0.020078   2.752039   4.234953   69.91368   48.27313 
  6951.000   64.35710   -10.2513   8.500100   8.992900   7.136400   7.138500   33.68000   0.061500   2.398135   95.03590   -999.000   -999.000   7.993900   0.021054   2.899741   3.859489   72.00308   48.76663 
  6951.500   64.03210   -10.1933   8.539800   8.108800   7.069400   7.071400   35.10000   0.059200   2.394803   96.01740   -999.000   -999.000   6.671500   0.021626   2.833665   3.628079   71.94426   49.26870 
  6952.000   63.57610   -10.1762   8.614700   7.073900   7.003000   7.007700   35.45000   0.049000   2.387237   96.99900   -999.000   -999.000   5.567900   0.020757   2.630751   3.483733   71.34834   49.63895 
  6952.500   63.12010   -10.2305   8.706600   6.321200   6.937200   6.952500   33.91000   0.048100   2.404014   95.69750   -999.000   -999.000   4.646800   0.018941   2.319188   3.846409   67.56322   49.86237 
  6953.000   62.33410   -10.3143   8.711800   6.601200   6.904500   6.897700   32.09000   0.075700   2.435309   90.87110   -999.000   -999.000   4.811100   0.017270   2.025024   4.543540   63.92796   49.31001 
  6953.500   59.08860   -10.4801   8.688700   7.245700   6.887100   6.843400   29.00000   0.103300   2.501019   87.68030   -999.000   -999.000   5.179500   0.015220   1.832330   4.974712   62.23455   48.67957 
  6954.000   57.67490   -10.6109   8.679300   8.292000   6.869800   6.789500   28.96000   0.131000   2.551723   84.26420   -999.000   -999.000   5.576100   0.015855   1.767300   5.158499   62.76009   48.53809 
  6954.500   62.02360   -10.7051   8.673200   7.574100   6.852500   6.736000   29.70000   0.158600   2.529660   87.16330   -999.000   -999.000   5.447400   0.016757   1.885228   5.067861   63.93108   48.47306 
  6955.000   65.36310   -10.7745   8.688700   7.098700   6.835300   6.682900   30.44000   0.186200   2.471506   91.35860   -999.000   -999.000   5.251700   0.017475   1.876703   4.855721   64.90224   49.37731 
  6955.500   67.45140   -10.7994   8.697800   6.185200   6.818100   6.630200   31.18000   0.158300   2.427184   95.79330   -999.000   -999.000   5.119000   0.018020   1.848514   4.736259   65.43039   50.27958 
  6956.000   67.69380   -10.8242   8.701400   6.051100   6.801000   6.578000   31.93000   0.125500   2.397055   98.01060   -999.000   -999.000   5.702100   0.017285   1.820055   4.662111   66.10487   51.03450 
  6956.500   65.97120   -10.8888   8.698500   5.996500   6.783900   6.526200   32.67000   0.095200   2.375410   98.02410   -999.000   -999.000   6.351700   0.016021   1.833316   4.991155   65.96596   50.54057 
  6957.000   64.29220   -11.0100   8.579600   5.948700   6.779600   6.563700   33.30000   0.076400   2.359777   96.87520   -999.000   -999.000   6.587200   0.014913   1.867270   5.315975   65.73282   49.97426 
  6957.500   62.29920   -11.2537   8.509100   6.012700   6.835400   6.617400   32.11000   0.069200   2.348167   95.82670   -999.000   -999.000   6.717500   0.014286   1.924421   5.596642   65.26891   49.50523 
  6958.000   60.92700   -11.5850   8.483800   6.408700   6.891600   6.671500   30.91000   0.076700   2.362305   95.83980   -999.000   -999.000   6.850300   0.013772   1.948960   5.925032   64.67342   48.31869 
  6958.500   61.75580   -11.8787   8.458500   6.745900   6.948300   6.726100   29.71000   0.090400   2.373818   96.44280   -999.000   -999.000   6.638900   0.013530   1.959022   5.900294   64.05933   46.11181 
  6959.000   62.35710   -12.2772   8.441000   7.144400   7.005400   6.781200   30.78000   0.083500   2.361876   97.51310   -999.000   -999.000   6.370200   0.013426   1.939787   5.841857   63.33343   46.55678 
  6959.500   62.64700   -12.9920   8.436300   7.674800   7.063000   6.836600   32.31000   0.076000   2.349932   98.29100   -999.000   -999.000   5.788800   0.013755   1.910120   5.848734   63.48594   46.88480 
  6960.000   63.56990   -13.2973   8.433900   7.443400   7.121100   6.891300   33.83000   0.078900   2.343231   98.82500   -999.000   -999.000   5.326100   0.014322   1.877179   5.873821   63.79108   47.01299 
  6960.500   65.25410   -13.2524   8.442500   7.219100   7.179700   6.831700   35.36000   0.081800   2.340363   99.60970   -999.000   -999.000   5.578800   0.014936   1.884325   5.926713   64.63116   47.51944 
  6961.000   66.93820   -13.1677   8.451100   7.001400   7.207100   6.772600   36.89000   0.078500   2.337496   100.3945   -999.000   -999.000   5.843500   0.015074   1.808849   5.992907   65.59265   48.42018 
  6961.500   68.59040   -13.1030   8.456100   6.561900   7.222700   6.714000   36.27000   0.073300   2.341016   100.9182   -999.000   -999.000   6.120800   0.015117   1.728787   6.073722   65.23724   49.60843 
  6962.000   66.99740   -13.2044   8.460100   6.405700   7.238300   6.655900   35.04000   0.068000   2.352014   100.9703   -999.000   -999.000   6.305300   0.015530   1.659993   5.901216   64.73683   50.25020 
  6962.500   65.23440   -13.4350   8.464000   6.133100   7.253900   6.625100   33.80000   0.062700   2.360902   100.6238   -999.000   -999.000   6.437500   0.016115   1.611518   5.586704   64.10577   50.74892 
  6963.000   63.33670   -13.9448   8.464000   6.463600   7.269600   6.680600   32.56000   0.057500   2.365069   100.2838   -999.000   -999.000   6.189000   0.016792   1.530158   5.184950   63.70981   49.90789 
  6963.500   62.86370   -14.4759   8.463400   7.011000   7.285400   6.736700   32.84000   0.088300   2.377192   100.0421   -999.000   -999.000   5.736400   0.017700   1.541142   4.702929   63.53789   49.94390 
  6964.000   64.48050   -14.9002   8.461100   7.126600   7.301100   6.793200   33.68000   0.108900   2.381145   99.80030   -999.000   -999.000   5.317000   0.018555   1.577106   4.727564   63.89676   50.30277 
  6964.500   65.62310   -15.2612   8.456700   7.381200   7.316900   6.850100   34.52000   0.129500   2.349480   99.72550   -999.000   -999.000   6.366000   0.019917   1.614483   4.827803   65.16499   50.90723 
