~VERSION INFORMATION
VERS.                               2.00: CWLS LOG ASCII STANDARD VERSION 2.00
WRAP.                               NO  : ONE LINE PER DEPTH STEP               
~WELL INFORMATION
#MNEM.UNIT                     DATA TYPE  INFORMATION
#----------------------------------------------------------------------
STRT.F                             16.00: START DEPTH
STOP.F                          11705.00: STOP DEPTH
STEP.F                              0.50: STEP VALUE
NULL.                            -999.00: NULL VALUE
COMP.                                   : COMPANY                               
WELL.                      S MGS UNIT 16: WELL                                  
FLD .                            Unknown: FIELD                                 
LOC .                                   : LOCATION                              
CNTY.                                   : COUNTY                                
STAT.                                   : STATE                                 
CTRY.                                   : COUNTRY                               
SRVC.                                   : SERVICE COMPANY                       
DATE.                                   : LOG DATE                              
API .                   50733204590000  : UNIQUE WELL IDENTIFIER                
~PARAMETER INFORMATION                                                          
#MNEM.UNIT        VALUE   DESCRIPTION                                           
#---------      --------  -----------                                           
~OTHER INFORMATION                                                              
FLS0    .          CIRC                                                         
LGD0    .          7/2/1969                                                     
MT0     .          FRESH/GEL                                                    
FLS0    .          CIRC                                                         
LGD0    .          8/13/1969                                                    
MT0     .          CYPAN                                                        
CSG0    .          13.375" @ 2555                                               
CSG0    .          9.625" @ 10296                                               
~CURVE INFORMATION                                                              
#MNEM.UNIT                 DESCRIPTION                                          
#---------                 -----------                                          
DEPTH   .F               :  1 DEPTH
DRHO    .G/C3          00:  2 DENSITY CORRECTN                                
DT_ORIG .MS/F          00:  3 ORIGINAL SONIC CURVE                            
ILD     .OHMM          00:  4 INDUCTION LOG DEEP                              
ILM     .OHMM          00:  5 INDUCTION LOG MEDIUM                            
SFL     .OHMM          00:  6 SPHER. OR SHAL. FOC. LOG                        
RHOB    .G/C3          00:  7 BULK DENSITY                                    
CALI    .IN            00:  8 CALIPER                                         
SP      .MV            00:  9 SELF POTENTIAL                                  
RT      .OHMM          00: 10 TRUE RESIST CALC FROM AR                        
AF30    .OHMM          00: 11 ARRAY IND 4 FT RESISTIVI                        
AF90    .OHMM          00: 12 ARRAY IND 4 FT RESISTIVI                        
CNS     .%             00: 13 COMPENSATED NEUT (-S)                           
GR      .GAPI          00: 14 GAMMA RAY                                       
AF20    .OHMM          00: 15 ARRAY IND 4 FT RESISTIVI                        
DT      .MS/F          00: 16 INTERV TRANSIT TIME                             
~A  DEPTH    DRHO       DT_ORIG    ILD        ILM        SFL        RHOB       CALI       SP         RT         AF30       AF90       CNS        GR         AF20       DT                                                                                     
# ...
 10090.000   0.045000   80.82600   10.09700   13.24200   8.534000   2.493000   17.52100   12.82400   -999.000   -999.000   -999.000   22.50200   67.39400   -999.000   80.82600 
 10090.500   0.049003   81.34781   10.10300   12.18135   8.508016   2.494998   17.75941   12.98650   -999.000   -999.000   -999.000   22.13951   65.90115   -999.000   81.34781 
 10091.000   0.053000   81.86900   10.10900   11.11900   8.482000   2.497000   17.99800   13.14900   -999.000   -999.000   -999.000   21.77700   64.40800   -999.000   81.86900 
 10091.500   0.061993   81.54275   10.40837   11.24205   8.614998   2.466501   17.31227   13.17149   -999.000   -999.000   -999.000   21.24438   64.14078   -999.000   81.54275 
 10092.000   0.071000   81.21600   10.70800   11.36500   8.748000   2.436000   16.62600   13.19400   -999.000   -999.000   -999.000   20.71200   63.87400   -999.000   81.21600 
 10092.500   0.104006   80.95865   11.12562   14.96184   8.948444   2.405015   16.01538   13.31143   -999.000   -999.000   -999.000   21.38948   63.32248   -999.000   80.95865 
 10093.000   0.137000   80.70100   11.54400   18.56600   9.149000   2.374000   15.40400   13.42900   -999.000   -999.000   -999.000   22.06600   62.77100   -999.000   80.70100 
 10093.500   0.158506   80.59910   11.76266   16.86378   9.320404   2.362496   15.16569   13.16538   -999.000   -999.000   -999.000   19.68009   62.81147   -999.000   80.59910 
 10094.000   0.180000   80.49700   11.98100   15.16200   9.492000   2.351000   14.92700   12.90200   -999.000   -999.000   -999.000   17.29200   62.85200   -999.000   80.49700 
 10094.500   0.166508   80.42248   11.96499   13.47258   9.704464   2.367005   14.40488   13.03709   -999.000   -999.000   -999.000   16.40897   62.70138   -999.000   80.42248 
 10095.000   0.153000   80.34800   11.94900   11.78300   9.917000   2.383000   13.88300   13.17200   -999.000   -999.000   -999.000   15.52700   62.55100   -999.000   80.34800 
 10095.500   0.134494   80.40599   12.38061   11.43013   10.02862   2.403515   13.92750   13.18799   -999.000   -999.000   -999.000   15.74873   62.76018   -999.000   80.40599 
 10096.000   0.116000   80.46400   12.81300   11.07700   10.14000   2.424000   13.97200   13.20400   -999.000   -999.000   -999.000   15.97000   62.96900   -999.000   80.46400 
 10096.500   0.137996   81.10712   13.28277   11.27557   10.23850   2.403996   14.46394   13.03748   -999.000   -999.000   -999.000   16.32102   66.90904   -999.000   81.10712 
 10097.000   0.160000   81.75100   13.75300   11.47400   10.33700   2.384000   14.95600   12.87100   -999.000   -999.000   -999.000   16.67200   70.84300   -999.000   81.75100 
 10097.500   0.176497   82.44399   13.13837   12.68765   10.24296   2.361000   15.15001   12.81995   -999.000   -999.000   -999.000   16.30796   74.69951   -999.000   82.44399 
 10098.000   0.193000   83.13700   12.52400   13.90100   10.14900   2.338000   15.34400   12.76900   -999.000   -999.000   -999.000   15.94400   78.54900   -999.000   83.13700 
 10098.500   0.186002   82.57538   11.72187   14.76197   9.877501   2.301478   15.09059   12.90396   -999.000   -999.000   -999.000   15.92302   80.91574   -999.000   82.57538 
 10099.000   0.179000   82.01300   10.92000   15.62400   9.606000   2.265000   14.83700   13.03900   -999.000   -999.000   -999.000   15.90200   83.28000   -999.000   82.01300 
 10099.500   0.193015   82.04848   10.66480   16.67462   9.635981   2.190505   15.16499   13.22843   -999.000   -999.000   -999.000   15.95148   89.88786   -999.000   82.04848 
 10100.000   0.207000   82.08400   10.41000   17.72500   9.666000   2.116000   15.49300   13.41800   -999.000   -999.000   -999.000   16.00100   -999.000   -999.000   82.08400 
 10100.500   0.224495   82.20155   10.13250   20.42144   9.816458   2.141990   15.50800   13.30099   -999.000   -999.000   -999.000   15.96298   -999.000   -999.000   82.20155 
 10101.000   0.242000   82.31900   9.855000   23.11700   9.967000   2.168000   15.52300   13.18400   -999.000   -999.000   -999.000   15.92500   -999.000   -999.000   82.31900 
 10101.500   0.238497   81.45770   9.818501   34.22127   10.03599   2.245943   14.74704   13.55848   -999.000   -999.000   -999.000   15.56610   -999.000   -999.000   81.45770 
 10102.000   0.235000   80.59600   9.782000   45.33500   10.10500   2.324000   13.97200   13.93300   -999.000   -999.000   -999.000   15.20700   -999.000   -999.000   80.59600 
 10102.500   0.168982   80.17912   9.746513   55.77173   9.968105   2.326000   15.32881   14.25669   -999.000   -999.000   -999.000   14.94657   -999.000   -999.000   80.17912 
 10103.000   0.103000   79.76300   9.711000   66.22200   9.831000   2.328000   16.68600   14.58000   -999.000   -999.000   -999.000   14.68600   -999.000   -999.000   79.76300 
 10103.500   0.081991   80.20176   9.926346   57.16962   9.614994   2.359016   16.56641   14.47896   -999.000   -999.000   -999.000   14.87259   -999.000   -999.000   80.20176 
 10104.000   0.061000   80.64000   10.14200   48.12300   9.399000   2.390000   16.44700   14.37800   -999.000   -999.000   -999.000   15.05900   -999.000   -999.000   80.64000 
 10104.500   0.088021   80.11077   10.21804   38.14235   9.568895   2.412005   16.14920   14.37700   -999.000   -999.000   -999.000   15.38589   -999.000   -999.000   80.11077 
 10105.000   0.115000   79.58200   10.29400   28.16600   9.739000   2.434000   15.85100   14.37600   19.04900   6.532000   18.91400   15.71300   30.43800   -999.000   79.58200 
 10105.500   0.120498   76.59967   10.23456   30.95977   9.746006   2.442494   16.71511   14.37850   18.73266   6.529999   18.88103   15.82800   30.29595   -999.000   76.59967 
 10106.000   0.126000   73.62000   10.17500   33.75700   9.753000   2.451000   17.58000   14.38100   18.41600   6.528000   18.84800   15.94300   30.15400   -999.000   73.62000 
 10106.500   0.127499   70.51411   10.26152   31.07571   9.743992   2.463497   16.92352   14.50153   17.82377   6.461962   17.80093   17.30126   29.36069   -999.000   70.51411 
 10107.000   0.129000   67.41200   10.34800   28.39700   9.735000   2.476000   16.26800   14.62200   17.23200   6.396000   16.75400   18.65800   28.56800   -999.000   67.41200 
 10107.500   0.130000   68.62366   10.43855   23.81197   9.779997   2.491987   15.86554   14.27017   17.92574   6.554397   17.72661   19.95090   29.89858   -999.000   68.62366 
 10108.000   0.131000   69.83700   10.52900   19.23300   9.825000   2.508000   15.46300   13.91800   18.61900   6.713000   18.69800   21.24400   31.23100   -999.000   69.83700 
 10108.500   0.134001   72.82739   10.98013   18.66367   9.882005   2.512001   16.16441   13.62018   20.91221   6.999910   20.82032   22.19497   30.46462   -999.000   72.82739 
 10109.000   0.137000   75.81600   11.43200   18.09500   9.939000   2.516000   16.86500   13.32200   23.20400   7.287000   22.94200   23.14700   29.69800   -999.000   75.81600 
 10109.500   0.124996   75.29931   12.06639   18.03554   9.936501   2.511498   16.76054   14.30307   27.77929   7.648925   28.22512   24.99608   28.68224   -999.000   75.29931 
 10110.000   0.113000   74.78300   -999.000   -999.000   -999.000   2.507000   16.65600   15.28500   32.35000   8.011000   33.50400   26.84300   27.66700   -999.000   74.78300 
 10110.500   0.114500   73.34026   -999.000   -999.000   -999.000   2.506500   17.05861   349.8445   36.40914   8.136560   38.07948   38.19651   30.07357   -999.000   73.34026 
 10111.000   0.116000   71.89600   -999.000   -999.000   -999.000   2.506000   17.46100   351.5000   40.47600   8.262000   42.66000   49.55200   32.47700   -999.000   71.89600 
 10111.500   0.111004   70.25426   -999.000   -999.000   -999.000   2.500003   17.41651   350.0000   37.36058   8.015127   39.26416   49.22400   34.19266   -999.000   70.25426 
 10112.000   -999.000   -999.000   -999.000   -999.000   -999.000   -999.000   17.37200   348.5000   34.24800   7.768000   35.86800   48.89600   35.91200   -999.000   -999.000 
 10112.500   -999.000   -999.000   -999.000   -999.000   -999.000   -999.000   16.77533   349.0940   28.85606   7.310933   29.64790   50.45647   34.96711   -999.000   -999.000 
