~VERSION INFORMATION
VERS.                               2.00: CWLS LOG ASCII STANDARD VERSION 2.00
WRAP.                               NO  : ONE LINE PER DEPTH STEP               
~WELL INFORMATION
#MNEM.UNIT                     DATA TYPE  INFORMATION
#----------------------------------------------------------------------
STRT.F                           1691.00: START DEPTH
STOP.F                          10167.00: STOP DEPTH
STEP.F                              0.50: STEP VALUE
NULL.                            -999.00: NULL VALUE
COMP.                                   : COMPANY                               
WELL.                        MGS C-22-23: WELL                                  
FLD .                            Unknown: FIELD                                 
LOC .                                   : LOCATION                              
CNTY.                                   : COUNTY                                
STAT.                                   : STATE                                 
CTRY.                                   : COUNTRY                               
SRVC.                                   : SERVICE COMPANY                       
DATE.                                   : LOG DATE                              
API .                   50733203970000  : UNIQUE WELL IDENTIFIER                
~PARAMETER INFORMATION                                                          
#MNEM.UNIT        VALUE   DESCRIPTION                                           
#---------      --------  -----------                                           
~OTHER INFORMATION                                                              
CSG0    .          9.625" @ 6034                                                
FLS0    .          CIRC                                                         
LGD0    .          6/6/1988                                                     
MT0     .          #2                                                           
~CURVE INFORMATION                                                              
#MNEM.UNIT                 DESCRIPTION                                          
#---------                 -----------                                          
DEPTH   .F               :  1 DEPTH
DRHO    .G/C3          00:  2 DENSITY CORRECTN                                
RHOB    .G/C3          00:  3 BULK DENSITY                                    
CALI    .IN            00:  4 CALIPER                                         
DTL     .MS/F          00:  5 INTERV TRANSIT TIME LONG                        
DT_ORIG .MS/F          00:  6 ORIGINAL SONIC CURVE                            
GR      .GAPI          00:  7 GAMMA RAY                                       
IDPH    .OHMM          00:  8 INDUCTION DB PHASOR                             
ILD     .OHMM          00:  9 INDUCTION LOG DEEP                              
ILM     .OHMM          00: 10 INDUCTION LOG MEDIUM                            
IMPH    .OHMM          00: 11 INDUCTION MEDIUM PHASOR                         
SFL     .OHMM          00: 12 SPHER. OR SHAL. FOC. LOG                        
SP      .MV            00: 13 SELF POTENTIAL                                  
PEF     .B/E           00: 14 FOTO ELECTRO. XSCT                              
DT      .MS/F          00: 15 INTERV TRANSIT TIME                             
~A  DEPTH    DRHO       RHOB       CALI       DTL        DT_ORIG    GR         IDPH       ILD        ILM        IMPH       SFL        SP         PEF        DT                                                                                                
# ...
  5635.500   -999.000   -999.000   -999.000   83.37500   83.50000   63.95303   8.257466   8.149817   7.672057   7.601444   6.720526   -73.3750   -999.000   83.50000 
  5636.000   -999.000   -999.000   -999.000   82.50000   82.50000   64.12500   8.617000   8.523000   8.188000   7.824000   6.398000   -73.7500   -999.000   82.50000 
  5636.500   -999.000   -999.000   -999.000   79.37500   78.50000   58.48551   8.827955   8.710449   8.820431   8.528839   7.175236   -74.0000   -999.000   78.50000 
  5637.000   -999.000   -999.000   -999.000   76.25000   74.50000   52.84400   9.039000   8.898000   9.453000   9.234000   7.953000   -74.2500   -999.000   74.50000 
  5637.500   -999.000   -999.000   -999.000   75.00000   74.43750   49.68864   9.073999   8.902000   9.183447   9.589453   10.37985   -74.5625   -999.000   74.43750 
  5638.000   -999.000   -999.000   -999.000   73.75000   74.37500   46.53100   9.109000   8.906000   8.914000   9.945000   12.80500   -74.8750   -999.000   74.37500 
  5638.500   -999.000   -999.000   -999.000   80.68750   82.18750   51.01726   9.097496   8.925494   8.601563   9.339441   10.15226   -75.1875   -999.000   82.18750 
  5639.000   -999.000   -999.000   -999.000   87.62500   90.00000   55.50000   9.086000   8.945000   8.289000   8.734000   7.500000   -75.5000   -999.000   90.00000 
  5639.500   -999.000   -999.000   -999.000   87.43750   89.62500   56.62500   8.894587   8.777000   8.123039   8.269558   7.144551   -75.9066   -999.000   89.62500 
  5640.000   -999.000   -999.000   -999.000   87.25000   89.25000   57.75000   8.703000   8.609000   7.957000   7.805000   6.789000   -76.3130   -999.000   89.25000 
  5640.500   -999.000   -999.000   -999.000   88.56250   89.37500   57.03159   8.382996   8.265478   7.802455   7.717016   6.853520   -76.8439   -999.000   89.37500 
  5641.000   -999.000   -999.000   -999.000   89.87500   89.50000   56.31300   8.063000   7.922000   7.648000   7.629000   6.918000   -77.3750   -999.000   89.50000 
  5641.500   -999.000   -999.000   -999.000   90.06250   89.81250   54.26522   7.988495   7.855519   7.615005   7.660012   7.271430   -78.0316   -999.000   89.81250 
  5642.000   -999.000   -999.000   -999.000   90.25000   90.12500   52.21900   7.914000   7.789000   7.582000   7.691000   7.625000   -78.6880   -999.000   90.12500 
  5642.500   -999.000   -999.000   -999.000   91.12500   91.00000   52.98466   7.972520   7.864982   7.624990   7.726489   7.609496   -79.4063   -999.000   91.00000 
  5643.000   -999.000   -999.000   -999.000   92.00000   91.87500   53.75000   8.031000   7.941000   7.668000   7.762000   7.594000   -80.1250   -999.000   91.87500 
  5643.500   -999.000   -999.000   -999.000   91.25000   91.12500   51.68750   8.132475   8.052532   7.781518   7.842012   7.331914   -80.8750   -999.000   91.12500 
  5644.000   -999.000   -999.000   -999.000   90.50000   90.37500   49.62500   8.234000   8.164000   7.895000   7.922000   7.070000   -81.6250   -999.000   90.37500 
  5644.500   -999.000   -999.000   -999.000   90.87500   93.56250   49.85959   8.336004   8.249987   8.021506   8.074467   7.165990   -82.3442   -999.000   93.56250 
  5645.000   -999.000   -999.000   -999.000   91.25000   96.75000   50.09400   8.438000   8.336000   8.148000   8.227000   7.262000   -83.0630   -999.000   96.75000 
  5645.500   -999.000   -999.000   -999.000   91.62500   94.50000   48.49906   8.531462   8.402487   8.245977   8.367476   7.513957   -84.0313   -999.000   94.50000 
  5646.000   -999.000   -999.000   -999.000   92.00000   92.25000   46.90600   8.625000   8.469000   8.344000   8.508000   7.766000   -85.0000   -999.000   92.25000 
  5646.500   -999.000   -999.000   -999.000   92.12500   93.00000   47.78125   8.742002   8.593994   8.391013   8.558492   7.723001   -85.7192   -999.000   93.00000 
  5647.000   -999.000   -999.000   -999.000   92.25000   93.75000   48.65600   8.859000   8.719000   8.438000   8.609000   7.680000   -86.4380   -999.000   93.75000 
  5647.500   -999.000   -999.000   -999.000   89.75000   92.25000   48.35955   9.003541   8.867537   8.554981   8.659983   7.826538   -87.3135   -999.000   92.25000 
  5648.000   -999.000   -999.000   -999.000   87.25000   90.75000   48.06300   9.148000   9.016000   8.672000   8.711000   7.973000   -88.1880   -999.000   90.75000 
  5648.500   -999.000   -999.000   -999.000   85.18750   90.75000   46.07794   9.312541   9.144552   8.820543   8.878952   8.236515   -89.3135   -999.000   90.75000 
  5649.000   -999.000   -999.000   -999.000   83.12500   90.75000   44.09400   9.477000   9.273000   8.969000   9.047000   8.500000   -90.4380   -999.000   90.75000 
  5649.500   -999.000   -999.000   -999.000   85.06250   89.62500   43.99998   9.789551   9.526970   9.171897   9.316542   8.508001   -91.0005   -999.000   89.62500 
  5650.000   -999.000   -999.000   -999.000   87.00000   88.50000   43.90600   10.10200   9.781000   9.375000   9.586000   8.516000   -91.5630   -999.000   88.50000 
  5650.500   -999.000   -999.000   -999.000   86.75000   87.62500   45.48460   10.71518   10.32390   9.863567   10.03882   8.562488   -92.0005   -999.000   87.62500 
  5651.000   -999.000   -999.000   -999.000   86.50000   86.75000   47.06300   11.32800   10.86700   10.35200   10.49200   8.609000   -92.4380   -999.000   86.75000 
  5651.500   -999.000   -999.000   -999.000   83.56250   83.62500   47.06300   12.55469   11.99634   11.69995   11.60986   9.159903   -92.6880   -999.000   83.62500 
  5652.000   -999.000   -999.000   -999.000   80.62500   80.50000   47.06300   13.78100   13.12500   13.04700   12.72700   9.711000   -92.9380   -999.000   80.50000 
  5652.500   -999.000   -999.000   -999.000   73.18750   74.12500   46.12598   15.20336   14.32355   15.43773   15.25397   12.71094   -93.2189   -999.000   74.12500 
  5653.000   -999.000   -999.000   -999.000   65.75000   67.75000   45.18800   16.62500   15.52300   17.82800   17.78100   15.71100   -93.5000   -999.000   67.75000 
  5653.500   -999.000   -999.000   -999.000   59.75000   66.68750   44.43848   17.94558   16.51993   18.03908   20.01611   25.73400   -93.8125   -999.000   66.68750 
  5654.000   -999.000   -999.000   -999.000   53.75000   65.62500   43.68800   19.26600   17.51600   18.25000   22.25000   35.75000   -94.1250   -999.000   65.62500 
  5654.500   -999.000   -999.000   -999.000   59.00000   64.93750   44.85907   19.95361   18.00815   17.53916   20.75748   26.52882   -95.0625   -999.000   64.93750 
  5655.000   -999.000   -999.000   -999.000   64.25000   64.25000   46.03100   20.64100   18.50000   16.82800   19.26600   17.31300   -96.0000   -999.000   64.25000 
  5655.500   -999.000   -999.000   -999.000   64.75000   68.37500   47.39068   20.10204   18.09377   16.45313   17.69527   15.86275   -97.6564   -999.000   68.37500 
  5656.000   -999.000   -999.000   -999.000   65.25000   72.50000   48.75000   19.56300   17.68800   16.07800   16.12500   14.41400   -99.3130   -999.000   72.50000 
  5656.500   -999.000   -999.000   -999.000   73.81250   77.00000   47.50000   18.14847   16.52759   15.33635   15.59379   13.53546   -100.376   -999.000   77.00000 
  5657.000   -999.000   -999.000   -999.000   82.37500   81.50000   46.25000   16.73400   15.36700   14.59400   15.06300   12.65600   -101.438   -999.000   81.50000 
  5657.500   -999.000   -999.000   -999.000   82.93750   83.75000   47.04744   15.83950   14.64470   14.01614   14.64860   11.86695   -102.501   -999.000   83.75000 
  5658.000   -999.000   -999.000   -999.000   83.50000   86.00000   47.84400   14.94500   13.92200   13.43800   14.23400   11.07800   -103.563   -999.000   86.00000 
  5658.500   -999.000   -999.000   -999.000   85.62500   87.37500   46.92204   14.33181   13.39854   13.10191   13.74187   11.74578   -104.657   -999.000   87.37500 
  5659.000   -999.000   -999.000   -999.000   87.75000   88.75000   46.00000   13.71900   12.87500   12.76600   13.25000   12.41400   -105.750   -999.000   88.75000 
  5659.500   -999.000   -999.000   -999.000   91.75000   92.56250   44.70304   13.29314   12.52345   12.34420   12.84015   13.52399   -106.969   -999.000   92.56250 
