~VERSION INFORMATION
VERS.                               2.00: CWLS LOG ASCII STANDARD VERSION 2.00
WRAP.                               NO  : ONE LINE PER DEPTH STEP               
~WELL INFORMATION
#MNEM.UNIT                     DATA TYPE  INFORMATION
#----------------------------------------------------------------------
STRT.F                           3490.00: START DEPTH
STOP.F                          11462.00: STOP DEPTH
STEP.F                              0.50: STEP VALUE
NULL.                            -999.00: NULL VALUE
COMP.                                   : COMPANY                               
WELL.                    17586 #3LT1 ST2: WELL                                  
FLD .                            Unknown: FIELD                                 
LOC .                                   : LOCATION                              
CNTY.                                   : COUNTY                                
STAT.                                   : STATE                                 
CTRY.                                   : COUNTRY                               
SRVC.                                   : SERVICE COMPANY                       
DATE.                                   : LOG DATE                              
API .                   50733200040100  : UNIQUE WELL IDENTIFIER                
~PARAMETER INFORMATION                                                          
#MNEM.UNIT        VALUE   DESCRIPTION                                           
#---------      --------  -----------                                           
~OTHER INFORMATION                                                              
CSG0    .          9.625" @ 8192                                                
FLS0    .          FLOWLINE                                                     
LGD0    .          12/16/1993                                                   
MT0     .          XANVIS                                                       
~CURVE INFORMATION                                                              
#MNEM.UNIT                 DESCRIPTION                                          
#---------                 -----------                                          
DEPTH   .F               :  1 DEPTH
GR      .GAPI          00:  2 GAMMA RAY                                       
LLS     .OHMM          00:  3 SHALLOW LATEROLOG                               
SP      .MV            00:  4 SELF POTENTIAL                                  
LLD     .OHMM          00:  5 DEEP LATEROLOG                                  
CALI    .IN            00:  6 CALIPER                                         
RHOB    .G/C3          00:  7 BULK DENSITY                                    
MLL     .OHMM          00:  8 MICROLATEROLOG                                  
DRHO    .G/C3          00:  9 DENSITY CORRECTN                                
CNS     .%             00: 10 COMPENSATED NEUT (-S)                           
~A  DEPTH    GR         LLS        SP         LLD        CALI       RHOB       MLL        DRHO       CNS                                                                                                                                                      
# ...
 10498.000   84.29870   32.13770   26.62930   39.96090   9.237100   2.628900   22.07610   0.041000   25.43430 
 10498.500   86.43565   32.99045   26.46264   41.07541   9.235750   2.629400   24.94525   0.027094   24.99017 
 10499.000   88.57530   33.84130   26.29580   42.18950   9.234400   2.629900   27.81670   0.013200   24.54560 
 10499.500   88.09407   34.37327   26.03997   42.61972   9.285345   2.641353   25.97712   0.012050   24.81785 
 10500.000   87.61250   34.90470   25.78420   43.04960   9.336400   2.652800   24.14010   0.010900   25.09010 
 10500.500   88.55994   34.94841   25.62019   42.78889   9.288080   2.659946   20.82844   0.016349   25.56001 
 10501.000   89.50820   34.99210   25.45620   42.52840   9.239800   2.667100   17.52320   0.021800   26.03030 
 10501.500   90.23912   34.34206   25.13192   41.42400   9.215670   2.656703   15.22108   0.034261   26.29123 
 10502.000   90.97000   33.69190   24.80760   40.32140   9.191500   2.646300   12.91700   0.046700   26.55200 
 10502.500   93.10209   32.61842   24.29439   38.94344   9.230375   2.643749   14.06552   0.054807   26.95148 
 10503.000   95.23210   31.54380   23.78070   37.56390   9.269300   2.641200   15.21280   0.062900   27.35110 
 10503.500   96.74235   31.23239   23.42879   37.30171   9.301479   2.641350   10.96374   0.055749   28.16568 
 10504.000   98.25400   30.92140   23.07700   37.04000   9.333700   2.641500   6.719000   0.048600   28.98120 
 10504.500   97.67744   31.62180   22.78794   37.77715   9.266644   2.641150   9.169242   0.065661   29.62998 
 10505.000   97.10070   32.32170   22.49880   38.51470   9.199600   2.640800   11.62270   0.082700   30.27820 
 10505.500   97.25658   33.25056   22.15168   39.57859   9.218336   2.640900   20.35369   0.071151   30.59203 
 10506.000   97.41230   34.17990   21.80460   40.64160   9.237100   2.641000   29.08160   0.059600   30.90600 
 10506.500   99.80962   35.28273   21.61724   42.17979   9.172705   2.653102   21.31477   0.067396   30.49515 
 10507.000   102.2089   36.38540   21.43000   43.71620   9.108400   2.665200   13.55510   0.075200   30.08490 
 10507.500   99.56021   37.63468   21.32423   45.41236   9.080217   2.672903   16.41027   0.061954   29.78140 
 10508.000   96.90860   38.88310   21.21830   47.11050   9.052000   2.680600   19.26590   0.048700   29.47800 
 10508.500   96.66110   38.12603   21.30492   46.37582   9.117752   2.675851   22.69986   0.064805   29.91140 
 10509.000   96.41360   37.36990   21.39160   45.64080   9.183500   2.671100   26.12810   0.080900   30.34560 
 10509.500   98.02481   35.59348   21.51601   43.45032   9.148577   2.673750   26.16422   0.068798   29.55385 
 10510.000   99.63780   33.82040   21.64020   41.26060   9.113700   2.676400   26.20040   0.056700   28.76300 
 10510.500   99.93321   32.13548   21.82107   38.96909   9.098953   2.662161   24.21910   0.077295   28.66317 
 10511.000   100.2288   30.44720   22.00200   36.67940   9.084200   2.647900   22.23760   0.097900   28.56330 
 10511.500   101.7899   28.84425   22.08099   34.48734   9.093597   2.644298   20.69695   0.093150   28.29979 
 10512.000   103.3502   27.23910   22.15990   32.29470   9.103000   2.640700   19.15810   0.088400   28.03630 
 10512.500   104.1417   26.46184   22.08256   31.34891   9.089597   2.627986   15.41187   0.101463   27.84619 
 10513.000   104.9317   25.68500   22.00520   30.40140   9.076200   2.615300   11.67300   0.114500   27.65630 
 10513.500   106.2440   25.65529   21.83004   30.39695   9.074850   2.632752   10.81668   0.113900   28.23112 
 10514.000   107.5558   25.62560   21.65510   30.39250   9.073500   2.650200   9.960600   0.113300   28.80670 
 10514.500   105.7766   26.06290   21.57756   30.93218   9.005093   2.665744   6.681916   0.096155   28.50417 
 10515.000   103.9997   26.50020   21.50010   31.47200   8.936700   2.681300   3.400200   0.079000   28.20180 
 10515.500   102.3620   28.03174   21.19949   33.10317   9.013161   2.673751   3.851083   0.080600   28.24368 
 10516.000   100.7250   29.56210   20.89850   34.73240   9.089600   2.666200   4.302400   0.082200   28.28560 
 10516.500   97.36450   32.09786   20.53566   37.26287   9.030584   2.647759   6.672016   0.107428   28.55439 
 10517.000   94.00850   34.63490   20.17270   39.79000   8.971600   2.629300   9.042600   0.132600   28.82360 
 10517.500   92.99173   35.50012   20.15836   40.05365   9.002471   2.611535   11.44252   0.179867   27.79065 
 10518.000   91.97550   36.36560   20.14400   40.31700   9.033300   2.593800   13.84240   0.227100   26.75820 
 10518.500   90.41351   32.82123   20.45501   35.99510   9.044004   2.606714   8.450714   0.199329   25.58961 
 10519.000   88.85030   29.27480   20.76650   31.67720   9.054700   2.619600   3.059100   0.171500   24.41980 
 10519.500   86.23608   25.93967   21.01542   28.24428   9.085567   2.614201   3.633768   0.130937   25.46661 
 10520.000   83.62190   22.60310   21.26460   24.81220   9.116400   2.608800   4.209300   0.090400   26.51350 
 10520.500   77.67854   23.54821   21.69616   26.46739   9.105701   2.530274   3.208744   0.071191   31.75778 
 10521.000   71.73960   24.49380   22.12720   28.12620   9.095000   2.451800   2.206500   0.052000   37.00740 
 10521.500   66.97838   30.68277   22.79340   36.93165   9.123154   2.276174   2.171241   0.008975   42.81969 
 10522.000   62.22240   36.86580   23.46030   45.72330   9.151300   2.100400   2.136000   -.034100   48.63770 
 10522.500   63.63254   37.23470   24.46851   46.80975   9.151300   1.996137   2.516240   -999.000   51.85647 
 10523.000   65.04230   37.60400   25.47750   47.89570   9.151300   1.892000   2.896300   -999.000   55.07870 
 10523.500   70.72496   33.60481   26.51760   42.40345   9.159347   1.992526   2.998375   -999.000   51.15474 
 10524.000   76.41440   29.61090   27.55790   36.91360   9.167400   2.093000   3.100600   0.066300   47.23770 
 10524.500   76.87592   28.20675   28.48417   34.94230   9.218362   2.245420   5.845603   0.087162   42.22419 
 10525.000   77.33720   26.80300   29.41170   32.96880   9.269300   2.398000   8.590000   0.108000   37.21850 
 10525.500   74.92955   26.92225   30.25378   33.14401   9.254536   2.481108   14.91622   0.116298   35.24805 
 10526.000   72.51840   27.04140   31.09610   33.31930   9.239800   2.564300   21.25210   0.124600   33.28080 
 10526.500   71.31570   28.32227   31.70116   35.11491   9.247853   2.583137   18.64747   0.133593   32.39032 
 10527.000   70.11360   29.60390   32.30550   36.90920   9.255900   2.602000   16.04270   0.142600   31.50130 
 10527.500   71.44853   29.76068   32.77102   37.50266   9.286747   2.616996   15.01141   0.118178   31.41349 
 10528.000   72.78440   29.91750   33.23660   38.09700   9.317600   2.632000   13.97850   0.093800   31.32580 
 10528.500   71.37828   27.47115   33.49287   34.96333   9.288127   2.606369   10.31918   0.077864   31.89617 
 10529.000   69.97260   25.02190   33.74870   31.82640   9.258600   2.580700   6.667100   0.061900   32.46640 
 10529.500   69.97890   23.02483   33.96114   29.16628   9.202196   2.551695   10.10139   0.097426   32.40837 
 10530.000   69.98520   21.02490   34.17380   26.50700   9.145900   2.522700   13.52980   0.133000   32.35030 
 10530.500   68.39970   19.83340   34.13587   24.96469   9.170035   2.559620   11.82048   0.102584   31.94333 
 10531.000   66.81110   18.64210   34.09790   23.42410   9.194200   2.596600   10.11350   0.072200   31.53620 
 10531.500   66.75954   17.90256   33.85823   22.55695   9.219701   2.619752   6.533758   0.041879   31.78787 
 10532.000   66.70790   17.16260   33.61850   21.68840   9.245200   2.642900   2.949700   0.011600   32.03940 
 10532.500   70.06345   17.38547   33.43778   22.05483   9.223759   2.608437   3.822043   0.037152   32.92940 
 10533.000   73.41330   17.60880   33.25710   22.42080   9.202300   2.574000   4.695000   0.062700   33.82080 
 10533.500   77.19401   19.01154   32.88091   24.35279   9.225103   2.564245   12.36074   0.097970   33.95861 
 10534.000   80.97920   20.41360   32.50460   26.28690   9.247900   2.554500   20.02820   0.133200   34.09650 
