~VERSION INFORMATION
VERS.                               2.00: CWLS LOG ASCII STANDARD VERSION 2.00
WRAP.                               NO  : ONE LINE PER DEPTH STEP               
~WELL INFORMATION
#MNEM.UNIT                     DATA TYPE  INFORMATION
#----------------------------------------------------------------------
STRT.F                           3490.00: START DEPTH
STOP.F                          11462.00: STOP DEPTH
STEP.F                              0.50: STEP VALUE
NULL.                            -999.00: NULL VALUE
COMP.                                   : COMPANY                               
WELL.                    17586 #3LT1 ST2: WELL                                  
FLD .                            Unknown: FIELD                                 
LOC .                                   : LOCATION                              
CNTY.                                   : COUNTY                                
STAT.                                   : STATE                                 
CTRY.                                   : COUNTRY                               
SRVC.                                   : SERVICE COMPANY                       
DATE.                                   : LOG DATE                              
API .                   50733200040100  : UNIQUE WELL IDENTIFIER                
~PARAMETER INFORMATION                                                          
#MNEM.UNIT        VALUE   DESCRIPTION                                           
#---------      --------  -----------                                           
~OTHER INFORMATION                                                              
CSG0    .          9.625" @ 8192                                                
FLS0    .          FLOWLINE                                                     
LGD0    .          12/16/1993                                                   
MT0     .          XANVIS                                                       
~CURVE INFORMATION                                                              
#MNEM.UNIT                 DESCRIPTION                                          
#---------                 -----------                                          
DEPTH   .F               :  1 DEPTH
GR      .GAPI          00:  2 GAMMA RAY                                       
LLS     .OHMM          00:  3 SHALLOW LATEROLOG                               
SP      .MV            00:  4 SELF POTENTIAL                                  
LLD     .OHMM          00:  5 DEEP LATEROLOG                                  
CALI    .IN            00:  6 CALIPER                                         
RHOB    .G/C3          00:  7 BULK DENSITY                                    
MLL     .OHMM          00:  8 MICROLATEROLOG                                  
DRHO    .G/C3          00:  9 DENSITY CORRECTN                                
CNS     .%             00: 10 COMPENSATED NEUT (-S)                           
~A  DEPTH    GR         LLS        SP         LLD        CALI       RHOB       MLL        DRHO       CNS                                                                                                                                                      
# ...
 10790.000   48.75480   32.60870   9.108800   60.11740   9.445900   2.520900   11.76850   -999.000   13.41860 
 10790.500   48.36373   32.01079   9.570189   59.14168   9.457993   2.522349   12.35781   -999.000   12.83922 
 10791.000   47.97270   31.41240   10.03090   58.16750   9.470100   2.523800   12.94750   -999.000   12.26000 
 10791.500   46.54165   32.09754   10.33879   59.37335   9.455355   2.515805   15.84054   -999.000   11.87369 
 10792.000   45.11230   32.78250   10.64680   60.57900   9.440600   2.507800   18.73480   0.019800   11.48690 
 10792.500   46.27155   32.04633   10.76149   58.68442   9.463406   2.514203   14.46451   0.016200   11.66060 
 10793.000   47.42890   31.31070   10.87610   56.78610   9.486200   2.520600   10.19450   0.012600   11.83420 
 10793.500   48.70233   28.62062   10.74714   51.50809   9.496904   2.518851   10.02282   0.015348   12.57528 
 10794.000   49.97590   25.93150   10.61830   46.23410   9.507600   2.517100   9.850900   0.018100   13.31620 
 10794.500   50.47517   24.48091   10.41704   43.40908   9.436501   2.509843   10.14671   0.022452   14.36103 
 10795.000   50.97350   23.03190   10.21590   40.58040   9.365400   2.502600   10.44230   0.026800   15.40660 
 10795.500   51.78238   23.38396   9.727287   41.26611   9.439243   2.501349   9.434633   0.020652   15.48754 
 10796.000   52.58950   23.73650   9.238400   41.95110   9.513000   2.500100   8.426800   0.014500   15.56840 
 10796.500   51.91671   24.73677   8.618530   44.06670   9.492840   2.500750   9.233148   0.021605   15.64253 
 10797.000   51.24320   25.73550   7.997900   46.17960   9.472700   2.501400   10.03990   0.028700   15.71670 
 10797.500   50.31291   26.14225   7.534550   47.18093   9.449892   2.502500   10.01153   0.026198   15.76989 
 10798.000   49.38190   26.54840   7.071000   48.18130   9.427100   2.503600   9.983200   0.023700   15.82300 
 10798.500   51.05282   26.35705   6.684705   48.20721   9.439196   2.505500   10.46741   -999.000   15.68848 
 10799.000   52.71990   26.16600   6.298500   48.23310   9.451300   2.507400   10.95210   -999.000   15.55380 
 10799.500   53.01297   26.43629   6.208322   49.01913   9.484825   2.512948   12.17145   -999.000   16.17155 
 10800.000   53.30650   26.70700   6.118200   49.80690   9.518300   2.518500   13.39250   -999.000   16.78970 
 10800.500   52.83775   27.22832   6.179883   51.09180   9.535746   2.523647   13.14459   -999.000   16.50494 
 10801.000   52.36970   27.74910   6.241500   52.37540   9.553200   2.528800   12.89680   0.024200   16.21980 
 10801.500   50.51524   27.85381   6.759071   52.80072   9.521015   2.521257   13.45421   0.024000   15.31133 
 10802.000   48.66140   27.95840   7.275700   53.22700   9.488800   2.513700   14.01180   0.023800   14.40420 
 10802.500   46.41110   28.56382   7.834202   54.79808   9.499550   2.505342   15.49361   0.024200   14.01044 
 10803.000   44.16200   29.17010   8.393100   56.37260   9.510300   2.497000   16.97440   0.024600   13.61690 
 10803.500   43.73435   29.86380   9.000660   58.20409   9.537088   2.501101   15.20056   0.017607   13.77629 
 10804.000   43.30710   30.55660   9.607700   60.03270   9.563900   2.505200   13.42500   0.010600   13.93550 
 10804.500   43.04358   30.03609   10.03915   59.32224   9.537119   2.496556   12.42044   -999.000   14.05619 
 10805.000   42.77970   29.51510   10.46970   58.61140   9.510300   2.487900   11.41650   -999.000   14.17700 
 10805.500   42.61777   29.26789   10.54244   58.32111   9.515654   2.475650   10.39362   -999.000   14.73312 
 10806.000   42.45580   29.02050   10.61520   58.03120   9.521000   2.463400   9.372200   0.013900   15.28950 
 10806.500   45.39595   29.69888   10.41542   59.36881   9.491530   2.470152   13.64386   0.015500   15.39939 
 10807.000   48.33620   30.37720   10.21590   60.70830   9.462000   2.476900   17.91100   0.017100   15.50950 
 10807.500   48.31961   30.55301   9.790453   61.22298   9.463348   2.486806   15.59078   0.014998   15.51050 
 10808.000   48.30300   30.72860   9.364900   61.73690   9.464700   2.496700   13.27040   0.012900   15.51150 
 10808.500   47.49379   30.48281   9.147913   61.32161   9.479464   2.484935   12.50355   0.015953   15.74333 
 10809.000   46.68280   30.23680   8.930700   60.90600   9.494200   2.473200   11.73840   0.019000   15.97550 
 10809.500   45.61520   30.30529   8.595621   60.80385   9.504946   2.463243   11.94599   0.019200   15.82262 
 10810.000   44.54710   30.37380   8.260200   60.70150   9.515700   2.453300   12.15340   0.019400   15.66980 
 10810.500   43.35757   30.26480   7.904998   60.17329   9.488834   2.454550   12.32228   -999.000   15.71767 
 10811.000   42.16950   30.15580   7.550000   59.64500   9.462000   2.455800   12.49130   -999.000   15.76550 
 10811.500   43.28498   30.27423   7.306798   59.51388   9.484802   2.465603   14.34461   -999.000   15.67090 
 10812.000   44.39990   30.39290   7.063400   59.38280   9.507600   2.475400   16.19970   -999.000   15.57610 
 10812.500   46.91576   30.68684   6.974208   59.31364   9.521007   2.482947   16.97725   -999.000   15.35921 
 10813.000   49.43450   30.98070   6.885100   59.24450   9.534400   2.490500   17.75590   -999.000   15.14210 
 10813.500   49.23262   31.20088   6.905887   58.94282   9.531750   2.491899   18.70398   -999.000   15.11166 
 10814.000   49.03120   31.42110   6.926700   58.64110   9.529100   2.493300   19.65170   -999.000   15.08120 
 10814.500   49.33958   31.71481   6.805813   58.13832   9.474083   2.492599   23.69161   -999.000   14.36486 
 10815.000   49.64840   32.00820   6.684800   57.63580   9.419100   2.491900   27.73400   0.034600   13.64810 
 10815.500   49.93326   31.68752   6.587213   55.32902   9.459322   2.502000   23.12225   0.029249   13.58010 
 10816.000   50.21840   31.36730   6.489500   53.02170   9.499600   2.512100   18.50830   0.023900   13.51220 
 10816.500   53.08810   30.26896   6.475452   50.07249   9.451273   2.523900   13.65330   0.023151   13.91426 
 10817.000   55.96150   29.17060   6.461400   47.12030   9.403000   2.535700   8.798900   0.022400   14.31630 
 10817.500   56.50242   28.04631   6.383399   44.50874   9.374840   2.539049   12.19158   0.019451   14.92918 
 10818.000   57.04270   26.92250   6.305500   41.90070   9.346700   2.542400   15.59170   0.016500   15.54240 
 10818.500   59.23325   25.43363   6.588522   39.01411   9.416439   2.540300   9.239559   0.020551   16.51829 
 10819.000   61.42350   23.94400   6.872000   36.12480   9.486200   2.538200   2.881200   0.024600   17.49420 
 10819.500   62.73755   23.59628   7.048892   35.45220   9.507664   2.539150   6.999346   0.038737   18.85715 
 10820.000   64.05150   23.24840   7.225900   34.78030   9.529100   2.540100   11.11490   0.052900   20.22180 
 10820.500   61.62582   23.73695   6.878975   35.56403   9.498225   2.542451   11.22913   0.045656   20.05756 
 10821.000   59.20180   24.22510   6.532000   36.34770   9.467400   2.544800   11.34320   0.038400   19.89320 
 10821.500   62.71388   25.80465   6.412553   38.94267   9.478100   2.543400   7.335529   0.049302   19.26144 
 10822.000   66.22520   27.38090   6.293300   41.53960   9.488800   2.542000   3.328300   0.060200   18.62930 
 10822.500   65.32016   32.52418   6.429535   48.95673   9.488800   2.575186   5005.367   0.057500   18.18405 
 10823.000   64.41560   37.66630   6.565700   56.38030   9.488800   2.608400   10000.00   0.054800   17.73850 
 10823.500   61.07393   36.22514   6.974372   53.01849   9.539843   2.631358   5005.311   0.039358   17.01661 
 10824.000   57.72930   34.78470   7.383100   49.66320   9.590800   2.654300   3.549700   0.023900   16.29480 
 10824.500   60.43803   29.89969   7.674380   42.85584   9.590800   2.614018   5.477129   0.046206   16.35697 
 10825.000   63.14340   25.02060   7.965900   36.04370   9.590800   2.573700   7.407000   0.068500   16.41920 
 10825.500   66.17927   24.29403   8.029809   34.90768   9.612263   2.557560   11.29715   0.082603   16.96469 
 10826.000   69.21410   23.56810   8.093700   33.77270   9.633700   2.541400   15.18940   0.096700   17.50980 
