~VERSION INFORMATION
VERS.                               2.00: CWLS LOG ASCII STANDARD VERSION 2.00
WRAP.                               NO  : ONE LINE PER DEPTH STEP               
~WELL INFORMATION
#MNEM.UNIT                     DATA TYPE  INFORMATION
#----------------------------------------------------------------------
STRT.F                           3490.00: START DEPTH
STOP.F                          11462.00: STOP DEPTH
STEP.F                              0.50: STEP VALUE
NULL.                            -999.00: NULL VALUE
COMP.                                   : COMPANY                               
WELL.                    17586 #3LT1 ST2: WELL                                  
FLD .                            Unknown: FIELD                                 
LOC .                                   : LOCATION                              
CNTY.                                   : COUNTY                                
STAT.                                   : STATE                                 
CTRY.                                   : COUNTRY                               
SRVC.                                   : SERVICE COMPANY                       
DATE.                                   : LOG DATE                              
API .                   50733200040100  : UNIQUE WELL IDENTIFIER                
~PARAMETER INFORMATION                                                          
#MNEM.UNIT        VALUE   DESCRIPTION                                           
#---------      --------  -----------                                           
~OTHER INFORMATION                                                              
CSG0    .          9.625" @ 8192                                                
FLS0    .          FLOWLINE                                                     
LGD0    .          12/16/1993                                                   
MT0     .          XANVIS                                                       
~CURVE INFORMATION                                                              
#MNEM.UNIT                 DESCRIPTION                                          
#---------                 -----------                                          
DEPTH   .F               :  1 DEPTH
GR      .GAPI          00:  2 GAMMA RAY                                       
LLS     .OHMM          00:  3 SHALLOW LATEROLOG                               
SP      .MV            00:  4 SELF POTENTIAL                                  
LLD     .OHMM          00:  5 DEEP LATEROLOG                                  
CALI    .IN            00:  6 CALIPER                                         
RHOB    .G/C3          00:  7 BULK DENSITY                                    
MLL     .OHMM          00:  8 MICROLATEROLOG                                  
DRHO    .G/C3          00:  9 DENSITY CORRECTN                                
CNS     .%             00: 10 COMPENSATED NEUT (-S)                           
~A  DEPTH    GR         LLS        SP         LLD        CALI       RHOB       MLL        DRHO       CNS                                                                                                                                                      
# ...
  9220.500   68.46971   22.82194   60.59326   34.18087   12.88030   2.497706   17.02205   -999.000   30.18325 
  9221.000   66.92520   20.81260   60.70310   29.33670   12.88030   2.488400   17.42070   -999.000   32.76890 
  9221.500   69.54951   20.44325   61.06539   29.39886   12.88030   2.354924   17.17733   -999.000   34.45376 
  9222.000   72.17000   20.07350   61.42770   29.46100   12.88030   2.221300   16.93350   -.056800   36.13940 
  9222.500   72.87368   20.40298   61.83336   30.84612   12.89831   2.111818   17.16461   -.036146   39.22224 
  9223.000   73.57770   20.73240   62.23860   32.23240   12.91630   2.002400   17.39580   -.015500   42.30400 
  9223.500   68.05264   18.76617   62.49294   27.40891   12.91630   2.035021   12.67431   0.031373   47.01275 
  9224.000   62.52430   16.79940   62.74710   22.58640   12.91630   2.067600   7.955500   0.078300   51.71820 
  9224.500   63.91751   16.42188   62.80530   21.67959   12.88026   2.192057   4.345930   0.081052   51.08844 
  9225.000   65.30940   16.04400   62.86350   20.77090   12.84420   2.316700   0.738500   0.083800   50.45850 
  9225.500   71.84865   17.19826   62.71128   22.79388   12.86226   2.389521   3.038393   -999.000   46.94366 
  9226.000   78.38640   18.35270   62.55890   24.81890   12.88030   2.462400   5.336600   -999.000   43.43160 
  9226.500   84.47617   19.68549   62.46201   27.19698   12.86226   2.512735   12.03258   -999.000   40.02332 
  9227.000   90.56940   21.01750   62.36520   29.57780   12.84420   2.563100   18.73070   0.078900   36.61760 
  9227.500   94.97309   21.93018   62.32857   31.44913   12.84420   2.619977   18.50645   0.069344   34.32463 
  9228.000   99.37480   22.84380   62.29190   33.32100   12.84420   2.676900   18.28200   0.059800   32.02830 
  9228.500   100.6482   23.07758   62.32280   34.13065   12.86225   2.668005   18.61641   0.043951   30.58084 
  9229.000   101.9215   23.31110   62.35370   34.94020   12.88030   2.659100   18.95100   0.028100   29.13180 
  9229.500   101.0096   22.94173   62.42046   34.31108   12.89830   2.606970   17.96368   0.040755   30.76872 
  9230.000   100.0993   22.57230   62.48720   33.68120   12.91630   2.554900   16.97710   0.053400   32.40460 
  9230.500   100.0248   21.43520   62.60884   30.67418   12.97029   2.532192   22.59451   0.053200   33.25343 
  9231.000   99.95020   20.29830   62.73060   27.66910   13.02430   2.509500   28.20560   0.053000   34.10210 
  9231.500   98.13319   19.78440   62.90469   26.53359   12.93429   2.536061   19.55100   0.057202   34.66736 
  9232.000   96.31540   19.26990   63.07880   25.39720   12.84420   2.562600   10.91000   0.061400   35.23210 
  9232.500   91.20439   19.43792   63.33529   25.99354   12.84420   2.558703   12.48372   -999.000   35.20302 
  9233.000   86.08820   19.60570   63.59190   26.59070   12.84420   2.554800   14.05680   -999.000   35.17390 
  9233.500   78.77081   19.10909   63.55849   26.62189   12.84420   2.477646   17.47627   -999.000   36.94010 
  9234.000   71.43850   18.61210   63.52510   26.65310   12.84420   2.400600   20.89300   -999.000   38.70530 
  9234.500   69.35583   18.85225   63.29021   27.26113   12.82621   2.387743   19.95970   -999.000   38.89752 
  9235.000   67.26960   19.09250   63.05520   27.86960   12.80820   2.374900   19.02490   0.017300   39.08970 
  9235.500   68.89451   18.42453   63.03396   26.78272   12.82621   2.436340   17.94634   0.025355   36.35459 
  9236.000   70.52050   17.75660   63.01270   25.69770   12.84420   2.497900   16.86720   0.033400   33.61850 
  9236.500   71.48381   16.26368   62.93253   23.08188   12.84420   2.542117   17.71303   -999.000   32.63039 
  9237.000   72.44540   14.76970   62.85240   20.46570   12.84420   2.586300   18.55790   -999.000   31.64220 
  9237.500   70.74352   15.19685   62.79596   21.17752   12.84420   2.579443   13.83608   -999.000   31.59178 
  9238.000   69.04030   15.62440   62.73950   21.88870   12.84420   2.572600   9.117000   0.027500   31.54140 
  9238.500   68.52272   17.39376   62.73350   25.49716   12.86226   2.589037   10.91097   0.054790   30.30878 
  9239.000   68.00550   19.16460   62.72750   29.10090   12.88030   2.605500   12.70280   0.082100   29.07700 
  9239.500   68.78528   20.30909   62.54958   32.20018   12.88030   2.623805   15.48441   0.081750   27.67883 
  9240.000   69.56580   21.45410   62.37170   35.29750   12.88030   2.642100   18.26260   0.081400   26.28200 
  9240.500   67.35681   21.15280   62.09325   34.51603   12.88030   2.651394   12.23371   0.053306   25.39738 
  9241.000   65.14430   20.85110   61.81480   33.73410   12.88030   2.660700   6.203900   0.025200   24.51370 
  9241.500   64.74244   20.63609   61.81635   34.44591   12.86224   2.612190   4.557420   0.041457   24.02210 
  9242.000   64.34100   20.42090   61.81790   35.15780   12.84420   2.563700   2.910100   0.057700   23.53000 
  9242.500   64.55248   21.12767   61.83395   36.97902   12.84420   2.571706   29.98342   0.092017   22.95494 
  9243.000   64.76390   21.83440   61.85000   38.79660   12.84420   2.579700   57.07560   0.126300   22.38060 
  9243.500   62.58762   20.28847   61.98669   34.28587   12.84420   2.619025   39.14816   0.074049   24.66017 
  9244.000   60.41240   18.74070   62.12360   29.77390   12.84420   2.658400   21.19860   0.021800   26.93820 
  9244.500   64.16243   17.48648   62.03986   26.93623   12.84420   2.613322   16.23119   0.027299   27.55397 
  9245.000   67.91810   16.23070   61.95610   24.09780   12.84420   2.568200   11.27120   0.032800   28.16950 
  9245.500   73.69691   15.90715   61.89334   23.24711   12.84420   2.589492   10.96587   0.041549   29.81821 
  9246.000   79.47430   15.58360   61.83050   22.39610   12.84420   2.610800   10.66090   0.050300   31.46690 
  9246.500   84.33251   15.72278   61.84135   22.44903   12.84420   2.623852   11.46784   -999.000   29.82856 
  9247.000   89.19370   15.86190   61.85220   22.50190   12.84420   2.636900   12.27540   -999.000   28.19130 
  9247.500   89.98310   16.69306   61.74814   24.09525   12.84420   2.628502   14.56876   -999.000   28.43763 
  9248.000   90.77340   17.52400   61.64400   25.68920   12.84420   2.620100   16.85980   0.017600   28.68360 
  9248.500   88.08423   18.71455   61.56199   28.09350   12.84420   2.629252   18.17961   0.016150   28.49794 
  9249.000   85.39450   19.90500   61.47990   30.49460   12.84420   2.638400   19.49820   0.014700   28.31230 
  9249.500   83.64752   19.39211   61.44978   29.81661   12.84420   2.640798   17.61622   -999.000   28.08239 
  9250.000   81.90170   18.87840   61.41960   29.13870   12.84420   2.643200   15.73240   -999.000   27.85270 
  9250.500   80.91553   17.25465   61.43624   26.67187   12.84420   2.594283   14.03777   -999.000   29.40489 
  9251.000   79.93090   15.63230   61.45290   24.20420   12.84420   2.545400   12.34420   -.019700   30.95660 
  9251.500   76.61757   14.84088   61.51852   22.85691   12.82621   2.545500   13.46444   -.003390   31.86861 
  9252.000   73.30580   14.04950   61.58410   21.51080   12.80820   2.545600   14.58390   0.012900   32.77910 
  9252.500   71.68805   14.24432   61.69432   21.72579   12.80820   2.576357   14.51920   -999.000   31.73624 
  9253.000   70.07160   14.43910   61.80450   21.94060   12.80820   2.607100   14.45450   -999.000   30.69530 
  9253.500   70.65549   15.51280   61.94038   23.81905   12.82621   2.615649   14.15629   -999.000   30.39389 
  9254.000   71.24010   16.58840   62.07620   25.69390   12.84420   2.624200   13.85790   -999.000   30.09230 
  9254.500   67.47789   16.64143   62.37300   26.05441   12.84420   2.636704   12.28292   -999.000   29.83803 
  9255.000   63.71720   16.69450   62.67000   26.41500   12.84420   2.649200   10.70910   0.017200   29.58340 
  9255.500   64.14359   15.52078   62.96342   24.41388   12.84420   2.651649   11.70367   0.003146   29.25174 
  9256.000   64.57030   14.34690   63.25690   22.41020   12.84420   2.654100   12.69920   -.010900   28.92010 
  9256.500   69.62526   13.95424   63.27050   21.91291   12.84420   2.638789   13.75402   -999.000   28.99616 
