~VERSION INFORMATION
VERS.                               2.00: CWLS LOG ASCII STANDARD VERSION 2.00
WRAP.                               NO  : ONE LINE PER DEPTH STEP               
~WELL INFORMATION
#MNEM.UNIT                     DATA TYPE  INFORMATION
#----------------------------------------------------------------------
STRT.F                           3490.00: START DEPTH
STOP.F                          11462.00: STOP DEPTH
STEP.F                              0.50: STEP VALUE
NULL.                            -999.00: NULL VALUE
COMP.                                   : COMPANY                               
WELL.                    17586 #3LT1 ST2: WELL                                  
FLD .                            Unknown: FIELD                                 
LOC .                                   : LOCATION                              
CNTY.                                   : COUNTY                                
STAT.                                   : STATE                                 
CTRY.                                   : COUNTRY                               
SRVC.                                   : SERVICE COMPANY                       
DATE.                                   : LOG DATE                              
API .                   50733200040100  : UNIQUE WELL IDENTIFIER                
~PARAMETER INFORMATION                                                          
#MNEM.UNIT        VALUE   DESCRIPTION                                           
#---------      --------  -----------                                           
~OTHER INFORMATION                                                              
CSG0    .          9.625" @ 8192                                                
FLS0    .          FLOWLINE                                                     
LGD0    .          12/16/1993                                                   
MT0     .          XANVIS                                                       
~CURVE INFORMATION                                                              
#MNEM.UNIT                 DESCRIPTION                                          
#---------                 -----------                                          
DEPTH   .F               :  1 DEPTH
GR      .GAPI          00:  2 GAMMA RAY                                       
LLS     .OHMM          00:  3 SHALLOW LATEROLOG                               
SP      .MV            00:  4 SELF POTENTIAL                                  
LLD     .OHMM          00:  5 DEEP LATEROLOG                                  
CALI    .IN            00:  6 CALIPER                                         
RHOB    .G/C3          00:  7 BULK DENSITY                                    
MLL     .OHMM          00:  8 MICROLATEROLOG                                  
DRHO    .G/C3          00:  9 DENSITY CORRECTN                                
CNS     .%             00: 10 COMPENSATED NEUT (-S)                           
~A  DEPTH    GR         LLS        SP         LLD        CALI       RHOB       MLL        DRHO       CNS                                                                                                                                                      
# ...
  3782.000   51.39150   8.366300   5.191500   14.72980   12.21570   2.510500   -999.000   0.020100   42.58530 
  3782.500   57.44342   8.038361   5.359466   14.70989   12.19770   2.415333   -999.000   0.004647   44.89771 
  3783.000   63.49510   7.710200   5.527400   14.69000   12.17970   2.320200   -999.000   -.010800   47.21060 
  3783.500   62.36713   7.667853   5.600719   14.91921   12.17970   2.200166   -999.000   0.030639   52.10271 
  3784.000   61.23910   7.625500   5.674000   15.14840   12.17970   2.080100   -999.000   0.072100   56.99510 
  3784.500   60.35089   7.650257   5.481558   14.85744   12.17970   2.147843   -999.000   0.088348   54.51801 
  3785.000   59.46280   7.675000   5.289100   14.56640   12.17970   2.215600   -999.000   0.104600   52.04260 
  3785.500   58.61560   7.727112   4.841223   14.38570   12.17970   2.287520   -999.000   0.083444   45.15885 
  3786.000   57.76850   7.779200   4.393500   14.20490   12.17970   2.359500   -999.000   0.062300   38.27820 
  3786.500   52.42663   7.818207   4.369447   14.21105   12.17970   2.369500   -999.000   0.058900   34.58807 
  3787.000   47.08250   7.857200   4.345400   14.21720   12.17970   2.379500   -999.000   0.055500   30.89760 
  3787.500   47.14144   7.642874   4.066236   13.86994   12.30582   2.395248   -999.000   -999.000   31.17314 
  3788.000   47.20040   7.428600   3.786900   13.52270   12.43190   2.411000   -999.000   -999.000   31.44880 
  3788.500   49.81098   7.443599   3.537222   13.62092   12.44990   2.400449   -999.000   -999.000   32.98916 
  3789.000   52.42030   7.458600   3.287500   13.71920   12.46790   2.389900   -999.000   0.056200   34.52920 
  3789.500   53.38919   8.023462   3.181793   14.73742   12.30585   2.364796   -999.000   0.118257   34.32655 
  3790.000   54.35840   8.588100   3.076100   15.75550   12.14370   2.339700   -999.000   0.180300   34.12390 
  3790.500   54.85989   8.653709   3.136685   15.12882   12.25175   2.371094   -999.000   0.114712   29.71454 
  3791.000   55.36160   8.719300   3.197300   14.50200   12.35980   2.402500   -999.000   0.049100   25.30180 
  3791.500   54.87188   8.098909   3.368575   13.20307   12.37780   2.376498   -999.000   0.074700   25.91657 
  3792.000   54.38200   7.478300   3.539900   11.90360   12.39580   2.350500   -999.000   0.100300   26.53110 
  3792.500   54.51367   7.217706   3.376505   11.50802   12.59395   2.355598   -999.000   0.068046   31.15526 
  3793.000   54.64530   6.957200   3.213000   11.11260   12.79210   2.360700   -999.000   0.035800   35.77930 
  3793.500   54.66025   6.848244   3.059193   11.12195   12.62997   2.369850   -999.000   0.028900   38.93595 
  3794.000   54.67520   6.739300   2.905500   11.13130   12.46790   2.379000   -999.000   0.022000   42.09280 
  3794.500   53.12059   6.946323   2.756536   11.96168   12.46790   2.377550   -999.000   0.032498   43.74370 
  3795.000   51.56560   7.153300   2.607600   12.79210   12.46790   2.376100   -999.000   0.043000   45.39460 
  3795.500   48.18814   7.476311   2.418110   13.72214   12.50391   2.304535   -999.000   0.015604   46.35550 
  3796.000   44.81010   7.799200   2.228500   14.65220   12.53990   2.233000   -999.000   -.011800   47.31610 
  3796.500   44.40224   7.361495   2.012977   13.32895   12.59395   2.103478   -999.000   0.001549   50.80468 
  3797.000   43.99450   6.924000   1.797400   12.00600   12.64800   1.974000   -999.000   0.014900   54.29170 
  3797.500   50.87566   6.424281   1.703727   10.86305   12.66600   2.085486   -999.000   -999.000   52.33742 
  3798.000   57.76020   5.924400   1.610000   9.720200   12.68400   2.197000   -999.000   -999.000   50.38360 
  3798.500   66.39706   6.293030   1.704782   10.39588   12.61193   2.287016   -999.000   -999.000   42.07464 
  3799.000   75.03720   6.661600   1.799600   11.07180   12.53990   2.377000   -999.000   0.042500   33.76440 
  3799.500   70.29680   7.446547   2.345403   12.47171   12.55790   2.382650   -999.000   0.054253   34.40915 
  3800.000   65.55640   8.231900   2.891500   13.87190   12.57590   2.388300   -999.000   0.066000   35.05420 
  3800.500   62.22306   8.247602   2.950604   13.72051   12.53991   2.413794   -999.000   0.060750   36.72901 
  3801.000   58.89010   8.263300   3.009700   13.56900   12.50390   2.439300   -999.000   0.055500   38.40340 
  3801.500   57.47670   8.053800   2.734206   13.05933   12.50390   2.443401   -999.000   0.040249   38.39225 
  3802.000   56.06400   7.844200   2.458500   12.54990   12.50390   2.447500   -999.000   0.025000   38.38110 
  3802.500   57.90746   7.663799   2.363790   12.03878   12.50390   2.436401   -999.000   0.038597   37.35087 
  3803.000   59.75170   7.483400   2.269100   11.52770   12.50390   2.425300   -999.000   0.052200   36.32070 
  3803.500   60.78111   7.331645   2.307560   11.08104   12.53989   2.428450   -999.000   0.041552   36.70938 
  3804.000   61.81030   7.179900   2.346000   10.63440   12.57590   2.431600   -999.000   0.030900   37.09820 
  3804.500   61.69387   6.910285   2.086691   10.07383   12.73798   2.433701   -999.000   0.026099   39.53419 
  3805.000   61.57740   6.640600   1.827400   9.513400   12.90010   2.435800   -999.000   0.021300   41.97100 
  3805.500   63.55005   6.311933   1.575169   9.114134   12.90010   2.425398   -999.000   0.020900   42.27973 
  3806.000   65.52330   5.983100   1.322900   8.715000   12.90010   2.415000   -999.000   0.020500   42.58860 
  3806.500   68.07278   6.112967   1.088830   9.219080   12.90010   2.371602   -999.000   0.031850   45.23766 
  3807.000   70.62240   6.242800   0.854700   9.723000   12.90010   2.328200   -999.000   0.043200   47.88500 
  3807.500   69.12819   7.075805   0.673585   11.70336   12.82807   2.299505   -999.000   0.067543   50.14452 
  3808.000   67.63360   7.909000   0.492400   13.68420   12.75610   2.270800   -999.000   0.091900   52.40480 
  3808.500   61.68763   9.408689   0.238770   17.51708   12.75610   2.112686   -999.000   0.079049   50.52385 
  3809.000   55.74080   10.90750   -.014900   21.35020   12.75610   1.954500   -999.000   0.066200   48.64220 
  3809.500   44.05440   10.80867   -.153035   20.52495   12.81010   1.762854   -999.000   -999.000   52.94593 
  3810.000   32.36520   10.70990   -.291200   19.69960   12.86410   1.571300   -999.000   -999.000   57.24800 
  3810.500   31.89303   9.287172   -.466620   16.42683   12.93615   1.600601   -999.000   -999.000   62.68593 
  3811.000   31.42080   7.864600   -.642100   13.15240   13.00820   1.629900   -999.000   -999.000   68.12120 
  3811.500   39.76049   7.363052   -.647499   12.16928   13.06225   1.874926   -999.000   -999.000   59.00224 
  3812.000   48.10310   6.861400   -.652900   11.18650   13.11630   2.120000   -999.000   -999.000   49.87770 
  3812.500   55.97740   6.942180   -.570590   11.37053   13.15231   2.281039   -999.000   -999.000   41.48627 
  3813.000   63.84870   7.023000   -.488300   11.55460   13.18830   2.442200   -999.000   0.042500   33.09340 
  3813.500   64.79362   7.176028   -.536843   11.95837   13.27833   2.452650   -999.000   0.046251   30.19717 
  3814.000   65.73860   7.329000   -.585400   12.36200   13.36840   2.463100   -999.000   0.050000   27.30200 
  3814.500   64.16399   7.321649   -.772758   12.56283   13.36840   2.447098   -999.000   0.040799   27.93467 
  3815.000   62.58940   7.314300   -.960000   12.76370   13.36840   2.431100   -999.000   0.031600   28.56720 
  3815.500   63.34229   7.248936   -1.46081   12.90034   13.36840   2.422548   -999.000   0.043098   29.48693 
  3816.000   64.09500   7.183600   -1.96150   13.03700   13.36840   2.414000   -999.000   0.054600   30.40670 
  3816.500   63.34260   7.101621   -2.31169   13.07630   13.42245   2.398698   -999.000   0.055600   30.68915 
  3817.000   62.59050   7.019600   -2.66170   13.11560   13.47650   2.383400   -999.000   0.056600   30.97180 
  3817.500   63.24223   6.911428   -2.85130   13.08584   13.47650   2.371801   -999.000   0.068897   30.84037 
  3818.000   63.89410   6.803300   -3.04090   13.05610   13.47650   2.360200   -999.000   0.081200   30.70900 
