~VERSION INFORMATION
VERS.                               2.00: CWLS LOG ASCII STANDARD VERSION 2.00
WRAP.                               NO  : ONE LINE PER DEPTH STEP               
~WELL INFORMATION
#MNEM.UNIT                     DATA TYPE  INFORMATION
#----------------------------------------------------------------------
STRT.F                           3490.00: START DEPTH
STOP.F                          11462.00: STOP DEPTH
STEP.F                              0.50: STEP VALUE
NULL.                            -999.00: NULL VALUE
COMP.                                   : COMPANY                               
WELL.                    17586 #3LT1 ST2: WELL                                  
FLD .                            Unknown: FIELD                                 
LOC .                                   : LOCATION                              
CNTY.                                   : COUNTY                                
STAT.                                   : STATE                                 
CTRY.                                   : COUNTRY                               
SRVC.                                   : SERVICE COMPANY                       
DATE.                                   : LOG DATE                              
API .                   50733200040100  : UNIQUE WELL IDENTIFIER                
~PARAMETER INFORMATION                                                          
#MNEM.UNIT        VALUE   DESCRIPTION                                           
#---------      --------  -----------                                           
~OTHER INFORMATION                                                              
CSG0    .          9.625" @ 8192                                                
FLS0    .          FLOWLINE                                                     
LGD0    .          12/16/1993                                                   
MT0     .          XANVIS                                                       
~CURVE INFORMATION                                                              
#MNEM.UNIT                 DESCRIPTION                                          
#---------                 -----------                                          
DEPTH   .F               :  1 DEPTH
GR      .GAPI          00:  2 GAMMA RAY                                       
LLS     .OHMM          00:  3 SHALLOW LATEROLOG                               
SP      .MV            00:  4 SELF POTENTIAL                                  
LLD     .OHMM          00:  5 DEEP LATEROLOG                                  
CALI    .IN            00:  6 CALIPER                                         
RHOB    .G/C3          00:  7 BULK DENSITY                                    
MLL     .OHMM          00:  8 MICROLATEROLOG                                  
DRHO    .G/C3          00:  9 DENSITY CORRECTN                                
CNS     .%             00: 10 COMPENSATED NEUT (-S)                           
~A  DEPTH    GR         LLS        SP         LLD        CALI       RHOB       MLL        DRHO       CNS                                                                                                                                                      
# ...
  8381.000   93.39470   11.23230   32.47900   15.37850   13.19260   2.544900   8.700100   -999.000   36.97000 
  8381.500   92.56785   10.91999   32.36755   14.60054   13.21066   2.527491   6.523104   -999.000   37.70427 
  8382.000   91.74100   10.60720   32.25610   13.82190   13.22870   2.510100   4.343300   0.078200   38.43800 
  8382.500   93.34798   10.57551   32.07877   13.68280   13.22870   2.492594   3.860924   0.118808   38.48633 
  8383.000   94.95530   10.54380   31.90150   13.54370   13.22870   2.475100   3.379000   0.159400   38.53460 
  8383.500   92.47392   10.64267   31.61239   13.67998   13.22870   2.477251   3.636287   0.173095   38.87035 
  8384.000   89.99380   10.74150   31.32320   13.81630   13.22870   2.479400   3.893200   0.186800   39.20650 
  8384.500   86.86168   10.78282   31.05132   13.90784   13.21065   2.494901   3.859073   0.118827   40.70988 
  8385.000   83.73180   10.82410   30.77910   13.99930   13.19260   2.510400   3.825000   0.050800   42.21170 
  8385.500   78.95773   11.14624   30.69047   14.62440   13.19260   2.506249   6.326236   0.060146   42.40894 
  8386.000   74.19060   11.46790   30.60180   15.25020   13.19260   2.502100   8.826100   0.069500   42.60640 
  8386.500   69.76070   12.07306   30.77201   16.48018   13.21064   2.442127   10.52141   0.056358   43.30753 
  8387.000   65.32730   12.67840   30.94210   17.71200   13.22870   2.382100   12.21550   0.043200   44.00900 
  8387.500   63.27224   12.04952   30.99932   16.67956   13.22870   2.340019   10.71190   0.028253   45.74562 
  8388.000   61.21940   11.42150   31.05660   15.64840   13.22870   2.297900   9.209600   0.013300   47.48410 
  8388.500   62.97527   10.64293   31.09377   13.94803   13.21066   2.335447   8.761463   0.041608   45.03090 
  8389.000   64.73170   9.863500   31.13100   12.24620   13.19260   2.373000   8.313100   0.069900   42.57940 
  8389.500   66.80496   9.814582   31.21198   11.81243   13.19260   2.398063   8.178950   0.100287   40.52370 
  8390.000   68.88010   9.765700   31.29290   11.37870   13.19260   2.423100   8.044700   0.130700   38.46710 
  8390.500   66.61545   9.858935   31.38041   11.20930   13.19260   2.441541   7.386159   0.113700   39.40095 
  8391.000   64.34850   9.952100   31.46790   11.03990   13.19260   2.460000   6.727700   0.096700   40.33550 
  8391.500   64.49665   9.694271   31.57747   10.60356   13.21066   2.482248   6.756301   0.042220   40.56995 
  8392.000   64.64500   9.436100   31.68710   10.16690   13.22870   2.504500   6.784900   -.012300   40.80430 
  8392.500   64.18044   9.158550   31.76577   9.961225   13.21064   2.470730   5.892296   0.001055   41.68852 
  8393.000   63.71620   8.880900   31.84440   9.755700   13.19260   2.437000   5.000400   0.014400   42.57300 
  8393.500   62.09900   9.200915   31.82711   10.63075   13.19260   2.395422   6.346923   0.013750   43.58885 
  8394.000   60.48130   9.521100   31.80980   11.50520   13.19260   2.353800   7.694100   0.013100   44.60420 
  8394.500   56.80437   11.48181   31.78509   14.99736   13.21065   2.176014   4.817686   -.020192   47.91608 
  8395.000   53.12750   13.44630   31.76040   18.48690   13.22870   1.998400   1.942100   -.053500   51.22560 
  8395.500   46.92363   18.11665   31.70759   27.51380   13.21065   1.793163   2.143826   -.048952   58.37486 
  8396.000   40.71930   22.78160   31.65480   36.54540   13.19260   1.587700   2.345700   -.044400   65.53100 
  8396.500   43.48662   26.94198   31.45177   46.89228   13.19260   1.560300   9.075731   -.069194   66.96400 
  8397.000   46.25610   31.10650   31.24850   57.23520   13.19260   1.532900   15.80420   -.094000   68.39710 
  8397.500   57.41454   29.17650   31.01677   50.60476   13.19260   1.620057   24.58208   -.060522   64.81644 
  8398.000   68.56370   27.24480   30.78480   43.97860   13.19260   1.707200   33.36900   -.027100   61.23420 
  8398.500   77.22224   22.95484   30.60376   34.96003   13.19260   1.885204   23.92239   -999.000   54.70578 
  8399.000   85.86630   18.66010   30.42290   25.94360   13.19260   2.063300   14.48810   -999.000   48.17050 
  8399.500   87.54134   16.25610   30.11457   21.97331   13.19260   2.263430   12.33461   -999.000   42.06867 
  8400.000   89.21770   13.85420   29.80630   18.00070   13.19260   2.463800   10.18350   -.029500   35.96590 
  8400.500   86.64268   13.40668   29.55794   17.28502   13.19260   2.511921   10.87133   -.006995   33.06701 
  8401.000   84.06580   12.95910   29.30950   16.56860   13.19260   2.560000   11.55830   0.015500   30.16560 
  8401.500   84.29302   13.35928   29.15845   17.20730   13.19260   2.585245   12.56697   -.003253   29.05434 
  8402.000   84.52010   13.75930   29.00740   17.84600   13.19260   2.610500   13.57500   -.022000   27.94420 
  8402.500   87.40662   13.96288   28.94579   18.25249   13.19260   2.607799   13.98938   -.017903   27.06272 
  8403.000   90.29100   14.16650   28.88430   18.65940   13.19260   2.605100   14.40390   -.013800   26.18180 
  8403.500   93.05860   14.19275   28.68505   18.98774   13.19260   2.595695   14.53100   -.013350   25.64128 
  8404.000   95.82260   14.21900   28.48560   19.31630   13.19260   2.586300   14.65830   -.012900   25.10150 
  8404.500   95.31297   14.60312   28.19644   20.25962   13.17459   2.583599   15.88828   -.013150   24.92299 
  8405.000   94.80290   14.98730   27.90700   21.20300   13.15660   2.580900   17.12010   -.013400   24.74440 
  8405.500   94.34300   15.13231   27.64693   21.80514   13.17461   2.590799   16.44917   -.012700   24.48042 
  8406.000   93.88340   15.27750   27.38670   22.40640   13.19260   2.600700   15.77850   -.012000   24.21630 
  8406.500   95.54856   14.61642   27.12609   21.50326   13.17461   2.607698   14.60234   -999.000   24.99554 
  8407.000   97.21520   13.95590   26.86580   20.60060   13.15660   2.614700   13.42450   -999.000   25.77560 
  8407.500   95.00656   13.76156   26.70417   20.25541   13.17459   2.620652   13.04339   -999.000   26.68072 
  8408.000   92.79620   13.56710   26.54240   19.91000   13.19260   2.626600   12.66200   -999.000   27.58670 
  8408.500   88.80769   13.85758   26.38270   20.41733   13.17460   2.624950   17.22626   -999.000   28.27327 
  8409.000   84.82090   14.14760   26.22290   20.92370   13.15660   2.623300   21.79270   -.014000   28.95990 
  8409.500   84.35611   13.90785   26.31346   20.15933   13.17460   2.619247   16.57843   -.012100   29.75927 
  8410.000   83.89160   13.66820   26.40400   19.39440   13.19260   2.615200   11.35750   -.010200   30.55890 
  8410.500   86.06198   13.58328   26.15194   19.14320   13.19260   2.607106   12.18772   -.014703   30.84768 
  8411.000   88.22990   13.49830   25.89940   18.89230   13.19260   2.599000   13.01780   -.019200   31.13610 
  8411.500   90.01493   13.81204   25.71064   19.41171   13.19260   2.582651   14.13416   -.019200   31.82751 
  8412.000   91.79830   14.12560   25.52170   19.93160   13.19260   2.566300   15.25050   -.019200   32.51810 
  8412.500   93.20476   13.97672   25.42927   19.84404   13.17462   2.566800   11.33850   -999.000   33.16563 
  8413.000   94.61180   13.82760   25.33690   19.75640   13.15660   2.567300   7.430500   -999.000   33.81240 
  8413.500   93.69157   13.78974   25.41832   20.13704   13.17459   2.554351   6.307782   -999.000   35.05752 
  8414.000   92.77170   13.75190   25.49970   20.51760   13.19260   2.541400   5.184200   -.034200   36.30380 
  8414.500   91.31403   14.08875   25.63261   21.42293   13.19260   2.438982   11.24487   -.039298   39.07072 
  8415.000   89.85450   14.42560   25.76550   22.32740   13.19260   2.336600   17.31030   -.044400   41.83600 
  8415.500   84.80133   12.81575   25.95784   19.32367   13.19260   2.289009   10.64019   -.012096   43.76431 
  8416.000   79.74060   11.20530   26.15000   16.32240   13.19260   2.241400   3.973400   0.020200   45.69190 
  8416.500   75.25064   9.843647   26.23937   13.93538   13.17460   2.331490   4.040339   0.017702   43.07478 
  8417.000   70.75800   8.481400   26.32870   11.54930   13.15660   2.421500   4.107300   0.015200   40.45890 
