~VERSION INFORMATION
VERS.                               2.00: CWLS LOG ASCII STANDARD VERSION 2.00
WRAP.                               NO  : ONE LINE PER DEPTH STEP               
~WELL INFORMATION
#MNEM.UNIT                     DATA TYPE  INFORMATION
#----------------------------------------------------------------------
STRT.F                           3490.00: START DEPTH
STOP.F                          11462.00: STOP DEPTH
STEP.F                              0.50: STEP VALUE
NULL.                            -999.00: NULL VALUE
COMP.                                   : COMPANY                               
WELL.                    17586 #3LT1 ST2: WELL                                  
FLD .                            Unknown: FIELD                                 
LOC .                                   : LOCATION                              
CNTY.                                   : COUNTY                                
STAT.                                   : STATE                                 
CTRY.                                   : COUNTRY                               
SRVC.                                   : SERVICE COMPANY                       
DATE.                                   : LOG DATE                              
API .                   50733200040100  : UNIQUE WELL IDENTIFIER                
~PARAMETER INFORMATION                                                          
#MNEM.UNIT        VALUE   DESCRIPTION                                           
#---------      --------  -----------                                           
~OTHER INFORMATION                                                              
CSG0    .          9.625" @ 8192                                                
FLS0    .          FLOWLINE                                                     
LGD0    .          12/16/1993                                                   
MT0     .          XANVIS                                                       
~CURVE INFORMATION                                                              
#MNEM.UNIT                 DESCRIPTION                                          
#---------                 -----------                                          
DEPTH   .F               :  1 DEPTH
GR      .GAPI          00:  2 GAMMA RAY                                       
LLS     .OHMM          00:  3 SHALLOW LATEROLOG                               
SP      .MV            00:  4 SELF POTENTIAL                                  
LLD     .OHMM          00:  5 DEEP LATEROLOG                                  
CALI    .IN            00:  6 CALIPER                                         
RHOB    .G/C3          00:  7 BULK DENSITY                                    
MLL     .OHMM          00:  8 MICROLATEROLOG                                  
DRHO    .G/C3          00:  9 DENSITY CORRECTN                                
CNS     .%             00: 10 COMPENSATED NEUT (-S)                           
~A  DEPTH    GR         LLS        SP         LLD        CALI       RHOB       MLL        DRHO       CNS                                                                                                                                                      
# ...
  4366.000   55.61180   6.586900   -58.3086   9.428900   13.51250   2.430500   -999.000   0.013500   40.61980 
  4366.500   56.77332   6.359871   -58.9212   9.222038   13.33240   2.430650   -999.000   0.020997   40.02096 
  4367.000   57.93500   6.132900   -59.5333   9.015300   13.15230   2.430800   -999.000   0.028500   39.42260 
  4367.500   59.48088   6.057010   -59.8654   9.031654   13.24236   2.435501   -999.000   0.024150   38.89216 
  4368.000   61.02670   5.981100   -60.1975   9.048000   13.33240   2.440200   -999.000   0.019800   38.36130 
  4368.500   61.81519   6.032887   -60.6706   9.290131   13.44053   2.415743   -999.000   0.004451   38.36760 
  4369.000   62.60410   6.084700   -61.1438   9.532100   13.54860   2.391300   -999.000   -.010900   38.37390 
  4369.500   61.29923   6.202033   -61.6864   9.866073   13.56660   2.380499   -999.000   0.007696   38.20383 
  4370.000   59.99430   6.319400   -62.2292   10.20020   13.58460   2.369700   -999.000   0.026300   38.03380 
  4370.500   59.58827   6.403626   -62.6456   10.40831   13.62060   2.360598   -999.000   0.030599   38.37827 
  4371.000   59.18210   6.487900   -63.0622   10.61640   13.65660   2.351500   -999.000   0.034900   38.72290 
  4371.500   61.53646   6.459136   -63.4308   10.55896   13.65660   2.350750   -999.000   0.010495   38.42006 
  4372.000   63.89170   6.430400   -63.7996   10.50150   13.65660   2.350000   -999.000   -.013900   38.11740 
  4372.500   63.43703   6.369222   -63.8759   10.34733   13.67460   2.377198   -999.000   -.022501   37.72081 
  4373.000   62.98250   6.308000   -63.9522   10.19320   13.69260   2.404400   -999.000   -.031100   37.32440 
  4373.500   62.52686   6.292544   -64.0817   10.13511   13.67460   2.400350   -999.000   -.020852   37.17507 
  4374.000   62.07140   6.277100   -64.2112   10.07700   13.65660   2.396300   -999.000   -.010600   37.02570 
  4374.500   61.54374   6.185912   -64.5956   9.865089   13.36846   2.352411   -999.000   0.011400   37.29919 
  4375.000   61.01640   6.094700   -64.9802   9.653100   13.08030   2.308500   -999.000   0.033400   37.57260 
  4375.500   60.50561   5.802643   -65.0734   9.048309   13.18833   2.279700   -999.000   0.031249   38.94810 
  4376.000   59.99480   5.510800   -65.1667   8.443200   13.29640   2.250900   -999.000   0.029100   40.32430 
  4376.500   58.82005   5.166566   -65.2037   7.829121   13.33241   2.243696   -999.000   0.035900   41.90275 
  4377.000   57.64490   4.822500   -65.2408   7.214700   13.36840   2.236500   -999.000   0.042700   43.48160 
  4377.500   57.05826   4.693653   -65.0380   7.067220   13.38646   2.227601   -999.000   0.058297   43.25632 
  4378.000   56.47150   4.564800   -64.8352   6.919700   13.40450   2.218700   -999.000   0.073900   43.03100 
  4378.500   57.64635   4.663973   -64.8711   7.202374   13.38645   2.221500   -999.000   0.075200   43.65069 
  4379.000   58.82140   4.763200   -64.9069   7.485000   13.36840   2.224300   -999.000   0.076500   44.27080 
  4379.500   58.62028   4.934900   -65.0174   7.800417   13.31440   2.251843   -999.000   0.061499   45.72084 
  4380.000   58.41910   5.106500   -65.1280   8.115700   13.26040   2.279400   -999.000   0.046500   47.17070 
  4380.500   58.38816   5.039479   -65.2287   7.900566   13.18837   2.316153   -999.000   -999.000   46.20824 
  4381.000   58.35720   4.972400   -65.3293   7.685500   13.11630   2.352900   -999.000   -999.000   45.24520 
  4381.500   60.09632   4.907223   -65.3938   7.597582   13.09830   2.375598   -999.000   -999.000   44.09340 
  4382.000   61.83620   4.842000   -65.4583   7.509700   13.08030   2.398300   -999.000   -999.000   42.94090 
  4382.500   60.73276   4.933493   -65.4498   7.713426   13.04425   2.397900   -999.000   -999.000   42.63868 
  4383.000   59.62870   5.025000   -65.4413   7.917200   13.00820   2.397500   -999.000   -999.000   42.33640 
  4383.500   59.75836   5.022550   -65.2976   7.961892   13.00820   2.386651   -999.000   -999.000   41.47409 
  4384.000   59.88810   5.020100   -65.1539   8.006600   13.00820   2.375800   -999.000   -999.000   40.61210 
  4384.500   61.44907   5.108645   -64.9546   8.289984   13.08023   2.392401   -999.000   -999.000   39.49294 
  4385.000   63.01060   5.197200   -64.7553   8.573200   13.15230   2.409000   -999.000   -999.000   38.37360 
  4385.500   60.83316   5.373344   -64.4710   9.037521   13.18829   2.412549   -999.000   -999.000   36.41606 
  4386.000   58.65540   5.549500   -64.1868   9.501800   13.22430   2.416100   -999.000   -.056400   34.45680 
  4386.500   55.53423   5.362500   -64.1841   9.205338   13.26036   2.378438   -999.000   0.017795   33.34929 
  4387.000   52.41460   5.175500   -64.1814   8.908800   13.29640   2.340800   -999.000   0.092000   32.24090 
  4387.500   52.61378   4.866556   -64.1224   8.329935   13.08024   2.309196   -999.000   0.087201   31.97519 
  4388.000   52.81290   4.557600   -64.0634   7.750600   12.86410   2.277600   -999.000   0.082400   31.70950 
  4388.500   54.60793   4.515510   -63.9482   7.709957   12.86410   2.252395   -999.000   0.081500   33.17289 
  4389.000   56.40340   4.473400   -63.8330   7.669300   12.86410   2.227200   -999.000   0.080600   34.63670 
  4389.500   54.38983   4.561954   -63.5400   7.841215   12.86410   2.236903   -999.000   0.068048   34.72205 
  4390.000   52.37580   4.650500   -63.2469   8.013100   12.86410   2.246600   -999.000   0.055500   34.80740 
  4390.500   50.67001   4.554670   -62.9691   7.846893   12.86410   2.255651   -999.000   0.065097   31.19295 
  4391.000   48.96410   4.458800   -62.6912   7.680700   12.86410   2.264700   -999.000   0.074700   27.57990 
  4391.500   47.39448   4.374219   -62.6558   7.578083   12.91814   2.271899   -999.000   0.096751   27.11518 
  4392.000   45.82560   4.289600   -62.6205   7.475500   12.97220   2.279100   -999.000   0.118800   26.65010 
  4392.500   45.64780   4.335435   -62.5163   7.624325   12.99020   2.293199   -999.000   0.110048   28.69364 
  4393.000   45.46990   4.381300   -62.4120   7.773100   13.00820   2.307300   -999.000   0.101300   30.73760 
  4393.500   46.37392   4.428742   -62.3661   7.857372   13.00820   2.291546   -999.000   0.100700   30.46305 
  4394.000   47.27830   4.476200   -62.3202   7.941600   13.00820   2.275800   -999.000   0.100100   30.18850 
  4394.500   47.37297   4.571130   -62.2598   8.154828   12.93615   2.257054   -999.000   0.104701   29.83699 
  4395.000   47.46770   4.666000   -62.1994   8.368100   12.86410   2.238300   -999.000   0.109300   29.48540 
  4395.500   46.50401   4.616749   -62.1936   8.285065   12.95414   2.236449   -999.000   0.094442   29.18462 
  4396.000   45.53990   4.567500   -62.1879   8.202000   13.04420   2.234600   -999.000   0.079600   28.88390 
  4396.500   46.47786   4.424049   -62.2834   7.964515   13.06225   2.237350   -999.000   0.067347   28.65357 
  4397.000   47.41570   4.280700   -62.3789   7.726900   13.08030   2.240100   -999.000   0.055100   28.42310 
  4397.500   47.12125   4.446390   -62.4418   8.129388   13.08030   2.226050   -999.000   0.055400   27.76511 
  4398.000   46.82660   4.612200   -62.5046   8.531700   13.08030   2.212000   -999.000   0.055700   27.10740 
  4398.500   43.93093   5.041672   -62.6172   9.445230   13.09830   2.222099   -999.000   0.041900   27.89435 
  4399.000   41.03370   5.471300   -62.7298   10.35870   13.11630   2.232200   -999.000   0.028100   28.68170 
  4399.500   41.04460   5.224424   -62.8016   9.728303   13.11630   2.227501   -999.000   0.025700   28.46871 
  4400.000   41.05550   4.977500   -62.8734   9.098200   13.11630   2.222800   -999.000   0.023300   28.25570 
  4400.500   41.71810   4.473865   -62.9510   8.096292   13.13430   2.175513   -999.000   0.065789   25.59543 
  4401.000   42.38050   3.969900   -63.0286   7.094600   13.15230   2.128200   -999.000   0.108300   22.93520 
  4401.500   41.31873   3.912842   -63.1339   7.038886   13.15230   2.141348   -999.000   0.099003   25.46059 
  4402.000   40.25620   3.855800   -63.2392   6.983200   13.15230   2.154500   -999.000   0.089700   27.98630 
