~VERSION INFORMATION
VERS.                               2.00: CWLS LOG ASCII STANDARD VERSION 2.00
WRAP.                               NO  : ONE LINE PER DEPTH STEP               
~WELL INFORMATION
#MNEM.UNIT                     DATA TYPE  INFORMATION
#----------------------------------------------------------------------
STRT.F                           3490.00: START DEPTH
STOP.F                          11462.00: STOP DEPTH
STEP.F                              0.50: STEP VALUE
NULL.                            -999.00: NULL VALUE
COMP.                                   : COMPANY                               
WELL.                    17586 #3LT1 ST2: WELL                                  
FLD .                            Unknown: FIELD                                 
LOC .                                   : LOCATION                              
CNTY.                                   : COUNTY                                
STAT.                                   : STATE                                 
CTRY.                                   : COUNTRY                               
SRVC.                                   : SERVICE COMPANY                       
DATE.                                   : LOG DATE                              
API .                   50733200040100  : UNIQUE WELL IDENTIFIER                
~PARAMETER INFORMATION                                                          
#MNEM.UNIT        VALUE   DESCRIPTION                                           
#---------      --------  -----------                                           
~OTHER INFORMATION                                                              
CSG0    .          9.625" @ 8192                                                
FLS0    .          FLOWLINE                                                     
LGD0    .          12/16/1993                                                   
MT0     .          XANVIS                                                       
~CURVE INFORMATION                                                              
#MNEM.UNIT                 DESCRIPTION                                          
#---------                 -----------                                          
DEPTH   .F               :  1 DEPTH
GR      .GAPI          00:  2 GAMMA RAY                                       
LLS     .OHMM          00:  3 SHALLOW LATEROLOG                               
SP      .MV            00:  4 SELF POTENTIAL                                  
LLD     .OHMM          00:  5 DEEP LATEROLOG                                  
CALI    .IN            00:  6 CALIPER                                         
RHOB    .G/C3          00:  7 BULK DENSITY                                    
MLL     .OHMM          00:  8 MICROLATEROLOG                                  
DRHO    .G/C3          00:  9 DENSITY CORRECTN                                
CNS     .%             00: 10 COMPENSATED NEUT (-S)                           
~A  DEPTH    GR         LLS        SP         LLD        CALI       RHOB       MLL        DRHO       CNS                                                                                                                                                      
# ...
  4950.000   46.50770   -999.000   -188.179   -999.000   13.58460   2.123700   2.718800   0.237200   46.05820 
  4950.500   45.31792   -999.000   -188.376   -999.000   13.58460   2.161549   2.653389   0.196310   45.51958 
  4951.000   44.12870   -999.000   -188.572   -999.000   13.58460   2.199400   2.588000   0.155400   44.98110 
  4951.500   43.19302   -999.000   -188.766   -999.000   13.60261   2.145873   2.615744   0.150151   43.69363 
  4952.000   42.25730   -999.000   -188.959   -999.000   13.62060   2.092400   2.643500   0.144900   42.40610 
  4952.500   43.03679   -999.000   -189.740   -999.000   13.60261   2.056790   2.695305   0.172238   42.37325 
  4953.000   43.81610   -999.000   -190.521   -999.000   13.58460   2.021200   2.747100   0.199600   42.34040 
  4953.500   43.34181   -999.000   -191.552   -999.000   13.58460   2.048504   2.645077   0.191798   42.44488 
  4954.000   42.86720   -999.000   -192.584   -999.000   13.58460   2.075800   2.543100   0.184000   42.54930 
  4954.500   40.12659   -999.000   -193.341   -999.000   13.58460   2.082903   2.546200   0.168649   42.46767 
  4955.000   37.38540   -999.000   -194.097   -999.000   13.58460   2.090000   2.549300   0.153300   42.38600 
  4955.500   36.14359   -999.000   -194.447   -999.000   13.58460   2.089900   2.519360   0.131251   39.47978 
  4956.000   34.90240   -999.000   -194.798   -999.000   13.58460   2.089800   2.489400   0.109200   36.57360 
  4956.500   34.02135   -999.000   -194.592   -999.000   13.58460   2.013640   2.435659   0.153936   33.30962 
  4957.000   33.14030   -999.000   -194.386   -999.000   13.58460   1.937500   2.381900   0.198700   30.04490 
  4957.500   33.14215   -999.000   -194.119   -999.000   13.58460   1.854800   2.547536   0.196300   30.68441 
  4958.000   33.14400   -999.000   -193.853   -999.000   13.58460   1.772100   2.713200   0.193900   31.32380 
  4958.500   33.05918   -999.000   -193.341   -999.000   13.58460   1.797656   2.579514   0.185552   33.16572 
  4959.000   32.97430   -999.000   -192.829   -999.000   13.58460   1.823200   2.445800   0.177200   35.00800 
  4959.500   33.43928   -999.000   -192.362   -999.000   13.58460   1.843250   2.481153   0.201005   35.29820 
  4960.000   33.90410   -999.000   -191.894   -999.000   13.58460   1.863300   2.516500   0.224800   35.58860 
  4960.500   37.74366   -999.000   -191.482   -999.000   13.58460   1.787577   2.407522   0.192592   37.26389 
  4961.000   41.58380   -999.000   -191.070   -999.000   13.58460   1.711900   2.298600   0.160400   38.93890 
  4961.500   40.05273   -999.000   -190.855   -999.000   13.58460   1.645856   2.360388   0.130713   37.53912 
  4962.000   38.52170   -999.000   -190.639   -999.000   13.58460   1.579800   2.422200   0.101000   36.13970 
  4962.500   36.33378   -999.000   -190.433   -999.000   13.58460   1.531797   2.367109   0.082253   35.02692 
  4963.000   34.14530   -999.000   -190.227   -999.000   13.58460   1.483800   2.312000   0.063500   33.91380 
  4963.500   34.62093   -999.000   -190.632   -999.000   13.58460   1.513065   2.439708   0.079107   33.58714 
  4964.000   35.09660   -999.000   -191.038   -999.000   13.58460   1.542300   2.567300   0.094700   33.26030 
  4964.500   35.82765   -999.000   -191.936   -999.000   13.58460   1.639502   2.553154   0.120941   35.92579 
  4965.000   36.55830   -999.000   -192.834   -999.000   13.58460   1.736700   2.539000   0.147200   38.59130 
  4965.500   34.99418   -999.000   -193.530   -999.000   13.58460   1.793853   2.521751   0.166646   37.91780 
  4966.000   33.43000   -999.000   -194.226   -999.000   13.58460   1.851000   2.504500   0.186100   37.24470 
  4966.500   32.10365   -999.000   -194.763   -999.000   13.58460   1.866807   2.442262   0.180551   36.16867 
  4967.000   30.77700   -999.000   -195.300   -999.000   13.58460   1.882600   2.380000   0.175000   35.09350 
  4967.500   37.18372   -999.000   -195.058   -999.000   13.58460   1.880451   2.390997   0.173049   34.59451 
  4968.000   43.59370   -999.000   -194.816   -999.000   13.58460   1.878300   2.402000   0.171100   34.09570 
  4968.500   44.05330   -999.000   -194.266   -999.000   13.58460   1.837689   2.356945   0.154099   33.83912 
  4969.000   44.51310   -999.000   -193.715   -999.000   13.58460   1.797100   2.311900   0.137100   33.58240 
  4969.500   39.89110   -999.000   -192.795   -999.000   13.58460   1.690693   2.261311   0.111450   33.92867 
  4970.000   35.26590   -999.000   -191.876   -999.000   13.58460   1.584300   2.210700   0.085800   34.27510 
  4970.500   34.86329   -999.000   -190.883   -999.000   13.58460   1.531525   2.199246   0.068995   37.45923 
  4971.000   34.46070   -999.000   -189.890   -999.000   13.58460   1.478800   2.187800   0.052200   40.64230 
  4971.500   35.06764   -999.000   -189.977   -999.000   13.58460   1.504403   2.201499   0.071257   41.45551 
  4972.000   35.67420   -999.000   -190.063   -999.000   13.58460   1.530000   2.215200   0.090300   42.26840 
  4972.500   35.82792   -999.000   -190.057   -999.000   13.58460   1.533100   2.159971   0.094151   43.61956 
  4973.000   35.98170   -999.000   -190.051   -999.000   13.58460   1.536200   2.104800   0.098000   44.96980 
  4973.500   36.05550   -999.000   -189.656   -999.000   13.58460   1.510188   2.227013   0.081405   44.99314 
  4974.000   36.12930   -999.000   -189.260   -999.000   13.58460   1.484200   2.349200   0.064800   45.01650 
  4974.500   35.79013   -999.000   -189.349   -999.000   13.54856   1.481500   2.267541   0.064950   48.73932 
  4975.000   35.45110   -999.000   -189.438   -999.000   13.51250   1.478800   2.185900   0.065100   52.46100 
  4975.500   38.10725   -999.000   -189.658   -999.000   13.45851   1.606766   2.167149   0.110998   51.04218 
  4976.000   40.76210   -999.000   -189.877   -999.000   13.40450   1.734800   2.148400   0.156900   49.62360 
  4976.500   40.10256   -999.000   -189.957   -999.000   13.47653   1.852759   1.597345   0.173352   44.90985 
  4977.000   39.44330   -999.000   -190.037   -999.000   13.54860   1.970600   1.046200   0.189800   40.19220 
  4977.500   37.96973   -999.000   -190.027   -999.000   13.45849   2.025272   1.030254   0.176895   35.70203 
  4978.000   36.49600   -999.000   -190.017   -999.000   13.36840   2.079900   1.014300   0.164000   31.20960 
  4978.500   39.34389   -999.000   -190.275   -999.000   13.40445   2.048752   1.014300   0.169799   29.71379 
  4979.000   42.19000   -999.000   -190.533   -999.000   13.44050   2.017600   1.014300   0.175600   28.21760 
  4979.500   41.77836   -999.000   -190.775   -999.000   13.51253   2.020150   1.013400   0.171101   28.29226 
  4980.000   41.36640   -999.000   -191.017   -999.000   13.58460   2.022700   1.012500   0.166600   28.36690 
  4980.500   41.13537   -999.000   -190.996   -999.000   13.56661   2.056302   1.012250   0.165150   27.72566 
  4981.000   40.90420   -999.000   -190.975   -999.000   13.54860   2.089900   1.012000   0.163700   27.08490 
  4981.500   41.22459   -999.000   -190.669   -999.000   13.54860   2.063349   1.009650   0.163250   27.77636 
  4982.000   41.54520   -999.000   -190.363   -999.000   13.54860   2.036800   1.007300   0.162800   28.46790 
  4982.500   39.07573   5.987007   -190.308   13.20297   13.54860   1.964234   -999.000   0.163650   29.79522 
  4983.000   36.60600   4.383000   -190.252   14.28560   13.54860   1.891700   -999.000   0.164500   31.12350 
  4983.500   33.90069   4.496792   -190.669   13.32308   13.54860   1.738982   -999.000   0.119608   34.71360 
  4984.000   31.19710   4.610500   -191.087   12.36090   13.54860   1.586300   -999.000   0.074700   38.30500 
  4984.500   30.71667   5.258427   -192.754   12.02441   13.54860   1.484839   -999.000   0.043502   39.03941 
  4985.000   30.23670   5.906300   -194.419   11.68800   13.54860   1.383400   -999.000   0.012300   39.77390 
  4985.500   32.16673   6.352875   -194.639   11.94472   13.54860   1.375704   -999.000   -999.000   48.70412 
  4986.000   34.09540   6.799700   -194.858   12.20150   13.54860   1.368000   -999.000   -999.000   57.63620 
