~VERSION INFORMATION
VERS.                               2.00: CWLS LOG ASCII STANDARD VERSION 2.00
WRAP.                               NO  : ONE LINE PER DEPTH STEP               
~WELL INFORMATION
#MNEM.UNIT                     DATA TYPE  INFORMATION
#----------------------------------------------------------------------
STRT.F                           3490.00: START DEPTH
STOP.F                          11462.00: STOP DEPTH
STEP.F                              0.50: STEP VALUE
NULL.                            -999.00: NULL VALUE
COMP.                                   : COMPANY                               
WELL.                    17586 #3LT1 ST2: WELL                                  
FLD .                            Unknown: FIELD                                 
LOC .                                   : LOCATION                              
CNTY.                                   : COUNTY                                
STAT.                                   : STATE                                 
CTRY.                                   : COUNTRY                               
SRVC.                                   : SERVICE COMPANY                       
DATE.                                   : LOG DATE                              
API .                   50733200040100  : UNIQUE WELL IDENTIFIER                
~PARAMETER INFORMATION                                                          
#MNEM.UNIT        VALUE   DESCRIPTION                                           
#---------      --------  -----------                                           
~OTHER INFORMATION                                                              
CSG0    .          9.625" @ 8192                                                
FLS0    .          FLOWLINE                                                     
LGD0    .          12/16/1993                                                   
MT0     .          XANVIS                                                       
~CURVE INFORMATION                                                              
#MNEM.UNIT                 DESCRIPTION                                          
#---------                 -----------                                          
DEPTH   .F               :  1 DEPTH
GR      .GAPI          00:  2 GAMMA RAY                                       
LLS     .OHMM          00:  3 SHALLOW LATEROLOG                               
SP      .MV            00:  4 SELF POTENTIAL                                  
LLD     .OHMM          00:  5 DEEP LATEROLOG                                  
CALI    .IN            00:  6 CALIPER                                         
RHOB    .G/C3          00:  7 BULK DENSITY                                    
MLL     .OHMM          00:  8 MICROLATEROLOG                                  
DRHO    .G/C3          00:  9 DENSITY CORRECTN                                
CNS     .%             00: 10 COMPENSATED NEUT (-S)                           
~A  DEPTH    GR         LLS        SP         LLD        CALI       RHOB       MLL        DRHO       CNS                                                                                                                                                      
  3490.000   30.94960   -999.000   -999.000   -999.000   -999.000   -999.000   -999.000   -999.000   -999.000 
  3490.500   30.28174   -999.000   -999.000   -999.000   -999.000   -999.000   -999.000   -999.000   -999.000 
  3491.000   29.61420   -999.000   -999.000   -999.000   -999.000   -999.000   -999.000   -999.000   -999.000 
  3491.500   30.48759   -999.000   -999.000   -999.000   -999.000   -999.000   -999.000   -999.000   -999.000 
  3492.000   31.36130   -999.000   -999.000   -999.000   -999.000   -999.000   -999.000   -999.000   -999.000 
  3492.500   31.60988   -999.000   -999.000   -999.000   -999.000   -999.000   -999.000   -999.000   -999.000 
  3493.000   31.85840   -999.000   -999.000   -999.000   -999.000   -999.000   -999.000   -999.000   -999.000 
  3493.500   31.88781   -999.000   -999.000   -999.000   -999.000   -999.000   -999.000   -999.000   -999.000 
  3494.000   31.91720   -999.000   -999.000   -999.000   -999.000   -999.000   -999.000   -999.000   -999.000 
  3494.500   31.86236   -999.000   -999.000   -999.000   -999.000   -999.000   -999.000   -999.000   -999.000 
  3495.000   31.80750   -999.000   -999.000   -999.000   -999.000   -999.000   -999.000   -999.000   -999.000 
  3495.500   32.12646   -999.000   -999.000   -999.000   -999.000   -999.000   -999.000   -999.000   -999.000 
  3496.000   32.44530   -999.000   -999.000   -999.000   -999.000   -999.000   -999.000   -999.000   -999.000 
  3496.500   31.35058   -999.000   -999.000   -999.000   -999.000   -999.000   -999.000   -999.000   -999.000 
  3497.000   30.25630   -999.000   -999.000   -999.000   -999.000   -999.000   -999.000   -999.000   -999.000 
  3497.500   31.43142   -999.000   -999.000   -999.000   -999.000   -999.000   -999.000   -999.000   -999.000 
  3498.000   32.60610   -999.000   -999.000   -999.000   -999.000   -999.000   -999.000   -999.000   -999.000 
  3498.500   32.94995   -999.000   -999.000   -999.000   -999.000   -999.000   -999.000   -999.000   -999.000 
  3499.000   33.29360   -999.000   -999.000   -999.000   -999.000   -999.000   -999.000   -999.000   -999.000 
  3499.500   32.69335   -999.000   -999.000   -999.000   -999.000   -999.000   -999.000   -999.000   -999.000 
  3500.000   32.09300   -999.000   -999.000   -999.000   12.43190   2.022700   -999.000   -.679500   88.83420 
  3500.500   32.22017   -999.000   -999.000   -999.000   12.43190   2.040897   -999.000   -.681550   87.73555 
  3501.000   32.34730   -999.000   -999.000   -999.000   12.43190   2.059100   -999.000   -.683600   86.63740 
  3501.500   33.24939   -999.000   -999.000   -999.000   12.43190   2.063099   -999.000   -.662043   88.01730 
  3502.000   34.15160   -999.000   -999.000   -999.000   12.43190   2.067100   -999.000   -.640500   89.39810 
  3502.500   32.53252   -999.000   -999.000   -999.000   12.50389   2.061650   -999.000   -.639850   89.15819 
  3503.000   30.91280   -999.000   -999.000   -999.000   12.57590   2.056200   -999.000   -.639200   88.91830 
  3503.500   30.80285   -999.000   -999.000   -999.000   12.55790   2.044347   -999.000   -.629102   91.65569 
  3504.000   30.69290   -999.000   -999.000   -999.000   12.53990   2.032500   -999.000   -.619000   94.39380 
  3504.500   31.49612   -999.000   -999.000   -999.000   12.59395   2.026201   -999.000   -.601897   93.58113 
  3505.000   32.29910   -999.000   -999.000   -999.000   12.64800   2.019900   -999.000   -.584800   92.76870 
  3505.500   31.72541   -999.000   -999.000   -999.000   12.64800   2.004403   -999.000   -.568052   91.64629 
  3506.000   31.15160   -999.000   -999.000   -999.000   12.64800   1.988900   -999.000   -.551300   90.52410 
  3506.500   29.47943   -999.000   -999.000   -999.000   12.68400   2.027687   -999.000   -.664193   91.64490 
  3507.000   27.80780   -999.000   -999.000   -999.000   12.72000   2.066500   -999.000   -.777100   92.76590 
  3507.500   27.85380   -999.000   -999.000   -999.000   13.02615   1.984047   -999.000   -.752247   90.20572 
  3508.000   27.89980   -999.000   -999.000   -999.000   13.33240   1.901600   -999.000   -.727400   87.64370 
  3508.500   30.67347   -999.000   -999.000   -999.000   13.36845   1.990151   -999.000   -.388010   82.24373 
  3509.000   33.44730   -999.000   -999.000   -999.000   13.40450   2.078700   -999.000   -.048600   76.84380 
  3509.500   36.50817   -999.000   -999.000   -999.000   13.38645   2.051906   -999.000   0.033156   65.78929 
  3510.000   39.57080   -999.000   -999.000   -999.000   13.36840   2.025100   -999.000   0.114900   54.72850 
  3510.500   38.83301   8.020138   -999.000   24.69089   13.56651   1.932751   -999.000   0.105703   54.49776 
  3511.000   38.09560   8.886000   -999.000   19.32140   13.76470   1.840400   -999.000   0.096500   54.26690 
  3511.500   38.08560   8.387121   -999.000   15.10919   13.76470   1.702794   -999.000   0.088351   56.00985 
  3512.000   38.07560   7.888200   -999.000   10.89620   13.76470   1.565200   -999.000   0.080200   57.75270 
  3512.500   39.27657   7.115297   -999.000   10.24811   13.78270   1.565850   -999.000   0.084399   58.13293 
  3513.000   40.47730   6.342000   -999.000   9.600000   13.80070   1.566500   -999.000   0.088600   58.51320 
  3513.500   42.33607   6.266140   -999.000   10.21118   13.78271   1.633657   -999.000   0.129089   54.13641 
  3514.000   44.19520   6.190300   -999.000   10.82230   13.76470   1.700800   -999.000   0.169600   49.75780 
  3514.500   44.33677   5.934044   -999.000   10.43649   13.76470   1.751345   -999.000   0.197799   43.30408 
  3515.000   44.47830   5.677800   -999.000   10.05070   13.76470   1.801900   -999.000   0.226000   36.84740 
  3515.500   43.77290   5.093332   -999.000   9.019005   13.76470   1.724998   -999.000   0.177544   35.94278 
  3516.000   43.06750   4.508900   -999.000   7.986900   13.76470   1.648100   -999.000   0.129100   35.03850 
  3516.500   42.71292   4.090328   -999.000   7.430568   13.76470   1.575639   -999.000   0.102950   43.31486 
  3517.000   42.35830   3.671800   -999.000   6.874300   13.76470   1.503200   -999.000   0.076800   51.59440 
  3517.500   42.60194   3.483603   -999.000   6.822287   13.76470   1.437406   -999.000   0.046045   57.05209 
  3518.000   42.84560   3.295400   -999.000   6.770300   13.76470   1.371600   -999.000   0.015300   62.50950 
  3518.500   42.59480   3.161109   -999.000   6.829897   13.76470   1.347645   -999.000   -999.000   68.04261 
  3519.000   42.34400   3.026800   -999.000   6.889500   13.76470   1.323700   -999.000   -999.000   73.57940 
  3519.500   41.70631   3.014800   -999.000   7.040395   13.76470   1.323950   -999.000   -999.000   79.58849 
  3520.000   41.06860   3.002800   -999.000   7.191400   13.76470   1.324200   -999.000   -999.000   85.59480 
  3520.500   40.33000   3.086523   10.14890   7.623298   13.78270   1.314603   -999.000   -999.000   89.82135 
  3521.000   39.59140   3.170200   13.07120   8.055000   13.80070   1.305000   -999.000   -999.000   94.04610 
  3521.500   39.13127   3.142603   15.28080   8.325827   13.80070   1.299498   -999.000   -999.000   91.40012 
  3522.000   38.67110   3.115000   17.49070   8.596600   13.80070   1.294000   -999.000   -999.000   88.75360 
  3522.500   38.64920   3.002724   19.73901   8.584696   13.80070   1.294250   -999.000   -999.000   90.75896 
  3523.000   38.62730   2.890400   21.98640   8.572800   13.80070   1.294500   -999.000   -999.000   92.76500 
  3523.500   39.62390   2.788411   24.60145   8.698503   13.78271   1.293850   -999.000   -999.000   93.71230 
  3524.000   40.62050   2.686400   27.21750   8.824200   13.76470   1.293200   -999.000   -999.000   94.65950 
  3524.500   37.30542   2.674303   29.63723   9.156914   13.76470   1.288499   -999.000   -999.000   90.56101 
  3525.000   33.99040   2.662200   32.05640   9.489400   13.76470   1.283800   -999.000   -.021900   86.46060 
  3525.500   33.57595   2.651697   33.65288   10.20250   13.80070   1.283050   -999.000   -.025201   84.20412 
  3526.000   33.16170   2.641200   35.25030   10.91530   13.83670   1.282300   -999.000   -.028500   81.94800 
