~VERSION INFORMATION
VERS.                               2.00: CWLS LOG ASCII STANDARD VERSION 2.00
WRAP.                               NO  : ONE LINE PER DEPTH STEP               
~WELL INFORMATION
#MNEM.UNIT                     DATA TYPE  INFORMATION
#----------------------------------------------------------------------
STRT.F                           3490.00: START DEPTH
STOP.F                          11462.00: STOP DEPTH
STEP.F                              0.50: STEP VALUE
NULL.                            -999.00: NULL VALUE
COMP.                                   : COMPANY                               
WELL.                    17586 #3LT1 ST2: WELL                                  
FLD .                            Unknown: FIELD                                 
LOC .                                   : LOCATION                              
CNTY.                                   : COUNTY                                
STAT.                                   : STATE                                 
CTRY.                                   : COUNTRY                               
SRVC.                                   : SERVICE COMPANY                       
DATE.                                   : LOG DATE                              
API .                   50733200040100  : UNIQUE WELL IDENTIFIER                
~PARAMETER INFORMATION                                                          
#MNEM.UNIT        VALUE   DESCRIPTION                                           
#---------      --------  -----------                                           
~OTHER INFORMATION                                                              
CSG0    .          9.625" @ 8192                                                
FLS0    .          FLOWLINE                                                     
LGD0    .          12/16/1993                                                   
MT0     .          XANVIS                                                       
~CURVE INFORMATION                                                              
#MNEM.UNIT                 DESCRIPTION                                          
#---------                 -----------                                          
DEPTH   .F               :  1 DEPTH
GR      .GAPI          00:  2 GAMMA RAY                                       
LLS     .OHMM          00:  3 SHALLOW LATEROLOG                               
SP      .MV            00:  4 SELF POTENTIAL                                  
LLD     .OHMM          00:  5 DEEP LATEROLOG                                  
CALI    .IN            00:  6 CALIPER                                         
RHOB    .G/C3          00:  7 BULK DENSITY                                    
MLL     .OHMM          00:  8 MICROLATEROLOG                                  
DRHO    .G/C3          00:  9 DENSITY CORRECTN                                
CNS     .%             00: 10 COMPENSATED NEUT (-S)                           
~A  DEPTH    GR         LLS        SP         LLD        CALI       RHOB       MLL        DRHO       CNS                                                                                                                                                      
# ...
 11082.000   88.56070   16.24120   14.07210   22.34590   9.217900   2.489500   2.370600   0.153400   27.46130 
 11082.500   81.10497   16.03239   14.07235   22.08326   9.207195   2.438807   4.796436   0.142653   29.01318 
 11083.000   73.64380   15.82320   14.07260   21.82080   9.196500   2.388200   7.220400   0.131900   30.56420 
 11083.500   72.72194   15.95432   13.90932   21.94946   9.174992   2.386651   8.228339   0.143608   31.62269 
 11084.000   71.79880   16.08550   13.74600   22.07820   9.153500   2.385100   9.237400   0.155300   32.68020 
 11084.500   70.79504   16.15584   13.81216   22.22295   9.140108   2.428223   6.608780   0.148205   32.18631 
 11085.000   69.79060   16.22620   13.87840   22.36790   9.126700   2.471300   3.981000   0.141100   31.69150 
 11085.500   67.64420   16.34446   14.01215   22.62047   9.219242   2.482343   7.997740   0.145049   31.12716 
 11086.000   65.49660   16.46250   14.14610   22.87280   9.311800   2.493400   12.02060   0.149000   30.56240 
 11086.500   65.80460   16.42139   14.25507   22.66281   9.315804   2.536566   12.67028   0.134663   29.79028 
 11087.000   66.11230   16.38030   14.36400   22.45280   9.319800   2.579700   13.32040   0.120300   29.01630 
 11087.500   65.83978   15.95254   14.45912   21.66347   9.296986   2.615915   14.03097   0.081602   29.24887 
 11088.000   65.56750   15.52390   14.55410   20.87500   9.274200   2.652100   14.74210   0.042900   29.48170 
 11088.500   67.52620   15.10990   14.37639   20.14721   9.280951   2.652250   14.85510   0.064397   29.39066 
 11089.000   69.48880   14.69570   14.19890   19.41930   9.287700   2.652400   14.96820   0.085900   29.29970 
 11089.500   69.97784   14.52222   13.97439   19.00019   9.299746   2.632844   14.76694   0.108903   30.16021 
 11090.000   70.46630   14.34870   13.74940   18.58170   9.311800   2.613300   14.56530   0.131900   31.01920 
 11090.500   68.20792   14.21838   13.63861   18.24789   9.311800   2.559673   11.81752   0.181815   31.72176 
 11091.000   65.95220   14.08800   13.52780   17.91390   9.311800   2.506000   9.071800   0.231700   32.42370 
 11091.500   65.89252   13.76613   13.27911   17.36558   9.313148   2.482974   7.879697   0.210103   32.15124 
 11092.000   65.83280   13.44470   13.03030   16.81730   9.314500   2.460000   6.689000   0.188500   31.87840 
 11092.500   67.94202   13.17562   12.71292   16.42758   9.318502   2.475803   7.301913   0.156427   32.06161 
 11093.000   70.04770   12.90700   12.39550   16.03780   9.322500   2.491600   7.914400   0.124400   32.24460 
 11093.500   73.67516   13.70563   11.97894   17.14852   9.301037   2.504143   13.60006   0.150370   31.49032 
 11094.000   77.30180   14.50310   11.56310   18.25900   9.279600   2.516700   19.28430   0.176300   30.73730 
 11094.500   79.66980   17.99242   11.34337   22.95984   9.311787   2.556803   21.42645   0.150594   28.71394 
 11095.000   82.04110   21.47470   11.12360   27.65650   9.344000   2.596900   23.57170   0.124900   26.68770 
 11095.500   86.20180   25.36663   10.58867   32.96237   9.286262   2.619836   24.62087   0.094323   25.56843 
 11096.000   90.36260   29.26110   10.05410   38.27390   9.228600   2.642800   25.66880   0.063800   24.44870 
 11096.500   86.39412   33.43422   9.714052   44.78286   9.227300   2.618865   27.67756   0.067799   23.03379 
 11097.000   82.43320   37.60690   9.373700   51.28140   9.226000   2.594900   29.68550   0.071800   21.61860 
 11097.500   70.32849   51.35593   8.632854   70.95336   9.180385   2.573539   27.94415   0.082355   19.07975 
 11098.000   58.19610   65.11060   7.890800   90.64380   9.134800   2.552200   26.20350   0.092900   16.53860 
 11098.500   56.02206   78.28242   7.176974   103.8986   9.157587   2.546602   26.83428   0.103307   14.74621 
 11099.000   53.85120   91.42560   6.464100   117.1277   9.180400   2.541000   27.46490   0.113700   12.95530 
 11099.500   57.22586   73.70451   5.810164   93.28400   9.150876   2.517782   27.63134   0.105852   13.53949 
 11100.000   60.60510   55.98790   5.156500   69.44740   9.121400   2.494600   27.79780   0.098000   14.12310 
 11100.500   66.60229   46.07932   4.780934   57.16196   9.150922   2.463201   22.01335   0.092597   16.63418 
 11101.000   72.58930   36.15640   4.405400   44.88470   9.180400   2.431800   16.22240   0.087200   19.14850 
 11101.500   73.46645   35.01829   4.319284   43.13502   9.158892   2.458067   17.21159   0.066586   20.27223 
 11102.000   74.34540   33.87970   4.233100   41.38250   9.137400   2.484300   18.19980   0.046000   21.39620 
 11102.500   77.45244   34.59080   4.745283   41.74944   9.149490   2.505790   20.43519   0.054594   21.70070 
 11103.000   80.55370   35.30200   5.256600   42.11660   9.161600   2.527300   22.66940   0.063200   22.00540 
 11103.500   80.74904   35.85922   5.905082   42.09761   9.160252   2.524649   26.18747   0.056299   22.18905 
 11104.000   80.94430   36.41680   6.553400   42.07860   9.158900   2.522000   29.70340   0.049400   22.37290 
 11104.500   73.26838   36.23487   7.482065   41.26579   9.162947   2.497568   23.46197   0.045353   21.52059 
 11105.000   65.58750   36.05280   8.412000   40.45490   9.167000   2.473100   17.23550   0.041300   20.66640 
 11105.500   69.51349   34.54948   9.096060   38.41031   9.180398   2.461535   17.41389   0.050744   20.02714 
 11106.000   73.43910   33.04290   9.780300   36.36630   9.193800   2.450000   17.59220   0.060200   19.38880 
 11106.500   84.26668   30.85903   10.03542   33.78036   9.188393   2.433992   22.38689   0.052102   20.46866 
 11107.000   95.10700   28.67450   10.29100   31.19490   9.183000   2.418000   27.18270   0.044000   21.54670 
 11107.500   100.4014   27.63388   10.53355   29.93460   9.177656   2.380656   17.37496   0.064890   24.85652 
 11108.000   105.6915   26.59220   10.77640   28.67590   9.172300   2.343300   7.573000   0.085800   28.16750 
 11108.500   103.5586   27.33436   10.77405   29.10717   9.157564   2.369429   14.39522   0.088901   29.49663 
 11109.000   101.4263   28.07720   10.77170   29.53880   9.142800   2.395600   21.21470   0.092000   30.82460 
 11109.500   100.6257   29.52332   10.71907   30.71419   9.154886   2.447997   22.02895   0.064478   30.99909 
 11110.000   99.82530   30.97110   10.66650   31.89000   9.167000   2.500500   22.84280   0.037000   31.17370 
 11110.500   98.85021   32.03456   10.59832   33.39051   9.180396   2.486401   25.44142   0.040951   30.84808 
 11111.000   97.87430   33.09800   10.53010   34.89280   9.193800   2.472300   28.04020   0.044900   30.52270 
 11111.500   98.30441   32.71279   10.60390   36.98200   9.193800   2.409190   29.21010   0.060309   31.78278 
 11112.000   98.73520   32.32660   10.67760   39.06820   9.193800   2.346100   30.37910   0.075700   33.04140 
 11112.500   87.35777   33.50435   10.90609   46.42111   9.188395   2.150203   17.20351   0.011132   37.96574 
 11113.000   75.99150   34.68070   11.13430   53.77040   9.183000   1.954200   4.002100   -.053500   42.88530 
 11113.500   56.97007   48.96786   11.31915   95.31676   9.162907   1.740168   2.910101   -.098341   52.25294 
 11114.000   37.95570   63.23970   11.50390   136.9177   9.142800   1.526200   1.816500   -.143200   61.62560 
 11114.500   33.37453   111.6371   11.42694   304.9577   9.244825   1.476455   1.526064   -.153450   68.95434 
 11115.000   28.79300   159.9637   11.35010   472.9253   9.346700   1.426700   1.235800   -.163700   76.27800 
 11115.500   29.32723   154.3124   10.79847   470.2233   9.339994   1.443798   1.447916   -.136154   78.47495 
 11116.000   29.86170   148.6573   10.24750   467.5190   9.333300   1.460900   1.660500   -.108600   80.67490 
 11116.500   31.82866   120.1642   9.896654   393.6891   9.289024   1.487224   1.384574   -.100506   79.85397 
 11117.000   33.79370   91.72060   9.545500   319.7603   9.244700   1.513500   1.108900   -.092400   79.03390 
 11117.500   38.76546   80.12498   9.097005   250.1244   9.075860   1.535063   1.380896   -.093150   79.46866 
 11118.000   43.74240   68.54360   8.648800   180.5965   8.906800   1.556600   1.653000   -.093900   79.90410 
