~VERSION INFORMATION
VERS.                               2.00: CWLS LOG ASCII STANDARD VERSION 2.00
WRAP.                               NO  : ONE LINE PER DEPTH STEP               
~WELL INFORMATION
#MNEM.UNIT                     DATA TYPE  INFORMATION
#----------------------------------------------------------------------
STRT.F                           3490.00: START DEPTH
STOP.F                          11462.00: STOP DEPTH
STEP.F                              0.50: STEP VALUE
NULL.                            -999.00: NULL VALUE
COMP.                                   : COMPANY                               
WELL.                    17586 #3LT1 ST2: WELL                                  
FLD .                            Unknown: FIELD                                 
LOC .                                   : LOCATION                              
CNTY.                                   : COUNTY                                
STAT.                                   : STATE                                 
CTRY.                                   : COUNTRY                               
SRVC.                                   : SERVICE COMPANY                       
DATE.                                   : LOG DATE                              
API .                   50733200040100  : UNIQUE WELL IDENTIFIER                
~PARAMETER INFORMATION                                                          
#MNEM.UNIT        VALUE   DESCRIPTION                                           
#---------      --------  -----------                                           
~OTHER INFORMATION                                                              
CSG0    .          9.625" @ 8192                                                
FLS0    .          FLOWLINE                                                     
LGD0    .          12/16/1993                                                   
MT0     .          XANVIS                                                       
~CURVE INFORMATION                                                              
#MNEM.UNIT                 DESCRIPTION                                          
#---------                 -----------                                          
DEPTH   .F               :  1 DEPTH
GR      .GAPI          00:  2 GAMMA RAY                                       
LLS     .OHMM          00:  3 SHALLOW LATEROLOG                               
SP      .MV            00:  4 SELF POTENTIAL                                  
LLD     .OHMM          00:  5 DEEP LATEROLOG                                  
CALI    .IN            00:  6 CALIPER                                         
RHOB    .G/C3          00:  7 BULK DENSITY                                    
MLL     .OHMM          00:  8 MICROLATEROLOG                                  
DRHO    .G/C3          00:  9 DENSITY CORRECTN                                
CNS     .%             00: 10 COMPENSATED NEUT (-S)                           
~A  DEPTH    GR         LLS        SP         LLD        CALI       RHOB       MLL        DRHO       CNS                                                                                                                                                      
# ...
  4074.000   56.01240   6.344000   -32.8694   10.38010   13.58460   2.269600   -999.000   0.010000   32.15540 
  4074.500   55.67172   5.803034   -32.9438   9.494577   13.65663   2.270800   -999.000   0.018298   34.18254 
  4075.000   55.33120   5.262000   -33.0182   8.608800   13.72870   2.272000   -999.000   0.026600   36.21150 
  4075.500   55.23923   5.232749   -33.1964   8.512007   13.72870   2.341094   -999.000   0.020349   36.03095 
  4076.000   55.14730   5.203500   -33.3747   8.415200   13.72870   2.410200   -999.000   0.014100   35.85040 
  4076.500   56.15110   5.465335   -33.6288   8.883787   13.72870   2.436557   -999.000   -999.000   34.91621 
  4077.000   57.15470   5.727100   -33.8829   9.352300   13.72870   2.462900   -999.000   -999.000   33.98230 
  4077.500   59.32327   5.891294   -34.1272   9.736702   13.72870   2.453597   -999.000   -999.000   33.03366 
  4078.000   61.49280   6.055400   -34.3715   10.12090   13.72870   2.444300   -999.000   0.020800   32.08500 
  4078.500   61.87250   6.086196   -34.5391   10.33528   13.72870   2.424050   -999.000   -999.000   31.67433 
  4079.000   62.25200   6.117000   -34.7065   10.54960   13.72870   2.403800   -999.000   -999.000   31.26350 
  4079.500   62.14332   6.002622   -34.9562   10.46120   13.72870   2.398500   -999.000   -999.000   30.24641 
  4080.000   62.03470   5.888200   -35.2060   10.37280   13.72870   2.393200   -999.000   0.012300   29.23010 
  4080.500   61.82372   5.765034   -35.6125   10.21503   13.72870   2.405296   -999.000   0.012300   29.25905 
  4081.000   61.61280   5.641900   -36.0191   10.05720   13.72870   2.417400   -999.000   0.012300   29.28800 
  4081.500   62.54261   5.573669   -36.3037   10.01565   13.72870   2.424499   -999.000   0.012250   29.77140 
  4082.000   63.47210   5.505400   -36.5883   9.974100   13.72870   2.431600   -999.000   0.012200   30.25460 
  4082.500   64.35287   5.519851   -36.3698   10.12642   13.72870   2.423051   -999.000   -999.000   30.12238 
  4083.000   65.23390   5.534300   -36.1513   10.27880   13.72870   2.414500   -999.000   -999.000   29.99010 
  4083.500   68.27292   5.578063   -36.2522   10.49293   13.72870   2.398693   -999.000   -999.000   29.21717 
  4084.000   71.31160   5.621800   -36.3531   10.70710   13.72870   2.382900   -999.000   0.011000   28.44390 
  4084.500   72.62253   5.705975   -36.1600   10.95587   13.74670   2.372247   -999.000   0.011100   27.85632 
  4085.000   73.93410   5.790200   -35.9670   11.20460   13.76470   2.361600   -999.000   0.011200   27.26830 
  4085.500   68.82536   5.927737   -36.1065   11.58847   13.76470   2.360400   -999.000   0.012900   26.77633 
  4086.000   63.71710   6.065300   -36.2461   11.97210   13.76470   2.359200   -999.000   0.014600   26.28430 
  4086.500   57.96555   6.138497   -36.0649   12.29245   13.76470   2.353099   -999.000   0.017401   26.58099 
  4087.000   52.21250   6.211700   -35.8839   12.61260   13.76470   2.347000   -999.000   0.020200   26.87780 
  4087.500   51.73829   6.169186   -35.6422   12.57174   13.76470   2.338297   -999.000   0.021250   26.89585 
  4088.000   51.26400   6.126700   -35.4006   12.53090   13.76470   2.329600   -999.000   0.022300   26.91390 
  4088.500   49.70193   6.116951   -35.1060   12.54090   13.74670   2.319799   -999.000   0.025350   26.46945 
  4089.000   48.14020   6.107200   -34.8115   12.55090   13.72870   2.310000   -999.000   0.028400   26.02520 
  4089.500   47.51582   6.184722   -34.7753   12.73679   13.72870   2.301050   -999.000   0.029350   25.94361 
  4090.000   46.89190   6.262300   -34.7391   12.92260   13.72870   2.292100   -999.000   0.030300   25.86200 
  4090.500   47.31934   6.270099   -34.7165   12.94260   13.72870   2.284452   -999.000   0.034748   26.46008 
  4091.000   47.74670   6.277900   -34.6940   12.96260   13.72870   2.276800   -999.000   0.039200   27.05800 
  4091.500   48.36572   6.167414   -34.7184   12.71183   13.74671   2.279400   -999.000   0.035050   26.29599 
  4092.000   48.98520   6.056900   -34.7427   12.46110   13.76470   2.282000   -999.000   0.030900   25.53400 
  4092.500   49.29900   5.968905   -34.9739   12.25385   13.74670   2.288550   -999.000   0.025198   25.16149 
  4093.000   49.61280   5.880900   -35.2052   12.04660   13.72870   2.295100   -999.000   0.019500   24.78920 
  4093.500   50.01183   5.854298   -35.2722   12.02305   13.72870   2.286602   -999.000   0.024349   24.38523 
  4094.000   50.41090   5.827700   -35.3393   11.99950   13.72870   2.278100   -999.000   0.029200   23.98120 
  4094.500   51.56406   5.891680   -34.9432   12.13211   13.67466   2.275900   -999.000   0.023300   23.25251 
  4095.000   52.71650   5.955700   -34.5471   12.26470   13.62060   2.273700   -999.000   0.017400   22.52380 
  4095.500   52.19967   6.072925   -33.8757   12.36747   13.44048   2.284798   -999.000   0.017900   22.65255 
  4096.000   51.68240   6.190100   -33.2040   12.47020   13.26040   2.295900   -999.000   0.018400   22.78120 
  4096.500   49.43284   6.281775   -33.0098   12.56336   13.27841   2.302598   -999.000   0.028902   22.51760 
  4097.000   47.18480   6.373400   -32.8156   12.65650   13.29640   2.309300   -999.000   0.039400   22.25390 
  4097.500   47.60693   6.512225   -32.6742   12.94857   13.29640   2.314649   -999.000   0.036600   21.82439 
  4098.000   48.02920   6.651000   -32.5329   13.24070   13.29640   2.320000   -999.000   0.033800   21.39480 
  4098.500   48.71487   6.788579   -32.4226   13.49737   13.29640   2.329351   -999.000   0.027601   21.48963 
  4099.000   49.40050   6.926100   -32.3124   13.75410   13.29640   2.338700   -999.000   0.021400   21.58450 
  4099.500   46.16147   6.984186   -32.1506   13.70989   13.17028   2.335701   -999.000   0.018801   21.75328 
  4100.000   42.92320   7.042300   -31.9888   13.66570   13.04420   2.332700   -999.000   0.016200   21.92200 
  4100.500   42.70930   7.012949   -31.9335   13.44870   13.04420   2.331800   -999.000   -999.000   22.41443 
  4101.000   42.49540   6.983600   -31.8781   13.23180   13.04420   2.330900   -999.000   -999.000   22.90700 
  4101.500   41.22785   6.990348   -31.8687   13.17959   13.06225   2.329801   -999.000   -999.000   23.22988 
  4102.000   39.96030   6.997100   -31.8593   13.12740   13.08030   2.328700   -999.000   0.015000   23.55280 
  4102.500   38.43636   7.077030   -31.8088   13.35556   13.06225   2.330250   -999.000   0.012950   23.92759 
  4103.000   36.91160   7.156900   -31.7582   13.58360   13.04420   2.331800   -999.000   0.010900   24.30240 
  4103.500   36.99543   7.364316   -31.6589   14.19940   13.04420   2.329101   -999.000   0.014999   25.44284 
  4104.000   37.07930   7.571800   -31.5595   14.81520   13.04420   2.326400   -999.000   0.019100   26.58280 
  4104.500   38.04195   7.664073   -31.5977   15.02957   13.06225   2.325950   -999.000   0.016451   25.23912 
  4105.000   39.00450   7.756300   -31.6359   15.24400   13.08030   2.325500   -999.000   0.013800   23.89540 
  4105.500   39.96289   7.630130   -31.4596   14.79177   13.08030   2.319701   -999.000   -999.000   23.49561 
  4106.000   40.92170   7.504000   -31.2831   14.33950   13.08030   2.313900   -999.000   -999.000   23.09580 
  4106.500   39.85552   7.427651   -31.2857   14.07364   13.02624   2.310750   -999.000   -999.000   23.57171 
  4107.000   38.78880   7.351300   -31.2883   13.80780   12.97220   2.307600   -999.000   0.015500   24.04750 
  4107.500   38.42449   7.390240   -30.9113   13.84615   13.02626   2.309050   -999.000   0.017700   24.28950 
  4108.000   38.06030   7.429200   -30.5343   13.88450   13.08030   2.310500   -999.000   0.019900   24.53150 
  4108.500   38.67513   7.484311   -30.4460   13.88550   13.06225   2.311800   -999.000   0.021200   24.29652 
  4109.000   39.28970   7.539400   -30.3576   13.88650   13.04420   2.313100   -999.000   0.022500   24.06150 
  4109.500   37.53636   7.589947   -30.1756   13.92689   13.09826   2.316101   -999.000   0.019199   23.47702 
  4110.000   35.78270   7.640500   -29.9935   13.96730   13.15230   2.319100   -999.000   0.015900   22.89230 
