~VERSION INFORMATION
VERS.                               2.00: CWLS LOG ASCII STANDARD VERSION 2.00
WRAP.                               NO  : ONE LINE PER DEPTH STEP               
~WELL INFORMATION
#MNEM.UNIT                     DATA TYPE  INFORMATION
#----------------------------------------------------------------------
STRT.F                           3490.00: START DEPTH
STOP.F                          11462.00: STOP DEPTH
STEP.F                              0.50: STEP VALUE
NULL.                            -999.00: NULL VALUE
COMP.                                   : COMPANY                               
WELL.                    17586 #3LT1 ST2: WELL                                  
FLD .                            Unknown: FIELD                                 
LOC .                                   : LOCATION                              
CNTY.                                   : COUNTY                                
STAT.                                   : STATE                                 
CTRY.                                   : COUNTRY                               
SRVC.                                   : SERVICE COMPANY                       
DATE.                                   : LOG DATE                              
API .                   50733200040100  : UNIQUE WELL IDENTIFIER                
~PARAMETER INFORMATION                                                          
#MNEM.UNIT        VALUE   DESCRIPTION                                           
#---------      --------  -----------                                           
~OTHER INFORMATION                                                              
CSG0    .          9.625" @ 8192                                                
FLS0    .          FLOWLINE                                                     
LGD0    .          12/16/1993                                                   
MT0     .          XANVIS                                                       
~CURVE INFORMATION                                                              
#MNEM.UNIT                 DESCRIPTION                                          
#---------                 -----------                                          
DEPTH   .F               :  1 DEPTH
GR      .GAPI          00:  2 GAMMA RAY                                       
LLS     .OHMM          00:  3 SHALLOW LATEROLOG                               
SP      .MV            00:  4 SELF POTENTIAL                                  
LLD     .OHMM          00:  5 DEEP LATEROLOG                                  
CALI    .IN            00:  6 CALIPER                                         
RHOB    .G/C3          00:  7 BULK DENSITY                                    
MLL     .OHMM          00:  8 MICROLATEROLOG                                  
DRHO    .G/C3          00:  9 DENSITY CORRECTN                                
CNS     .%             00: 10 COMPENSATED NEUT (-S)                           
~A  DEPTH    GR         LLS        SP         LLD        CALI       RHOB       MLL        DRHO       CNS                                                                                                                                                      
# ...
  8636.500   90.94025   16.39255   39.75245   36.80264   13.06660   2.323350   2.273511   -.001687   38.21546 
  8637.000   87.79670   19.50500   40.22670   36.17020   13.08460   2.331400   3.663000   -.027300   37.61790 
  8637.500   81.19775   21.06135   40.74139   38.30185   13.08460   2.410414   4.472800   0.004954   32.29230 
  8638.000   74.59260   22.61630   41.25680   40.43120   13.08460   2.489500   5.281900   0.037200   26.96050 
  8638.500   68.87237   25.77954   41.93630   49.78192   13.08460   2.572442   42.84570   0.032750   23.24044 
  8639.000   63.15490   28.94150   42.61600   59.14120   13.08460   2.655500   80.37240   0.028300   19.52270 
  8639.500   63.00087   31.34525   42.87384   63.37769   13.08460   2.660553   57.71674   -999.000   17.64043 
  8640.000   62.84700   33.74930   43.13150   67.60800   13.08460   2.665600   35.04830   -999.000   15.75710 
  8640.500   65.53545   31.45406   43.19207   60.14713   13.08460   2.663900   34.45133   -999.000   16.57776 
  8641.000   68.22550   29.16230   43.25270   52.68790   13.08460   2.662200   33.85380   -999.000   17.39760 
  8641.500   73.75540   27.11697   43.40935   47.77731   13.10261   2.665650   29.88739   -999.000   19.14030 
  8642.000   79.27760   25.07060   43.56580   42.87440   13.12060   2.669100   25.92090   -999.000   20.88420 
  8642.500   79.86385   22.98922   44.11074   38.57552   13.10260   2.648355   24.27439   -999.000   21.88574 
  8643.000   80.44990   20.91170   44.65570   34.27990   13.08460   2.627600   22.62890   -999.000   22.88620 
  8643.500   82.04384   17.16014   45.21433   26.84609   13.08460   2.559390   13.76882   -999.000   25.24535 
  8644.000   83.63890   13.40990   45.77330   19.40930   13.08460   2.491100   4.905900   0.147000   27.60840 
  8644.500   77.76915   11.36057   46.16632   15.79954   13.08460   2.504906   3.491441   0.164735   29.37191 
  8645.000   71.90650   9.313200   46.55950   12.18870   13.08460   2.518700   2.075900   0.182500   31.13560 
  8645.500   64.60384   9.525051   46.81395   12.74181   13.08460   2.623519   1.741404   0.130988   29.33636 
  8646.000   57.30380   9.736700   47.06820   13.29400   13.08460   2.728300   1.406700   0.079500   27.53620 
  8646.500   56.21924   11.31438   47.11500   16.53447   13.08460   2.704988   7.800220   0.057403   25.34524 
  8647.000   55.13290   12.89200   47.16180   19.77240   13.08460   2.681700   14.19100   0.035300   23.15450 
  8647.500   58.90972   12.98074   46.93299   20.01765   13.10261   2.650228   10.31917   0.043856   23.75626 
  8648.000   62.68870   13.06960   46.70420   20.26310   13.12060   2.618800   6.452000   0.052400   24.35810 
  8648.500   65.31480   12.61310   46.56296   19.89591   13.12060   2.620149   8.810598   0.048401   25.11147 
  8649.000   67.94130   12.15650   46.42180   19.52870   13.12060   2.621500   11.16610   0.044400   25.86570 
  8649.500   67.23824   12.23875   46.33790   19.64966   13.10259   2.625698   12.46684   0.029261   26.38910 
  8650.000   66.53530   12.32110   46.25410   19.77040   13.08460   2.629900   13.76750   0.014100   26.91280 
  8650.500   65.93866   12.40885   46.40034   20.05958   13.08460   2.635852   13.44669   -999.000   26.86618 
  8651.000   65.34280   12.49660   46.54660   20.34920   13.08460   2.641800   13.12600   -999.000   26.81960 
  8651.500   66.11075   12.48955   46.56690   20.40423   13.10259   2.643000   13.07683   -999.000   26.79200 
  8652.000   66.87930   12.48250   46.58720   20.45920   13.12060   2.644200   13.02770   0.017200   26.76440 
  8652.500   67.50085   12.09083   46.54342   19.83108   13.10259   2.631056   14.30959   -999.000   26.80628 
  8653.000   68.12320   11.69960   46.49960   19.20260   13.08460   2.617900   15.59240   -999.000   26.84820 
  8653.500   67.39935   10.72002   46.54694   17.55709   13.08460   2.556161   11.23894   -999.000   27.65619 
  8654.000   66.67640   9.740900   46.59430   15.91320   13.08460   2.494500   6.881700   -.029400   28.46390 
  8654.500   64.53400   9.372921   46.44741   15.41186   13.08460   2.463365   5.596591   0.020337   31.66077 
  8655.000   62.39470   9.004900   46.30050   14.91070   13.08460   2.432200   4.312800   0.070100   34.85690 
  8655.500   66.82439   9.186371   46.21700   15.20344   13.08460   2.465075   5.709446   0.072350   34.96120 
  8656.000   71.24690   9.367600   46.13360   15.49650   13.08460   2.498000   7.106600   0.074600   35.06560 
  8656.500   79.33380   9.573561   46.05610   15.89228   13.10259   2.538163   5.301171   0.085096   33.08603 
  8657.000   87.41060   9.779400   45.97870   16.28820   13.12060   2.578300   3.496700   0.095600   31.10680 
  8657.500   90.62527   9.811452   45.80118   16.50490   13.10259   2.601893   6.752902   0.088500   29.90447 
  8658.000   93.83860   9.843500   45.62370   16.72160   13.08460   2.625500   10.00780   0.081400   28.70040 
  8658.500   92.50595   9.994138   45.44823   17.17667   13.10260   2.628200   7.125717   0.110308   28.51516 
  8659.000   91.17140   10.14500   45.27260   17.63150   13.12060   2.630900   4.241800   0.139200   28.32990 
  8659.500   84.64549   10.68417   45.11050   19.00649   13.10261   2.680772   4.486718   0.139100   27.57649 
  8660.000   78.12170   11.22410   44.94830   20.38120   13.08460   2.730600   4.731400   0.139000   26.82320 
  8660.500   81.36484   10.93669   44.86420   19.46280   13.08460   2.763917   3.414158   -999.000   26.53722 
  8661.000   84.60460   10.64880   44.78010   18.54430   13.08460   2.797200   2.098400   -999.000   26.25110 
  8661.500   87.95646   10.12658   44.86591   17.22023   13.10260   2.734994   3.794339   -999.000   27.89518 
  8662.000   91.30820   9.605300   44.95160   15.89500   13.12060   2.672800   5.490900   0.054800   29.53870 
  8662.500   87.33220   9.342442   44.98584   15.17357   13.10261   2.649637   5.785990   0.131059   30.58187 
  8663.000   83.35940   9.079800   45.02010   14.45180   13.08460   2.626500   6.080900   0.207400   31.62450 
  8663.500   78.52521   8.864236   44.99184   13.85559   13.08460   2.634852   5.750525   0.165335   32.36459 
  8664.000   73.69240   8.648600   44.96360   13.25880   13.08460   2.643200   5.419700   0.123300   33.10460 
  8664.500   69.16884   8.720360   44.98599   13.33207   13.08460   2.621446   4.208014   0.138764   33.09970 
  8665.000   64.64580   8.792200   45.00840   13.40540   13.08460   2.599700   2.998100   0.154200   33.09480 
  8665.500   65.18320   8.735971   45.02635   13.41340   13.08460   2.589353   5.733080   0.148300   32.33765 
  8666.000   65.72000   8.679800   45.04430   13.42140   13.08460   2.579000   8.471500   0.142400   31.58060 
  8666.500   66.90905   8.952028   45.13464   14.37074   13.06659   2.568594   6.117349   0.116656   32.04421 
  8667.000   68.09920   9.224100   45.22490   15.32180   13.04860   2.558200   3.763000   0.090900   32.50760 
  8667.500   70.02858   10.40611   45.47353   18.09214   13.03055   2.497012   4.025517   0.088101   34.19243 
  8668.000   71.95640   11.58780   45.72240   20.86270   13.01250   2.435800   4.288200   0.085300   35.87540 
  8668.500   79.33640   12.93075   45.95522   22.56437   13.01250   2.430899   7.056367   0.095553   35.67056 
  8669.000   86.71750   14.27190   46.18790   24.26510   13.01250   2.426000   9.825200   0.105800   35.46590 
  8669.500   91.18134   14.73646   46.22858   24.11484   13.03054   2.525882   12.45186   -999.000   32.00197 
  8670.000   95.64340   15.20140   46.26920   23.96460   13.04860   2.625700   15.08220   -999.000   28.53440 
  8670.500   95.29697   15.28928   46.38754   24.01603   13.04860   2.658825   14.53274   -999.000   27.72723 
  8671.000   94.95080   15.37720   46.50580   24.06740   13.04860   2.691900   13.98310   0.013200   26.91970 
  8671.500   94.47278   15.14791   46.66328   23.76526   13.06660   2.678254   14.13587   -999.000   26.93146 
  8672.000   93.99400   14.91860   46.82060   23.46340   13.08460   2.664600   14.28870   -999.000   26.94320 
  8672.500   97.25989   13.97536   47.02061   21.74455   13.06660   2.626120   15.77592   -999.000   27.53067 
