~VERSION INFORMATION
VERS.                               2.00: CWLS LOG ASCII STANDARD VERSION 2.00
WRAP.                               NO  : ONE LINE PER DEPTH STEP               
~WELL INFORMATION
#MNEM.UNIT                     DATA TYPE  INFORMATION
#----------------------------------------------------------------------
STRT.F                           3490.00: START DEPTH
STOP.F                          11462.00: STOP DEPTH
STEP.F                              0.50: STEP VALUE
NULL.                            -999.00: NULL VALUE
COMP.                                   : COMPANY                               
WELL.                    17586 #3LT1 ST2: WELL                                  
FLD .                            Unknown: FIELD                                 
LOC .                                   : LOCATION                              
CNTY.                                   : COUNTY                                
STAT.                                   : STATE                                 
CTRY.                                   : COUNTRY                               
SRVC.                                   : SERVICE COMPANY                       
DATE.                                   : LOG DATE                              
API .                   50733200040100  : UNIQUE WELL IDENTIFIER                
~PARAMETER INFORMATION                                                          
#MNEM.UNIT        VALUE   DESCRIPTION                                           
#---------      --------  -----------                                           
~OTHER INFORMATION                                                              
CSG0    .          9.625" @ 8192                                                
FLS0    .          FLOWLINE                                                     
LGD0    .          12/16/1993                                                   
MT0     .          XANVIS                                                       
~CURVE INFORMATION                                                              
#MNEM.UNIT                 DESCRIPTION                                          
#---------                 -----------                                          
DEPTH   .F               :  1 DEPTH
GR      .GAPI          00:  2 GAMMA RAY                                       
LLS     .OHMM          00:  3 SHALLOW LATEROLOG                               
SP      .MV            00:  4 SELF POTENTIAL                                  
LLD     .OHMM          00:  5 DEEP LATEROLOG                                  
CALI    .IN            00:  6 CALIPER                                         
RHOB    .G/C3          00:  7 BULK DENSITY                                    
MLL     .OHMM          00:  8 MICROLATEROLOG                                  
DRHO    .G/C3          00:  9 DENSITY CORRECTN                                
CNS     .%             00: 10 COMPENSATED NEUT (-S)                           
~A  DEPTH    GR         LLS        SP         LLD        CALI       RHOB       MLL        DRHO       CNS                                                                                                                                                      
# ...
 11374.000   49.64790   29.12040   -999.000   48.31080   8.936300   2.528400   23.26320   0.100700   11.24170 
 11374.500   49.44970   28.02786   -999.000   46.43884   8.945644   2.523750   22.96191   0.097101   11.51365 
 11375.000   49.25150   26.93400   -999.000   44.56410   8.955000   2.519100   22.66030   0.093500   11.78580 
 11375.500   48.22209   23.90546   -999.000   39.50139   8.936261   2.500692   21.32722   0.089097   12.55379 
 11376.000   47.19220   20.87680   -999.000   34.44230   8.917500   2.482300   19.99530   0.084700   13.32030 
 11376.500   46.10223   20.52843   -999.000   33.82928   8.908096   2.471646   15.57801   0.072636   14.24983 
 11377.000   45.01080   20.18030   -999.000   33.21670   8.898700   2.461000   11.15470   0.060600   15.17930 
 11377.500   47.60511   21.25604   -999.000   34.84452   8.922822   2.475495   10.81064   0.069302   15.06076 
 11378.000   50.20270   22.33120   -999.000   36.46860   8.947000   2.490000   10.46610   0.078000   14.94220 
 11378.500   52.74123   22.80053   -999.000   36.91343   8.947000   2.502605   12.53442   0.070100   15.17264 
 11379.000   55.27710   23.27060   -999.000   37.35790   8.947000   2.515200   14.60630   0.062200   15.40270 
 11379.500   54.32909   22.59923   -999.000   36.06667   8.929564   2.511152   15.77392   0.052494   15.15000 
 11380.000   53.37960   21.92770   -999.000   34.77690   8.912100   2.507100   16.94050   0.042800   14.89740 
 11380.500   52.40700   21.22675   -999.000   33.70499   8.904052   2.497450   13.44111   0.036104   14.49746 
 11381.000   51.43520   20.52670   -999.000   32.63170   8.896000   2.487800   9.938000   0.029400   14.09720 
 11381.500   51.82855   20.32829   -999.000   32.38940   8.922840   2.479199   9.239370   0.032654   14.13377 
 11382.000   52.22120   20.13020   -999.000   32.14730   8.949700   2.470600   8.541400   0.035900   14.17030 
 11382.500   51.86355   20.07974   -999.000   32.02215   8.932264   2.465052   8.552951   0.026302   14.41100 
 11383.000   51.50540   20.02920   -999.000   31.89700   8.914800   2.459500   8.564500   0.016700   14.65190 
 11383.500   50.67855   20.16099   -999.000   32.08449   8.905403   2.457051   7.319830   0.014248   14.83576 
 11384.000   49.85210   20.29260   -999.000   32.27240   8.896000   2.454600   6.074200   0.011800   15.02010 
 11384.500   51.38105   20.47494   -999.000   32.61678   8.896000   2.460351   5.957965   0.016001   15.18768 
 11385.000   52.90930   20.65740   -999.000   32.96080   8.896000   2.466100   5.841800   0.020200   15.35520 
 11385.500   53.97186   20.41628   -999.000   32.56848   8.913441   2.469554   6.007668   0.016853   15.12355 
 11386.000   55.03330   20.17490   -999.000   32.17660   8.930900   2.473000   6.173300   0.013500   14.89210 
 11386.500   53.57896   20.03337   -999.000   31.89028   8.934902   2.466550   6.232347   0.013050   -999.000 
 11387.000   52.12610   19.89180   -999.000   31.60360   8.938900   2.460100   6.291300   0.012600   -999.000 
 11387.500   51.81884   20.64194   -999.000   32.86567   8.916077   2.463548   6.909114   0.014452   -999.000 
 11388.000   51.51130   21.39140   -999.000   34.12900   8.893300   2.467000   7.527900   0.016300   -999.000 
 11388.500   -999.000   22.41381   -999.000   35.41776   8.891999   2.485490   7.959371   0.025402   -999.000 
 11389.000   -999.000   23.43730   -999.000   36.70830   8.890700   2.504000   8.390600   0.034500   -999.000 
 11389.500   -999.000   22.98013   -999.000   35.54283   8.871895   2.506200   10.77275   0.032601   -999.000 
 11390.000   -999.000   22.52220   -999.000   34.37750   8.853100   2.508400   13.15650   0.030700   -999.000 
 11390.500   -999.000   22.56341   -999.000   34.01708   8.865189   2.502293   11.15022   0.028598   -999.000 
 11391.000   -999.000   22.60460   -999.000   33.65680   8.877300   2.496200   9.141800   0.026500   -999.000 
 11391.500   -999.000   22.64973   -999.000   33.11304   8.877300   2.496450   8.164844   0.027701   -999.000 
 11392.000   -999.000   22.69490   -999.000   32.56840   8.877300   2.496700   7.188700   0.028900   -999.000 
 11392.500   -999.000   20.95459   -999.000   29.91554   8.874603   2.491054   7.303821   0.023702   -999.000 
 11393.000   -999.000   19.21540   -999.000   27.26520   8.871900   2.485400   7.418900   0.018500   -999.000 
 11393.500   -999.000   19.63520   -999.000   28.25270   8.857147   2.475605   6.916138   0.026356   -999.000 
 11394.000   -999.000   20.05570   -999.000   29.24210   8.842400   2.465800   6.413000   0.034200   -999.000 
 11394.500   -999.000   25.42575   -999.000   37.94298   8.843750   2.477713   7.805464   0.041751   -999.000 
 11395.000   -999.000   30.79690   -999.000   46.64390   8.845100   2.489600   9.197100   0.049300   -999.000 
 11395.500   -999.000   40.61480   -999.000   62.38080   8.866547   2.536807   13.78711   0.037807   -999.000 
 11396.000   -999.000   50.42980   -999.000   78.14570   8.888000   2.583900   18.38160   0.026300   -999.000 
 11396.500   -999.000   57.84109   -999.000   90.04498   8.883947   2.623170   36.52517   0.032596   -999.000 
 11397.000   -999.000   65.24160   -999.000   101.9721   8.879900   2.662500   54.67940   0.038900   -999.000 
 11397.500   -999.000   69.21460   -999.000   106.1593   8.369178   2.669500   30.85160   0.054302   -999.000 
 11398.000   -999.000   73.18030   -999.000   110.3473   7.858500   2.676500   7.079800   0.069700   -999.000 
 11398.500   -999.000   60.49713   -999.000   88.45297   7.850444   2.666005   14.45316   0.082135   -999.000 
 11399.000   -999.000   47.83130   -999.000   66.55280   7.842400   -999.000   21.83420   0.094600   -999.000 
 11399.500   -999.000   35.15895   -999.000   48.82050   7.835702   -999.000   13.91328   0.079761   -999.000 
 11400.000   -999.000   22.45910   -999.000   31.10680   7.829000   -999.000   5.983900   0.064900   -999.000 
 11400.500   -999.000   19.96852   -999.000   27.54002   6.158902   -999.000   4.820249   -.717132   -999.000 
 11401.000   -999.000   17.47760   -999.000   23.96870   4.488700   -999.000   3.657200   -1.50000   -999.000 
 11401.500   -999.000   17.53584   -999.000   23.89754   4.506143   -999.000   3.680891   -1.50000   -999.000 
 11402.000   -999.000   17.59410   -999.000   23.82640   4.523600   -999.000   3.704600   -1.50000   -999.000 
 11402.500   -999.000   18.47501   -999.000   25.03826   4.507508   -999.000   3.775795   -1.50000   -999.000 
 11403.000   -999.000   19.35430   -999.000   26.24820   4.491400   -999.000   3.846900   -1.50000   -999.000 
 11403.500   -999.000   20.91071   -999.000   28.65369   4.504796   -999.000   4.810654   -1.50000   -999.000 
 11404.000   -999.000   22.46680   -999.000   31.06190   4.518200   -999.000   5.773200   -1.50000   -999.000 
 11404.500   -999.000   23.77494   -999.000   33.35518   4.514198   -999.000   7.677959   -1.50000   -999.000 
 11405.000   -999.000   25.08450   -999.000   35.64760   4.510200   -999.000   9.581900   -1.50000   -999.000 
 11405.500   -999.000   24.60766   -999.000   35.38060   4.506151   -999.000   10.20822   -1.50000   -999.000 
 11406.000   -999.000   24.13150   -999.000   35.11340   4.502100   -999.000   10.83480   -1.50000   -999.000 
 11406.500   -999.000   23.09815   -999.000   33.92742   4.523589   -999.000   11.29277   -1.50000   -999.000 
 11407.000   -999.000   22.06570   -999.000   32.74040   4.545100   -999.000   11.74980   -1.50000   -999.000 
 11407.500   -999.000   22.35745   -999.000   33.32849   4.551795   -999.000   10.87866   -1.50000   -999.000 
 11408.000   -999.000   22.64890   -999.000   33.91570   4.558500   -999.000   10.00610   -1.50000   -999.000 
 11408.500   -999.000   23.11893   -999.000   34.52393   4.547752   -999.000   12.08339   -1.50000   -999.000 
 11409.000   -999.000   23.58800   -999.000   35.13300   4.537000   -999.000   14.16190   -1.50000   -999.000 
 11409.500   -999.000   23.10583   -999.000   34.20441   4.518243   -999.000   10.62525   -1.50000   -999.000 
 11410.000   -999.000   22.62340   -999.000   33.27660   4.499500   -999.000   7.086300   -1.50000   -999.000 
