~VERSION INFORMATION
VERS.                               2.00: CWLS LOG ASCII STANDARD VERSION 2.00
WRAP.                               NO  : ONE LINE PER DEPTH STEP               
~WELL INFORMATION
#MNEM.UNIT                     DATA TYPE  INFORMATION
#----------------------------------------------------------------------
STRT.F                           3490.00: START DEPTH
STOP.F                          11462.00: STOP DEPTH
STEP.F                              0.50: STEP VALUE
NULL.                            -999.00: NULL VALUE
COMP.                                   : COMPANY                               
WELL.                    17586 #3LT1 ST2: WELL                                  
FLD .                            Unknown: FIELD                                 
LOC .                                   : LOCATION                              
CNTY.                                   : COUNTY                                
STAT.                                   : STATE                                 
CTRY.                                   : COUNTRY                               
SRVC.                                   : SERVICE COMPANY                       
DATE.                                   : LOG DATE                              
API .                   50733200040100  : UNIQUE WELL IDENTIFIER                
~PARAMETER INFORMATION                                                          
#MNEM.UNIT        VALUE   DESCRIPTION                                           
#---------      --------  -----------                                           
~OTHER INFORMATION                                                              
CSG0    .          9.625" @ 8192                                                
FLS0    .          FLOWLINE                                                     
LGD0    .          12/16/1993                                                   
MT0     .          XANVIS                                                       
~CURVE INFORMATION                                                              
#MNEM.UNIT                 DESCRIPTION                                          
#---------                 -----------                                          
DEPTH   .F               :  1 DEPTH
GR      .GAPI          00:  2 GAMMA RAY                                       
LLS     .OHMM          00:  3 SHALLOW LATEROLOG                               
SP      .MV            00:  4 SELF POTENTIAL                                  
LLD     .OHMM          00:  5 DEEP LATEROLOG                                  
CALI    .IN            00:  6 CALIPER                                         
RHOB    .G/C3          00:  7 BULK DENSITY                                    
MLL     .OHMM          00:  8 MICROLATEROLOG                                  
DRHO    .G/C3          00:  9 DENSITY CORRECTN                                
CNS     .%             00: 10 COMPENSATED NEUT (-S)                           
~A  DEPTH    GR         LLS        SP         LLD        CALI       RHOB       MLL        DRHO       CNS                                                                                                                                                      
# ...
  8928.500   55.20012   23.66525   34.17432   59.07230   12.94050   2.479706   14.41520   0.038548   20.86196 
  8929.000   58.03090   23.15600   33.18230   55.71090   12.94050   2.493700   13.76080   0.034400   23.14590 
  8929.500   58.62818   22.41446   32.45002   52.90914   12.94050   2.495751   12.49618   0.043151   24.17270 
  8930.000   59.22630   21.67270   31.71860   50.11110   12.94050   2.497800   11.23030   0.051900   25.19760 
  8930.500   59.89370   21.72984   31.38429   49.49127   12.94050   2.504899   12.16330   0.058052   24.78201 
  8931.000   60.56200   21.78700   31.05010   48.87050   12.94050   2.512000   13.09590   0.064200   24.36690 
  8931.500   63.08819   22.59680   30.78218   50.40811   12.94050   2.522453   13.02686   0.062600   24.29884 
  8932.000   65.61130   23.40600   30.51390   51.94640   12.94050   2.532900   12.95790   0.061000   24.23090 
  8932.500   66.46796   23.87267   30.70738   52.81870   12.94050   2.521948   11.30555   0.061300   23.51411 
  8933.000   67.32450   24.33920   30.90090   53.69170   12.94050   2.511000   9.652800   0.061600   22.79800 
  8933.500   67.66270   24.06294   31.15385   52.54363   12.94050   2.484447   10.78134   0.076046   22.36239 
  8934.000   68.00070   23.78630   31.40720   51.39550   12.94050   2.457900   11.91130   0.090500   21.92670 
  8934.500   66.09394   23.83261   31.75714   50.92903   12.92249   2.435539   13.33119   0.114144   21.01933 
  8935.000   64.18620   23.87890   32.10750   50.46220   12.90450   2.413200   14.75200   0.137800   20.11170 
  8935.500   62.46185   23.97425   32.81331   50.35050   12.90450   2.434090   16.07633   0.130148   18.57849 
  8936.000   60.73870   24.06960   33.51830   50.23880   12.90450   2.455000   17.40060   0.122500   17.04500 
  8936.500   58.43581   24.36519   34.48930   51.67513   12.92249   2.481458   17.47018   0.091582   16.26618 
  8937.000   56.13210   24.66040   35.46070   53.11200   12.94050   2.507900   17.53970   0.060700   15.48710 
  8937.500   53.74065   26.87890   36.21407   61.08048   12.99457   2.528615   19.57104   0.054653   14.31386 
  8938.000   51.35300   29.09560   36.96820   69.05990   13.04860   2.549300   21.60130   0.048600   13.13960 
  8938.500   50.25500   29.92603   37.24946   69.86148   13.04860   2.551151   24.83638   0.012424   14.41851 
  8939.000   49.15750   30.75570   37.53100   70.66350   13.04860   2.553000   28.07130   -.023700   15.69810 
  8939.500   54.62601   27.51279   37.80709   57.70452   13.03055   2.396507   15.93839   -999.000   20.84987 
  8940.000   60.10100   24.27120   38.08290   44.75980   13.01250   2.240100   3.808300   -999.000   26.00000 
  8940.500   66.96281   22.12144   38.41425   38.35360   13.03054   2.203395   6.183659   -999.000   33.36134 
  8941.000   73.81780   19.96990   38.74560   31.95010   13.04860   2.166700   8.560200   0.149100   40.72040 
  8941.500   73.60623   19.65853   39.17338   30.46827   13.04860   2.264412   6.582750   0.084157   40.28094 
  8942.000   73.39450   19.34760   39.60120   28.98750   13.04860   2.362200   4.607300   0.019100   39.84130 
  8942.500   72.39484   20.07947   39.97037   31.65823   13.04860   2.384356   10.03106   0.021499   40.15796 
  8943.000   71.39560   20.81220   40.33950   34.33270   13.04860   2.406500   15.45360   0.023900   40.47460 
  8943.500   67.03461   21.67536   40.61261   38.66905   13.04860   2.366803   9.417687   0.017203   43.05177 
  8944.000   62.66990   22.53790   40.88600   43.00510   13.04860   2.327100   3.384400   0.010500   45.62570 
  8944.500   59.25909   20.59073   41.13201   40.57575   13.04860   2.244083   4.769050   -999.000   48.53435 
  8945.000   55.85190   18.64410   41.37780   38.14720   13.04860   2.161100   6.154600   -999.000   51.44550 
  8945.500   57.42602   15.73024   41.58806   31.02251   13.04860   2.181986   6.258147   -999.000   51.98141 
  8946.000   58.99830   12.81850   41.79820   23.89410   13.04860   2.202900   6.361600   0.082200   52.51770 
  8946.500   62.37063   11.94525   41.95497   21.41228   13.03054   2.300313   4.740565   0.111771   46.83677 
  8947.000   65.74240   11.07270   42.11190   18.93040   13.01250   2.397700   3.120500   0.141400   41.15790 
  8947.500   68.16358   11.15132   42.11445   19.19201   13.01250   2.438185   4.336179   0.147151   39.37264 
  8948.000   70.58650   11.22990   42.11700   19.45340   13.01250   2.478700   5.552600   0.152900   37.58770 
  8948.500   70.57349   11.33699   41.96810   19.76817   13.03055   2.528861   5.261030   0.149699   36.34126 
  8949.000   70.56050   11.44410   41.81910   20.08340   13.04860   2.579000   4.969100   0.146500   35.09420 
  8949.500   69.93060   11.48077   41.51099   20.49916   13.03054   2.568703   4.388670   -999.000   33.81002 
  8950.000   69.30130   11.51750   41.20240   20.91500   13.01250   2.558400   3.808200   -999.000   32.52710 
  8950.500   70.86375   11.49155   41.00083   21.20597   13.01250   2.567996   3.335068   -999.000   32.74578 
  8951.000   72.42810   11.46560   40.79920   21.49740   13.01250   2.577600   2.861000   -999.000   32.96440 
  8951.500   73.40603   11.36136   40.55816   21.54713   13.01250   2.588352   4.379538   -999.000   31.77228 
  8952.000   74.38240   11.25700   40.31740   21.59690   13.01250   2.599100   5.896800   0.013300   30.57960 
  8952.500   73.67970   11.13601   40.34868   21.54968   13.01250   2.598450   8.968364   0.016002   30.00818 
  8953.000   72.97680   11.01520   40.38000   21.50250   13.01250   2.597800   12.03650   0.018700   29.43580 
  8953.500   74.47121   11.03460   40.33895   21.76691   13.01250   2.587950   11.47986   0.025904   29.63651 
  8954.000   75.96440   11.05400   40.29790   22.03130   13.01250   2.578100   10.92350   0.033100   29.83720 
  8954.500   74.31580   11.23008   40.32519   22.48452   13.01250   2.585500   11.58386   0.027202   29.77394 
  8955.000   72.66870   11.40630   40.35250   22.93770   13.01250   2.592900   12.24490   0.021300   29.71060 
  8955.500   84.27965   11.47962   40.31574   23.10393   13.03054   2.616702   12.34056   0.022301   29.11300 
  8956.000   95.88260   11.55300   40.27900   23.27040   13.04860   2.640500   12.43620   0.023300   28.51600 
  8956.500   95.54668   11.15654   40.33642   22.51534   13.04860   2.642249   12.99901   0.020050   28.08018 
  8957.000   95.21120   10.75960   40.39380   21.75960   13.04860   2.644000   13.56190   0.016800   27.64390 
  8957.500   80.68124   10.22499   40.38301   20.45022   13.03056   2.634396   12.39876   0.017050   27.14275 
  8958.000   66.15120   9.690600   40.37220   19.14240   13.01250   2.624800   11.23550   0.017300   26.64090 
  8958.500   65.54343   9.352701   40.31414   18.28838   13.01250   2.616852   10.06060   0.021399   25.96539 
  8959.000   64.93540   9.015200   40.25620   17.43420   13.01250   2.608900   8.883900   0.025500   25.28930 
  8959.500   64.34704   8.766040   40.24245   16.80087   13.03056   2.602753   9.421096   0.019699   25.17094 
  8960.000   63.75890   8.517300   40.22870   16.16840   13.04860   2.596600   9.958700   0.013900   25.05240 
  8960.500   62.11579   8.306384   40.11091   15.62585   13.03056   2.592953   8.694590   0.013650   25.08588 
  8961.000   60.47290   8.095400   39.99300   15.08270   13.01250   2.589300   7.430400   0.013400   25.11930 
  8961.500   61.08958   8.051817   39.90988   14.98219   13.01250   2.581751   6.818541   0.015451   23.53739 
  8962.000   61.70580   8.008200   39.82680   14.88170   13.01250   2.574200   6.206400   0.017500   21.95510 
  8962.500   62.28513   8.018496   39.84000   14.91697   13.01250   2.568103   6.650589   -999.000   22.71860 
  8963.000   62.86360   8.028800   39.85320   14.95220   13.01250   2.562000   7.095200   -999.000   23.48160 
  8963.500   62.07187   8.110114   40.01682   15.09774   13.01250   2.560851   6.905302   -999.000   30.38599 
  8964.000   61.28090   8.191400   40.18020   15.24310   13.01250   2.559700   6.715500   -999.000   37.28650 
  8964.500   60.72926   8.263741   40.28965   15.39582   13.01250   2.561952   7.824704   -999.000   32.56860 
