~VERSION INFORMATION
VERS.                               2.00: CWLS LOG ASCII STANDARD VERSION 2.00
WRAP.                               NO  : ONE LINE PER DEPTH STEP               
~WELL INFORMATION
#MNEM.UNIT                     DATA TYPE  INFORMATION
#----------------------------------------------------------------------
STRT.F                           3490.00: START DEPTH
STOP.F                          11462.00: STOP DEPTH
STEP.F                              0.50: STEP VALUE
NULL.                            -999.00: NULL VALUE
COMP.                                   : COMPANY                               
WELL.                    17586 #3LT1 ST2: WELL                                  
FLD .                            Unknown: FIELD                                 
LOC .                                   : LOCATION                              
CNTY.                                   : COUNTY                                
STAT.                                   : STATE                                 
CTRY.                                   : COUNTRY                               
SRVC.                                   : SERVICE COMPANY                       
DATE.                                   : LOG DATE                              
API .                   50733200040100  : UNIQUE WELL IDENTIFIER                
~PARAMETER INFORMATION                                                          
#MNEM.UNIT        VALUE   DESCRIPTION                                           
#---------      --------  -----------                                           
~OTHER INFORMATION                                                              
CSG0    .          9.625" @ 8192                                                
FLS0    .          FLOWLINE                                                     
LGD0    .          12/16/1993                                                   
MT0     .          XANVIS                                                       
~CURVE INFORMATION                                                              
#MNEM.UNIT                 DESCRIPTION                                          
#---------                 -----------                                          
DEPTH   .F               :  1 DEPTH
GR      .GAPI          00:  2 GAMMA RAY                                       
LLS     .OHMM          00:  3 SHALLOW LATEROLOG                               
SP      .MV            00:  4 SELF POTENTIAL                                  
LLD     .OHMM          00:  5 DEEP LATEROLOG                                  
CALI    .IN            00:  6 CALIPER                                         
RHOB    .G/C3          00:  7 BULK DENSITY                                    
MLL     .OHMM          00:  8 MICROLATEROLOG                                  
DRHO    .G/C3          00:  9 DENSITY CORRECTN                                
CNS     .%             00: 10 COMPENSATED NEUT (-S)                           
~A  DEPTH    GR         LLS        SP         LLD        CALI       RHOB       MLL        DRHO       CNS                                                                                                                                                      
# ...
  4658.000   38.84270   5.870900   -66.1085   8.702400   13.11630   2.362800   -999.000   0.013600   24.10920 
  4658.500   38.10297   5.876952   -66.3126   8.739935   13.11630   2.368302   -999.000   0.013800   24.58352 
  4659.000   37.36370   5.883000   -66.5168   8.777500   13.11630   2.373800   -999.000   0.014000   25.05810 
  4659.500   38.95562   5.956158   -66.7146   8.938598   13.15230   2.378350   -999.000   0.017301   25.98581 
  4660.000   40.54780   6.029300   -66.9124   9.099600   13.18830   2.382900   -999.000   0.020600   26.91280 
  4660.500   41.34084   6.005404   -66.8184   9.081898   13.45838   2.362496   -999.000   0.017051   27.74766 
  4661.000   42.13420   5.981500   -66.7244   9.064200   13.72870   2.342100   -999.000   0.013500   28.58250 
  4661.500   40.40134   5.881126   -66.4746   8.938434   13.45850   2.315398   -999.000   0.042761   29.30118 
  4662.000   38.66850   5.780800   -66.2251   8.812600   13.18830   2.288700   -999.000   0.072000   30.02030 
  4662.500   37.50311   5.770199   -66.0391   8.800451   13.15230   2.295051   -999.000   0.056798   29.16526 
  4663.000   36.33830   5.759600   -65.8532   8.788300   13.11630   2.301400   -999.000   0.041600   28.31020 
  4663.500   37.30703   5.804950   -65.7326   8.849025   13.11630   2.322096   -999.000   0.026446   28.05628 
  4664.000   38.27630   5.850300   -65.6119   8.909800   13.11630   2.342800   -999.000   0.011300   27.80220 
  4664.500   38.39455   5.892642   -65.6417   8.934448   13.08024   2.354198   -999.000   -999.000   28.33341 
  4665.000   38.51290   5.935000   -65.6715   8.959100   13.04420   2.365600   -999.000   -999.000   28.86450 
  4665.500   39.33344   5.955153   -65.5793   8.927443   13.02621   2.367800   -999.000   -999.000   28.73992 
  4666.000   40.15440   5.975300   -65.4870   8.895800   13.00820   2.370000   -999.000   -999.000   28.61530 
  4666.500   40.87841   5.975700   -65.1788   8.838848   13.00820   2.363898   -999.000   -999.000   28.05490 
  4667.000   41.60220   5.976100   -64.8705   8.781900   13.00820   2.357800   -999.000   0.024700   27.49410 
  4667.500   41.81409   5.962449   -64.5062   8.735291   12.97219   2.350253   -999.000   0.023500   27.36080 
  4668.000   42.02600   5.948800   -64.1418   8.688700   12.93620   2.342700   -999.000   0.022300   27.22740 
  4668.500   42.75217   5.953501   -64.1784   8.676601   12.93620   2.341550   -999.000   0.027151   26.05456 
  4669.000   43.47830   5.958200   -64.2149   8.664500   12.93620   2.340400   -999.000   0.032000   24.88100 
  4669.500   43.78574   6.166974   -64.3952   8.993391   12.79216   2.353902   -999.000   0.034549   26.06828 
  4670.000   44.09340   6.375700   -64.5756   9.322100   12.64800   2.367400   -999.000   0.037100   27.25530 
  4670.500   41.61921   7.525305   -64.6382   11.22738   12.72007   2.374650   -999.000   0.081935   26.37847 
  4671.000   39.14690   8.674300   -64.7008   13.13080   12.79210   2.381900   -999.000   0.126800   25.50120 
  4671.500   37.78538   10.04216   -64.7572   15.26307   12.64801   2.466683   -999.000   0.119897   23.89802 
  4672.000   36.42380   11.41090   -64.8137   17.39640   12.50390   2.551500   -999.000   0.113000   22.29550 
  4672.500   36.72103   10.62591   -64.7722   15.96706   12.75612   2.606349   -999.000   0.101597   22.31670 
  4673.000   37.01820   9.840700   -64.7307   14.53840   13.00820   2.661200   -999.000   0.090200   22.33790 
  4673.500   37.13573   9.134480   -64.7668   13.57630   13.00820   2.634253   -999.000   0.118000   21.87732 
  4674.000   37.25330   8.428400   -64.8029   12.61470   13.00820   2.607300   -999.000   0.145800   21.41700 
  4674.500   37.89892   8.629802   -64.7897   12.99755   13.00820   2.607050   -999.000   0.124751   22.15260 
  4675.000   38.54480   8.831200   -64.7765   13.38020   13.00820   2.606800   -999.000   0.103700   22.88800 
  4675.500   37.95007   7.950168   -64.6794   11.98305   12.99020   2.567235   -999.000   0.098598   22.07175 
  4676.000   37.35580   7.068200   -64.5824   10.58680   12.97220   2.527700   -999.000   0.093500   21.25560 
  4676.500   37.09408   6.235307   -64.5767   9.296176   12.93614   2.449688   -999.000   0.105248   20.93123 
  4677.000   36.83260   5.402900   -64.5710   8.005400   12.90010   2.371700   -999.000   0.117000   20.60680 
  4677.500   36.85625   5.369785   -64.3870   7.987194   12.91816   2.353294   -999.000   0.100793   22.48522 
  4678.000   36.87990   5.336700   -64.2029   7.969000   12.93620   2.334900   -999.000   0.084600   24.36530 
  4678.500   37.27808   5.420486   -63.8655   8.094990   12.93620   2.348201   -999.000   0.074003   28.38565 
  4679.000   37.67610   5.504300   -63.5281   8.220900   12.93620   2.361500   -999.000   0.063400   32.40540 
  4679.500   37.67330   5.586516   -63.2133   8.380417   12.86413   2.368400   -999.000   0.060350   32.57145 
  4680.000   37.67050   5.668700   -62.8984   8.539900   12.79210   2.375300   -999.000   0.057300   32.73760 
  4680.500   38.28734   5.649797   -62.5961   8.531752   12.77411   2.359694   -999.000   0.063851   32.76956 
  4681.000   38.90430   5.630900   -62.2937   8.523600   12.75610   2.344100   -999.000   0.070400   32.80150 
  4681.500   39.44867   5.553843   -62.1781   8.404057   12.95421   2.340101   -999.000   0.061754   32.29733 
  4682.000   39.99280   5.476800   -62.0625   8.284400   13.15230   2.336100   -999.000   0.053100   31.79340 
  4682.500   39.94260   5.511910   -62.0019   8.321001   13.15230   2.352603   -999.000   0.066247   30.78666 
  4683.000   39.89240   5.547000   -61.9413   8.357600   13.15230   2.369100   -999.000   0.079400   29.77950 
  4683.500   39.24460   5.562204   -61.9553   8.338005   13.09822   2.378696   -999.000   0.049407   29.83897 
  4684.000   38.59720   5.577400   -61.9693   8.318400   13.04420   2.388300   -999.000   0.019400   29.89850 
  4684.500   38.10937   5.482446   -61.8637   8.156595   13.06225   2.381951   -999.000   -999.000   30.78137 
  4685.000   37.62130   5.387500   -61.7582   7.994700   13.08030   2.375600   -999.000   -999.000   31.66520 
  4685.500   37.49333   5.380204   -61.7749   8.011743   13.09830   2.334209   -999.000   -999.000   31.61889 
  4686.000   37.36530   5.372900   -61.7916   8.028800   13.11630   2.292800   -999.000   0.054900   31.57260 
  4686.500   38.82338   6.095093   -61.7480   9.299583   13.15231   2.298900   -999.000   0.099211   29.60878 
  4687.000   40.28220   6.817200   -61.7043   10.56980   13.18830   2.305000   -999.000   0.143500   27.64400 
  4687.500   40.06316   8.542726   -61.5641   13.52216   13.18830   2.408698   -999.000   0.094636   24.33507 
  4688.000   39.84400   10.26750   -61.4239   16.47260   13.18830   2.512400   -999.000   0.045800   21.02470 
  4688.500   39.99355   9.528778   -61.5354   14.99675   13.31444   2.545887   -999.000   -999.000   20.86555 
  4689.000   40.14300   8.789900   -61.6469   13.52040   13.44050   2.579400   -999.000   -999.000   20.70630 
  4689.500   40.94843   7.590442   -61.6631   11.52474   13.54853   2.438791   -999.000   -999.000   22.80838 
  4690.000   41.75360   6.391200   -61.6794   9.527300   13.65660   2.298100   -999.000   0.050900   24.90910 
  4690.500   41.20366   6.104033   -61.6154   9.034099   13.33241   2.236979   -999.000   0.089240   27.86958 
  4691.000   40.65340   5.817100   -61.5514   8.541000   13.00820   2.175800   -999.000   0.127600   30.82950 
  4691.500   39.37523   6.160605   -61.9019   9.037615   13.00820   2.220014   -999.000   0.100502   32.88480 
  4692.000   38.09770   6.504000   -62.2523   9.534200   13.00820   2.264200   -999.000   0.073400   34.94090 
  4692.500   40.41060   6.872171   -62.4737   10.19521   13.00820   2.316049   -999.000   0.050951   33.47168 
  4693.000   42.72490   7.240500   -62.6950   10.85610   13.00820   2.367900   -999.000   0.028500   32.00340 
  4693.500   43.02733   7.082202   -62.7364   10.57984   13.00820   2.385197   -999.000   -.000688   29.72775 
  4694.000   43.32980   6.923900   -62.7779   10.30340   13.00820   2.402500   -999.000   -.029900   27.45190 
