~VERSION INFORMATION
VERS.                               2.00: CWLS LOG ASCII STANDARD VERSION 2.00
WRAP.                               NO  : ONE LINE PER DEPTH STEP               
~WELL INFORMATION
#MNEM.UNIT                     DATA TYPE  INFORMATION
#----------------------------------------------------------------------
STRT.F                           3490.00: START DEPTH
STOP.F                          11462.00: STOP DEPTH
STEP.F                              0.50: STEP VALUE
NULL.                            -999.00: NULL VALUE
COMP.                                   : COMPANY                               
WELL.                    17586 #3LT1 ST2: WELL                                  
FLD .                            Unknown: FIELD                                 
LOC .                                   : LOCATION                              
CNTY.                                   : COUNTY                                
STAT.                                   : STATE                                 
CTRY.                                   : COUNTRY                               
SRVC.                                   : SERVICE COMPANY                       
DATE.                                   : LOG DATE                              
API .                   50733200040100  : UNIQUE WELL IDENTIFIER                
~PARAMETER INFORMATION                                                          
#MNEM.UNIT        VALUE   DESCRIPTION                                           
#---------      --------  -----------                                           
~OTHER INFORMATION                                                              
CSG0    .          9.625" @ 8192                                                
FLS0    .          FLOWLINE                                                     
LGD0    .          12/16/1993                                                   
MT0     .          XANVIS                                                       
~CURVE INFORMATION                                                              
#MNEM.UNIT                 DESCRIPTION                                          
#---------                 -----------                                          
DEPTH   .F               :  1 DEPTH
GR      .GAPI          00:  2 GAMMA RAY                                       
LLS     .OHMM          00:  3 SHALLOW LATEROLOG                               
SP      .MV            00:  4 SELF POTENTIAL                                  
LLD     .OHMM          00:  5 DEEP LATEROLOG                                  
CALI    .IN            00:  6 CALIPER                                         
RHOB    .G/C3          00:  7 BULK DENSITY                                    
MLL     .OHMM          00:  8 MICROLATEROLOG                                  
DRHO    .G/C3          00:  9 DENSITY CORRECTN                                
CNS     .%             00: 10 COMPENSATED NEUT (-S)                           
~A  DEPTH    GR         LLS        SP         LLD        CALI       RHOB       MLL        DRHO       CNS                                                                                                                                                      
# ...
  8089.000   79.53590   8.046800   58.34220   10.45300   12.82870   2.606100   2.698200   -999.000   30.52370 
  8089.500   74.43292   7.859365   58.51068   10.14966   12.82870   2.605750   4.956072   -999.000   30.10561 
  8090.000   69.32390   7.671900   58.67920   9.846000   12.82870   2.605400   7.211700   0.012900   29.68730 
  8090.500   68.46472   7.696863   58.78156   9.950445   12.82870   2.604650   7.039420   0.012300   28.95286 
  8091.000   67.60610   7.721800   58.88400   10.05480   12.82870   2.603900   6.867100   0.011700   28.21760 
  8091.500   69.27087   7.676927   59.08371   10.16442   12.82870   2.605850   7.153240   0.010950   27.97848 
  8092.000   70.93740   7.632000   59.28350   10.27410   12.82870   2.607800   7.439400   0.010200   27.73950 
  8092.500   71.74481   7.550356   59.46275   10.39138   12.82870   2.610650   6.905365   -999.000   27.90899 
  8093.000   72.55300   7.468700   59.64180   10.50860   12.82870   2.613500   6.370500   -999.000   28.07830 
  8093.500   72.45584   7.572096   59.78170   10.89353   12.81065   2.616698   7.325902   -999.000   27.78280 
  8094.000   72.35870   7.675500   59.92150   11.27890   12.79260   2.619900   8.280600   -999.000   27.48730 
  8094.500   71.29160   7.915174   59.91466   11.86487   12.79260   2.620100   8.373457   -999.000   27.52512 
  8095.000   70.22290   8.154800   59.90780   12.45120   12.79260   2.620300   8.466300   -999.000   27.56300 
  8095.500   68.55133   8.110886   59.99829   12.55040   12.79260   2.631803   9.322721   -999.000   27.42842 
  8096.000   66.88050   8.067000   60.08870   12.64960   12.79260   2.643300   10.17950   -.028400   27.29380 
  8096.500   67.36892   7.771075   60.03833   12.25744   12.79260   2.627903   9.146914   -.020997   27.97182 
  8097.000   67.85760   7.475300   59.98800   11.86480   12.79260   2.612500   8.114500   -.013600   28.64980 
  8097.500   67.04208   7.337806   59.87688   11.68308   12.79260   2.601651   7.834545   -.000553   27.87054 
  8098.000   66.22680   7.200300   59.76570   11.50130   12.79260   2.590800   7.554500   0.012500   27.09210 
  8098.500   65.48654   7.063502   59.56775   11.27338   12.81065   2.598100   7.210086   -999.000   26.61383 
  8099.000   64.74690   6.926800   59.36990   11.04570   12.82870   2.605400   6.865500   -999.000   26.13580 
  8099.500   65.93011   6.764313   59.11734   10.82792   12.81066   2.601147   5.399011   -999.000   26.22780 
  8100.000   67.11240   6.601600   58.86520   10.61000   12.79260   2.596900   3.931900   -999.000   26.31980 
  8100.500   66.06277   6.495279   58.56113   10.63794   12.81065   2.596550   5.521596   -999.000   25.78976 
  8101.000   65.01480   6.389000   58.25750   10.66590   12.82870   2.596200   7.109900   -999.000   25.25980 
  8101.500   61.14053   6.176414   58.06877   10.35513   12.81066   2.591999   6.247603   -999.000   24.30073 
  8102.000   57.26860   5.963600   57.88020   10.04440   12.79260   2.587800   5.384400   -999.000   23.34140 
  8102.500   55.75771   5.824860   57.77669   9.838556   12.79260   2.582497   5.567447   -999.000   22.63871 
  8103.000   54.24800   5.686200   57.67320   9.632600   12.79260   2.577200   5.750400   -999.000   21.93600 
  8103.500   51.86840   5.601299   57.71861   9.570179   12.79260   2.567194   5.566606   -999.000   22.72132 
  8104.000   49.48960   5.516400   57.76400   9.507700   12.79260   2.557200   5.382700   -999.000   23.50730 
  8104.500   47.26044   5.347172   57.72081   9.262156   12.79260   2.542399   5.186736   -999.000   23.85096 
  8105.000   45.02850   5.177700   57.67760   9.016400   12.79260   2.527600   4.990700   0.014900   24.19470 
  8105.500   44.51480   5.003922   57.68720   8.721178   12.79260   2.525652   3.850836   0.015600   23.31205 
  8106.000   44.00130   4.830100   57.69680   8.425800   12.79260   2.523700   2.710700   0.016300   22.42960 
  8106.500   41.93959   4.713710   57.74686   8.391718   12.79260   2.512200   2.639780   0.022101   21.83455 
  8107.000   39.87550   4.597400   57.79690   8.357600   12.79260   2.500700   2.568800   0.027900   21.23870 
  8107.500   39.39912   4.535570   57.61513   8.284711   12.79260   2.493848   2.230772   0.041898   21.90873 
  8108.000   38.92320   4.473800   57.43340   8.211900   12.79260   2.487000   1.893200   0.055900   22.57840 
  8108.500   39.51108   4.481953   57.13830   8.120823   12.79260   2.504106   2.491424   0.044002   21.89259 
  8109.000   40.09810   4.490100   56.84300   8.029800   12.79260   2.521200   3.089200   0.032100   21.20740 
  8109.500   37.98388   4.732053   56.53013   8.492250   12.81066   2.508005   2.415181   0.054742   19.93664 
  8110.000   35.87320   4.974000   56.21720   8.954800   12.82870   2.494800   1.741400   0.077400   18.66740 
  8110.500   34.39883   5.628341   56.03861   10.40333   12.81065   2.534969   2.905800   0.092856   17.23221 
  8111.000   32.92400   6.283200   55.86000   11.85150   12.79260   2.575100   4.068500   0.108300   15.79710 
  8111.500   33.40179   6.056243   55.59937   11.25323   12.79260   2.603289   3.016123   -999.000   15.34531 
  8112.000   33.87920   5.829100   55.33850   10.65480   12.79260   2.631500   1.965500   -999.000   14.89390 
  8112.500   35.03719   5.332514   55.09961   9.706501   12.79260   2.588285   3.193028   -999.000   15.29567 
  8113.000   36.19590   4.836200   54.86060   8.757500   12.79260   2.545100   4.421700   0.038000   15.69700 
  8113.500   37.29266   4.874940   54.69738   8.900690   12.79260   2.536994   6.469036   0.031996   17.64319 
  8114.000   38.38950   4.913700   54.53410   9.043700   12.79260   2.528900   8.514700   0.026000   19.59130 
  8114.500   38.27552   4.881377   54.36786   8.829331   12.79260   2.527200   6.280541   0.032100   20.81176 
  8115.000   38.16150   4.849100   54.20180   8.614800   12.79260   2.525500   4.044800   0.038200   22.03390 
  8115.500   38.91817   4.751523   54.15606   8.280267   12.81065   2.515895   2.947266   0.025897   21.76698 
  8116.000   39.67420   4.653900   54.11030   7.946200   12.82870   2.506300   1.850100   0.013600   21.50050 
  8116.500   38.83676   4.904919   54.01711   8.354472   12.81066   2.504449   2.422212   0.030937   21.45183 
  8117.000   37.99860   5.155900   53.92390   8.762600   12.79260   2.502600   2.994200   0.048300   21.40320 
  8117.500   39.18108   5.453494   53.95235   9.257344   12.79260   2.515945   4.937182   0.035056   20.93819 
  8118.000   40.36270   5.751100   53.98080   9.752100   12.79260   2.529300   6.881500   0.021800   20.47290 
  8118.500   40.60305   5.611230   53.90562   9.317642   12.79260   2.529300   4.754248   -999.000   20.30056 
  8119.000   40.84340   5.471200   53.83050   8.883600   12.79260   2.529300   2.628200   -999.000   20.12830 
  8119.500   40.48525   5.392758   53.65557   8.754734   12.79260   2.509900   2.006266   -999.000   20.41976 
  8120.000   40.12710   5.314200   53.48060   8.626100   12.79260   2.490500   1.384000   0.041800   20.71160 
  8120.500   40.49797   5.569367   53.29552   9.193516   12.81064   2.467265   3.109848   0.061449   21.91161 
  8121.000   40.86920   5.824600   53.11040   9.761300   12.82870   2.444000   4.837200   0.081100   23.11160 
  8121.500   43.70560   6.405532   53.12630   10.91355   12.81064   2.382315   3.403962   0.052588   27.59942 
  8122.000   46.54370   6.986900   53.14220   12.06400   12.79260   2.320600   1.972400   0.024100   32.08160 
  8122.500   50.81446   8.548438   53.34386   14.64948   12.79260   2.170389   1.723120   0.004052   40.04436 
  8123.000   55.08920   10.11050   53.54550   17.23350   12.79260   2.020100   1.473700   -.016000   48.00340 
  8123.500   63.58481   12.54144   53.72967   20.57823   12.79260   2.027646   7.380075   0.006113   52.03305 
  8124.000   72.09070   14.97560   53.91390   23.92670   12.79260   2.035200   13.28510   0.028200   56.06040 
  8124.500   79.64812   16.48868   54.25597   25.11243   12.79260   2.124115   9.221981   0.020050   52.76831 
  8125.000   87.20170   18.00100   54.59760   26.29720   12.79260   2.213000   5.158200   0.011900   49.47830 
