~VERSION INFORMATION
VERS.                               2.00: CWLS LOG ASCII STANDARD VERSION 2.00
WRAP.                               NO  : ONE LINE PER DEPTH STEP               
~WELL INFORMATION
#MNEM.UNIT                     DATA TYPE  INFORMATION
#----------------------------------------------------------------------
STRT.F                           3490.00: START DEPTH
STOP.F                          11462.00: STOP DEPTH
STEP.F                              0.50: STEP VALUE
NULL.                            -999.00: NULL VALUE
COMP.                                   : COMPANY                               
WELL.                    17586 #3LT1 ST2: WELL                                  
FLD .                            Unknown: FIELD                                 
LOC .                                   : LOCATION                              
CNTY.                                   : COUNTY                                
STAT.                                   : STATE                                 
CTRY.                                   : COUNTRY                               
SRVC.                                   : SERVICE COMPANY                       
DATE.                                   : LOG DATE                              
API .                   50733200040100  : UNIQUE WELL IDENTIFIER                
~PARAMETER INFORMATION                                                          
#MNEM.UNIT        VALUE   DESCRIPTION                                           
#---------      --------  -----------                                           
~OTHER INFORMATION                                                              
CSG0    .          9.625" @ 8192                                                
FLS0    .          FLOWLINE                                                     
LGD0    .          12/16/1993                                                   
MT0     .          XANVIS                                                       
~CURVE INFORMATION                                                              
#MNEM.UNIT                 DESCRIPTION                                          
#---------                 -----------                                          
DEPTH   .F               :  1 DEPTH
GR      .GAPI          00:  2 GAMMA RAY                                       
LLS     .OHMM          00:  3 SHALLOW LATEROLOG                               
SP      .MV            00:  4 SELF POTENTIAL                                  
LLD     .OHMM          00:  5 DEEP LATEROLOG                                  
CALI    .IN            00:  6 CALIPER                                         
RHOB    .G/C3          00:  7 BULK DENSITY                                    
MLL     .OHMM          00:  8 MICROLATEROLOG                                  
DRHO    .G/C3          00:  9 DENSITY CORRECTN                                
CNS     .%             00: 10 COMPENSATED NEUT (-S)                           
~A  DEPTH    GR         LLS        SP         LLD        CALI       RHOB       MLL        DRHO       CNS                                                                                                                                                      
# ...
 10206.000   53.69860   65.66780   33.53180   129.5456   9.379300   1.855100   3.487800   -.091500   68.32730 
 10206.500   58.30094   65.33971   32.93607   127.5321   9.373953   1.927522   3.617166   -.077691   66.24730 
 10207.000   62.90650   65.01180   32.34070   125.5198   9.368600   1.999900   3.746400   -.063900   64.17090 
 10207.500   68.81477   63.56258   31.71572   117.4791   9.406176   2.149537   4.689633   0.010558   61.09070 
 10208.000   74.72470   62.11150   31.08980   109.4464   9.443700   2.299100   5.634300   0.085100   58.01270 
 10208.500   77.36246   56.94949   30.32244   97.53195   9.434296   2.267472   5.615958   0.076055   55.81728 
 10209.000   79.99990   51.79490   29.55560   85.63190   9.424900   2.235900   5.597600   0.067000   53.61870 
 10209.500   76.57673   49.25220   28.81638   79.58806   9.388683   2.062888   6.745337   0.039777   56.53977 
 10210.000   73.15620   46.70620   28.07670   73.53680   9.352500   1.890000   7.894500   0.012600   59.45820 
 10210.500   70.96416   47.21308   27.10009   73.27277   9.398105   1.815706   6.718895   -999.000   63.13821 
 10211.000   68.76930   47.71990   26.12250   73.00880   9.443700   1.741400   5.542800   -999.000   66.82110 
 10211.500   67.94077   47.40607   24.90171   73.54968   9.431599   1.765865   5.256204   -999.000   67.33718 
 10212.000   67.11280   47.09230   23.68180   74.09100   9.419500   1.790300   4.969700   -999.000   67.85340 
 10212.500   69.49638   47.27798   22.59960   76.02449   9.411452   1.864097   3.707951   -999.000   66.28204 
 10213.000   71.88310   47.46370   21.51710   77.96000   9.403400   1.937900   2.444400   0.033100   64.71040 
 10213.500   75.56589   49.92106   21.02056   81.44939   9.364515   2.048955   5.502748   0.053997   61.09797 
 10214.000   79.24500   52.38030   20.52410   84.93420   9.325600   2.160100   8.564800   0.074900   57.49120 
 10214.500   80.18222   52.18072   21.07462   84.69151   9.313554   2.302514   7.562297   0.089005   52.15276 
 10215.000   81.11990   51.98140   21.62580   84.44890   9.301500   2.444700   6.559600   0.103100   46.80690 
 10215.500   79.45689   47.98513   22.15473   82.11935   9.372557   2.388341   6.129586   0.085761   46.91171 
 10216.000   77.79290   43.99540   22.68310   79.79320   9.443700   2.332100   5.699400   0.068400   47.01650 
 10216.500   76.81078   43.65891   22.78553   84.42247   9.474552   2.210953   6.786242   -999.000   53.23074 
 10217.000   75.82780   43.32200   22.88810   89.04450   9.505400   2.089600   7.872600   -999.000   59.44850 
 10217.500   75.30121   47.32744   22.84159   99.55470   9.438326   1.975876   7.942588   -999.000   64.69195 
 10218.000   74.77400   51.33800   22.79510   110.0636   9.371200   1.862200   8.012500   -999.000   69.92990 
 10218.500   70.94558   55.22092   23.17681   112.4373   9.367201   1.830792   6.956789   -999.000   70.72391 
 10219.000   67.11810   59.10280   23.55820   114.8087   9.363200   1.799400   5.902500   -.013200   71.51810 
 10219.500   63.37618   53.28775   23.97826   102.0979   9.446322   1.741156   8.332617   -.019946   73.07387 
 10220.000   59.63710   47.47710   24.39920   89.37710   9.529500   1.682900   10.76480   -.026700   74.62920 
 10220.500   56.29477   40.70137   24.78384   77.74578   9.546965   1.641579   7.028003   -.028400   75.40807 
 10221.000   52.94490   33.92190   25.16890   66.11610   9.564400   1.600200   3.286000   -.030100   76.18710 
 10221.500   55.41843   34.90345   25.35640   67.84745   9.517479   1.611446   3.878932   -.055252   74.37708 
 10222.000   57.89230   35.88320   25.54410   69.58190   9.470500   1.622700   4.472100   -.080400   72.56410 
 10222.500   61.99491   42.66985   25.83134   77.25254   9.329655   1.745861   19.29579   -.046890   62.32867 
 10223.000   66.09170   49.44180   26.11900   84.92640   9.188800   1.869100   34.12350   -.013400   52.09800 
 10223.500   69.82155   50.86632   26.63333   84.22514   9.393921   2.131385   21.37085   -999.000   42.05893 
 10224.000   73.55090   52.29010   27.14720   83.52420   9.599200   2.394000   8.608600   -999.000   32.02530 
 10224.500   76.04816   48.52032   27.40969   78.52853   9.579098   2.511921   14.62183   -999.000   29.78180 
 10225.000   78.54200   44.75250   27.67240   73.54000   9.559000   2.630000   20.63640   0.063000   27.53610 
 10225.500   84.25305   40.82802   27.91117   67.13197   9.499941   2.622152   16.71386   0.056405   27.23678 
 10226.000   89.95720   36.90660   28.14960   60.71840   9.441000   2.614300   12.79420   0.049800   26.93710 
 10226.500   88.04036   35.21150   28.44233   57.20505   9.491902   2.579384   10.18091   0.070587   29.31297 
 10227.000   86.12290   33.51420   28.73460   53.69800   9.542900   2.544500   7.566100   0.091400   31.68880 
 10227.500   84.60716   35.17561   28.69503   56.78222   9.479821   2.530764   5.392581   0.069910   34.66892 
 10228.000   83.08980   36.83640   28.65540   59.86480   9.416800   2.517000   3.221100   0.048400   37.64560 
 10228.500   84.14200   41.60619   28.95010   67.97953   9.400763   2.520648   33.97208   0.064212   36.37791 
 10229.000   85.19430   46.37200   29.24470   76.09620   9.384700   2.524300   64.75070   0.080000   35.10900 
 10229.500   81.79159   50.10492   29.68387   82.31601   9.407492   2.548259   54.47511   0.085553   31.79718 
 10230.000   78.38230   53.83820   30.12330   88.52890   9.430300   2.572200   44.19950   0.091100   28.49290 
 10230.500   73.72771   54.21252   30.38923   90.32297   9.426250   2.555463   42.02286   0.108388   25.73911 
 10231.000   69.07790   54.58680   30.65480   92.11620   9.422200   2.538700   39.84800   0.125700   22.98500 
 10231.500   72.07251   57.01141   30.84846   96.81352   9.497349   2.557844   41.12893   0.117504   21.22305 
 10232.000   75.06570   59.43610   31.04220   101.5159   9.572400   2.577000   42.40820   0.109300   19.45830 
 10232.500   73.89984   64.70477   31.14934   106.9112   9.556288   2.615040   90.50975   0.123939   19.71008 
 10233.000   72.73270   69.97130   31.25650   112.3017   9.540200   2.653100   138.6069   0.138600   19.96180 
 10233.500   69.34083   63.87758   31.39939   99.42720   9.513380   2.695171   103.5408   0.116997   20.87648 
 10234.000   65.95430   57.78340   31.54230   86.56290   9.486600   2.737200   68.46600   0.095400   21.79150 
 10234.500   71.92641   49.58660   31.66747   74.57858   9.446349   2.713338   45.15294   0.084801   21.53350 
 10235.000   77.89950   41.40260   31.79270   62.58980   9.406100   2.689500   21.82740   0.074200   21.27520 
 10235.500   87.72003   39.77111   31.59516   60.55752   9.455740   2.645298   27.11093   0.112828   23.40495 
 10236.000   97.53810   38.14270   31.39780   58.52320   9.505400   2.601100   32.39650   0.151500   25.53330 
 10236.500   98.59549   39.68736   31.43793   60.85365   9.452998   2.599701   36.66040   0.127799   26.52464 
 10237.000   99.65200   41.23370   31.47800   63.18220   9.400700   2.598300   40.92210   0.104100   27.51510 
 10237.500   98.00635   43.40422   31.29882   66.62849   9.373928   2.611435   32.42728   0.101102   27.04796 
 10238.000   96.36040   45.57670   31.11980   70.08080   9.347100   2.624600   23.94650   0.098100   26.57990 
 10238.500   86.00805   48.71173   30.71085   75.47382   9.325642   2.616944   27.16845   0.071451   25.11088 
 10239.000   75.64670   51.84700   30.30280   80.87430   9.304200   2.609300   30.39670   0.044800   23.64270 
 10239.500   69.11607   53.40273   30.32950   83.88307   9.373976   2.585000   23.33187   0.093243   21.16530 
 10240.000   62.57080   54.95950   30.35620   86.88940   9.443700   2.560700   16.26420   0.141700   18.68710 
 10240.500   64.55136   53.81908   30.57371   85.49072   9.486626   2.573949   16.69735   0.135551   17.99860 
 10241.000   66.53290   52.67970   30.79170   84.09350   9.529500   2.587200   17.12960   0.129400   17.30930 
 10241.500   63.29800   53.06923   30.81934   84.74888   9.436951   2.586199   17.20183   0.108460   17.22669 
 10242.000   60.06490   53.45860   30.84700   85.40330   9.344400   2.585200   17.27400   0.087500   17.14410 
